latitude,longitude,address,poi_name,poi_type,region,qualifying_rules,confidence,nearest_pharmacy_km,nearest_pharmacy_name,catchment_pop,effective_pop,pharmacy_count_5km,pharmacy_count_10km,market_share,est_annual_scripts,gp_fte,is_remote,growth_indicator,growth_details,est_annual_revenue,est_annual_costs,est_annual_profit,total_investment,roi,payback_years,npv_10yr,worst_revenue,worst_profit,worst_roi,worst_npv,best_revenue,best_profit,best_roi,best_npv
-36.6095617,143.2468538,,East Wimmera Health Service St Arnaud Campus,hospital,VIC,Item 131,70%,35.62,Caremore Pharmacy Donald,2126,2126,0,0,0.8,22110,0.0,True,,,561264.0,721884.8,-160620.8,657500,-0.2443,999.0,-1721662.76,392884.8,-301737.46,-0.4589,-2656604.55,729643.2,-26132.02,-0.0397,-830632.73
-37.558366,149.7534583,,Mallacoota Medical Centre,hospital,VIC,Item 131,70%,56.47,Eden Pharmacy,1118,1118,0,0,0.8,11627,0.0,True,,,295152.0,535606.4,-240454.4,657500,-0.3657,999.0,-2250585.19,206606.4,-338061.75,-0.5142,-2897264.25,383697.6,-154131.89,-0.2344,-1678671.7
-37.9242465,141.2754502,,Dartmoor & District Bush Nursing Centre,hospital,VIC,Item 131,70%,38.64,Heywood Pharmacy,744,744,0,0,0.8,7737,0.0,True,,,196416.0,466491.2,-270075.2,657500,-0.4108,999.0,-2446832.2,137491.2,-351539.22,-0.5347,-2986556.64,255340.8,-201623.9,-0.3067,-1993321.07
-36.381404,141.2460378,,Kaniava Hospital,hospital,VIC,Item 131,70%,36.56,Nhill Pharmacy,683,683,0,0,0.8,7103,0.0,True,,,180312.0,455218.4,-274906.4,657500,-0.4181,999.0,-2478840.4,126218.4,-353737.41,-0.538,-3001120.37,234405.6,-209369.93,-0.3184,-2044640.89
-36.670831,142.8698477,,Marnoo General Store,supermarket,VIC,Item 131,70%,34.45,Minyip Medical Supplies Depot,500,500,0,0,0.8,5200,0.0,True,,,132000.0,421400.0,-289400.0,657500,-0.4402,999.0,-2574865.01,92400.0,-360332.0,-0.548,-3044811.57,171600.0,-232608.0,-0.3538,-2198600.35
-37.9526412,143.3356478,,Lismore Community Health,gp,VIC,Item 131,70%,29.72,Skipton Pharmacy,513,513,0,0,0.8,5335,0.0,True,,,135432.0,423802.4,-288370.4,657500,-0.4386,999.0,-2568043.59,94802.4,-359863.53,-0.5473,-3041707.82,176061.6,-230957.21,-0.3513,-2187663.34
-38.7020259,145.8204444,"Venus Bay General Store, Jupiter Boulevard, Venus Bay First Estate, Venus Bay, Shire of South Gippsland, Victoria, 3956, Australia",Venus Bay General Store,supermarket,VIC,Item 131,85%,25.66,TerryWhite Chemmart Inverloch,1467,1467,0,0,0.8,15256,0.0,True,,,387288.0,600101.6,-212813.6,657500,-0.3237,999.0,-2067456.29,271101.6,-325485.19,-0.495,-2813940.6,503474.4,-109814.47,-0.167,-1385055.03
-38.8125072,146.2076606,,Yanakie General Store,supermarket,VIC,Item 131,70%,17.19,AMCAL FISH CREEK,754,754,0,0,0.8,7841,0.0,True,,,199056.0,468339.2,-269283.2,657500,-0.4096,999.0,-2441584.95,139339.2,-351178.86,-0.5341,-2984169.14,258772.8,-200354.06,-0.3047,-1984907.99
-37.8773663,142.2824238,,Western District Health Service - Penshurst,hospital,VIC,Item 131,70%,25.86,Dunkeld Pharmacy,491,491,0,0,0.8,5106,0.0,True,,,129624.0,419736.8,-290112.8,657500,-0.4412,999.0,-2579587.53,90736.8,-360656.32,-0.5485,-3046960.32,168511.2,-233750.86,-0.3555,-2206172.12
-37.5636617,149.151655,,Cann Valley Bush Nursing Centre,hospital,VIC,Item 131,70%,63.35,Orbost Pharmacy,188,188,0,0,0.8,1955,0.0,True,,,49632.0,363742.4,-314110.4,657500,-0.4777,999.0,-2738579.09,34742.4,-371575.23,-0.5651,-3119301.48,64521.6,-272227.01,-0.414,-2461088.6
-37.5663456,149.1514288,,Cann River Friendly Grocer,supermarket,VIC,Item 131,70%,63.26,Orbost Pharmacy,188,188,0,0,0.8,1955,0.0,True,,,49632.0,363742.4,-314110.4,657500,-0.4777,999.0,-2738579.09,34742.4,-371575.23,-0.5651,-3119301.48,64521.6,-272227.01,-0.414,-2461088.6
-37.7976134,144.8061424,,Coles,supermarket,VIC,Item 133,75%,1.29,Glengala Road Pharmacy,2892888,50000,19,97,0.2,130000,0.0,False,,,3300000.0,2734000.0,566000.0,657500,0.8608,1.16,3092426.04,2310000.0,-37150.0,-0.0565,-903630.3,4290000.0,1205700.0,1.8338,7330637.5
-37.9477921,143.2228086,,IGA Friendly Grocer,supermarket,VIC,"Item 131, Item 133",70%,31.67,Skipton Pharmacy,343,343,0,0,0.8,3567,0.0,True,,,90552.0,392386.4,-301834.4,657500,-0.4591,999.0,-2657246.78,63386.4,-365989.65,-0.5566,-3082295.27,117717.6,-252544.49,-0.3841,-2330685.78
-37.7474,144.816,"49, Novara Parade, St Albans South, St Albans, Melbourne, City of Brimbank, Victoria, 3021, Australia",Sunshine Hospital Medical Centre,medical_centre,VIC,Item 136,95%,1.32,Thao Nguyen Pharmacy - St Albans,2703384,50000,31,128,0.2,130000,12.0,False,,,3600000.0,2944000.0,656000.0,657500,0.9977,1.0,3688704.03,2520000.0,3800.0,0.0058,-632323.82,4680000.0,1350000.0,2.0532,8286669.88
-36.745218,141.9372078,,Peter M. Sudholz Medical & Allied Health Centre,gp,VIC,Item 131,70%,23.37,Priceline Pharmacy Horsham,421,421,0,0,0.8,4378,0.0,True,,,111144.0,406800.8,-295656.8,657500,-0.4497,999.0,-2616318.25,77800.8,-363178.84,-0.5524,-3063672.8,144487.2,-242639.74,-0.369,-2265063.72
-37.7123253,142.8392691,,Lake Bolac Licensed Supermarket,supermarket,VIC,Item 131,70%,41.06,Mortlake Caremore Pharmacy,218,218,0,0,0.8,2267,0.0,True,,,57552.0,369286.4,-311734.4,657500,-0.4741,999.0,-2722837.36,40286.4,-370494.15,-0.5635,-3112138.99,74817.6,-268417.49,-0.4082,-2435849.34
-36.2714207,144.5356462,,Lockington Friendly Grocer + Liquor,supermarket,VIC,Item 131,70%,17.89,TerryWhite Chemmart Rochester,500,500,0,0,0.8,5200,0.0,True,,,132000.0,421400.0,-289400.0,657500,-0.4402,999.0,-2574865.01,92400.0,-360332.0,-0.548,-3044811.57,171600.0,-232608.0,-0.3538,-2198600.35
-37.5479311,142.7398878,,Willaura Supermarket,supermarket,VIC,Item 131,70%,33.80,Priceline Pharmacy Ararat,240,240,0,0,0.8,2496,0.0,True,,,63360.0,373352.0,-309992.0,657500,-0.4715,999.0,-2711293.41,44352.0,-369701.36,-0.5623,-3106886.49,82368.0,-265623.84,-0.404,-2417340.55
-37.42274336666667,144.56392013333334,,Macedon IGA plus Liquor,supermarket,VIC,"Item 130, Item 133",75%,7.26,UFS Dispensaries - Neal Street,2926,2926,0,7,0.8,30430,0.0,False,,,772464.0,869724.8,-97260.8,657500,-0.1479,999.0,-1301883.05,540724.8,-272908.66,-0.4151,-2465604.78,1004203.2,75455.18,0.1148,-157585.94
-37.1461904,146.4489816,,Village Grocer,supermarket,VIC,Item 131,70%,33.47,Mansfield Pharmacy,221,221,0,0,0.8,2298,0.0,True,,,58344.0,369840.8,-311496.8,657500,-0.4738,999.0,-2721263.18,40840.8,-370386.04,-0.5633,-3111422.74,75847.2,-268036.54,-0.4077,-2433325.42
-37.1460735,146.4453481,,Mt Buller Medical Centre,gp,VIC,Item 131,70%,33.16,Mansfield Pharmacy,221,221,0,0,0.8,2298,0.0,True,,,58344.0,369840.8,-311496.8,657500,-0.4738,999.0,-2721263.18,40840.8,-370386.04,-0.5633,-3111422.74,75847.2,-268036.54,-0.4077,-2433325.42
-36.983475,147.1422061,,Mount Hotham Medical Centre,gp,VIC,Item 131,70%,26.80,Mount Beauty Pharmacy,255,255,0,0,0.8,2652,0.0,True,,,67320.0,376124.0,-308804.0,657500,-0.4697,999.0,-2703422.54,47124.0,-369160.82,-0.5615,-3103305.25,87516.0,-263719.08,-0.4011,-2404720.93
-36.9816356,147.1425355,,Hotham Supermarket,supermarket,VIC,Item 131,70%,26.59,Mount Beauty Pharmacy,255,255,0,0,0.8,2652,0.0,True,,,67320.0,376124.0,-308804.0,657500,-0.4697,999.0,-2703422.54,47124.0,-369160.82,-0.5615,-3103305.25,87516.0,-263719.08,-0.4011,-2404720.93
-37.248503799999995,141.8410323,,Balmoral Community Store,supermarket,VIC,Item 131,70%,41.20,Coleraine Pharmacy,161,161,0,0,0.8,1674,0.0,True,,,42504.0,358752.8,-316248.8,657500,-0.481,999.0,-2752746.66,29752.8,-372548.2,-0.5666,-3125747.72,55255.2,-275655.58,-0.4192,-2483803.93
-36.1794271,146.9472457,,IGA Baranduda,supermarket,VIC,"Item 133, Item 134",65%,5.75,Good Price Pharmacy Warehouse - Wodonga,1950,1950,0,7,0.8,20280,0.0,False,,,514800.0,689360.0,-174560.0,657500,-0.2655,999.0,-1814014.29,360360.0,-308079.8,-0.4686,-2698624.49,669240.0,-48481.2,-0.0737,-978703.03
-38.3098264,142.6416732,,Kirrae Health Service,gp,VIC,Item 131,85%,15.72,Chemist Warehouse,1733,1733,0,0,0.8,18023,0.0,True,,,457512.0,649258.4,-191746.4,657500,-0.2916,999.0,-1927879.54,320258.4,-315899.61,-0.4805,-2750433.18,594765.6,-76036.73,-0.1156,-1161266.97
-36.8621245,147.2774822,,Falls Creek Medical Centre,gp,VIC,Item 131,70%,16.27,Mount Beauty Pharmacy,321,321,0,0,0.8,3338,0.0,True,,,84744.0,388320.8,-303576.8,657500,-0.4617,999.0,-2668790.72,59320.8,-366782.44,-0.5578,-3087547.77,110167.2,-255338.14,-0.3883,-2349194.57
-37.8572274,145.1237031,,Andrew Street Grocer,supermarket,VIC,Item 133,65%,1.01,Quality Pharmacy 777 Burwood East,2709482,50000,56,186,0.2,130000,0.0,False,,,3300000.0,2734000.0,566000.0,657500,0.8608,1.16,3092426.04,2310000.0,-37150.0,-0.0565,-903630.3,4290000.0,1205700.0,1.8338,7330637.5
-36.076795,145.6881216,,Katamatite Fuel & Grocery,supermarket,VIC,Item 131,70%,17.79,Cobram Discount Drug Store,240,240,0,0,0.8,2496,0.0,True,,,63360.0,373352.0,-309992.0,657500,-0.4715,999.0,-2711293.41,44352.0,-369701.36,-0.5623,-3106886.49,82368.0,-265623.84,-0.404,-2417340.55
-37.87852663333334,145.06762386666665,,Malvern Irrigation Supplies,shopping_centre,VIC,Item 134,55%,0.81,Malvern East Pharmacy,3327750,50000,62,246,0.2,130000,0.0,False,,,3300000.0,2734000.0,566000.0,657500,0.8608,1.16,3092426.04,2310000.0,-37150.0,-0.0565,-903630.3,4290000.0,1205700.0,1.8338,7330637.5
-35.9382726,142.4216616,,Rural Northwest Health Beulah Campus,hospital,VIC,Item 131,70%,24.03,Mallee Pharmacy,170,170,0,0,0.8,1768,0.0,True,,,44880.0,360416.0,-315536.0,657500,-0.4799,999.0,-2748024.14,31416.0,-372223.88,-0.5661,-3123598.97,58344.0,-274512.72,-0.4175,-2476232.15
-35.6820249,142.6653918,,Woomelang & District Bush Nursing Centre,hospital,VIC,Item 131,70%,25.93,Sea Lake Pharmacy,145,145,0,0,0.8,1508,0.0,True,,,38280.0,355796.0,-317516.0,657500,-0.4829,999.0,-2761142.25,26796.0,-373124.78,-0.5675,-3129567.72,49764.0,-277687.32,-0.4223,-2497264.86
-38.6198568,142.9944635,,Port Campbell Store,supermarket,VIC,Item 131,70%,15.06,Timboon Pharmacy,231,231,0,0,0.8,2402,0.0,True,,,60984.0,371688.8,-310704.8,657500,-0.4726,999.0,-2716015.94,42688.8,-370025.68,-0.5628,-3109035.24,79279.2,-266766.7,-0.4057,-2424912.33
-38.476991,143.217219,,Trade Land,supermarket,VIC,Item 131,70%,20.56,Cobden Pharmacy,166,166,0,0,0.8,1726,0.0,True,,,43824.0,359676.8,-315852.8,657500,-0.4804,999.0,-2750123.04,30676.8,-372368.02,-0.5663,-3124553.97,56971.2,-275020.66,-0.4183,-2479597.38
-37.7884814,145.1199209,,China Bar,shopping_centre,VIC,Item 134,55%,0.60,My Chemist,2864917,50000,43,162,0.2,130000,0.0,False,,,3300000.0,2734000.0,566000.0,657500,0.8608,1.16,3092426.04,2310000.0,-37150.0,-0.0565,-903630.3,4290000.0,1205700.0,1.8338,7330637.5
-37.177529199999995,143.2477619,,Smith's Foodland,supermarket,VIC,Item 131,70%,22.33,Avoca Gold Chemist,139,139,0,0,0.8,1445,0.0,True,,,36696.0,354687.2,-317991.2,657500,-0.4836,999.0,-2764290.6,25687.2,-373341.0,-0.5678,-3131000.21,47704.8,-278449.22,-0.4235,-2502312.71
-38.5777296,146.0137354,"IGA Local Grocer and Liquor, Whitelaw Street, Meeniyan, Shire of South Gippsland, Victoria, 3956, Australia",IGA Local Grocer and Liquor,supermarket,VIC,"Item 131, Item 133",85%,15.95,TerryWhite Chemmart Leongatha,936,936,0,0,0.8,9734,0.0,True,,,247104.0,501972.8,-254868.8,657500,-0.3876,999.0,-2346085.07,172972.8,-344620.3,-0.5241,-2940716.7,321235.2,-177242.98,-0.2696,-1831789.84
-36.6366404,142.63177845,"Rupanyup Doctors Surgery, 91, Cromie Street, Rupanyup, Shire of Yarriambiack, Victoria, 3388, Australia",Rupanyup Doctors Surgery,gp,VIC,Item 131,85%,15.93,Murtoa Community Pharmacy,353,353,0,0,0.8,3671,0.0,True,,,93192.0,394234.4,-301042.4,657500,-0.4579,999.0,-2651999.53,65234.4,-365629.29,-0.5561,-3079907.78,121149.6,-251274.65,-0.3822,-2322272.69
-36.6307452,142.6307295,"Rupanyup Supermarket, Cromie Street, Rupanyup, Shire of Yarriambiack, Victoria, 3388, Australia",Rupanyup Supermarket,supermarket,VIC,Item 131,85%,15.04,Murtoa Community Pharmacy,353,353,0,0,0.8,3671,0.0,True,,,93192.0,394234.4,-301042.4,657500,-0.4579,999.0,-2651999.53,65234.4,-365629.29,-0.5561,-3079907.78,121149.6,-251274.65,-0.3822,-2322272.69
-36.4645659,147.2489774,,Eskdale IGA X-press + Liquor,supermarket,VIC,Item 131,70%,28.30,Tallangatta Pharmacy,84,84,0,0,0.8,873,0.0,True,,,22176.0,344523.2,-322347.2,657500,-0.4903,999.0,-2793150.46,15523.2,-375322.98,-0.5708,-3144131.45,28828.8,-285433.34,-0.4341,-2548584.68
-37.8447747,144.8454614,,Aldi,supermarket,VIC,Item 133,70%,0.23,Pharmacy 4 Less,3469418,50000,22,90,0.2,130000,0.0,False,,,3300000.0,2734000.0,566000.0,657500,0.8608,1.16,3092426.04,2310000.0,-37150.0,-0.0565,-903630.3,4290000.0,1205700.0,1.8338,7330637.5
-37.758713549999996,145.0686608,,Woolworths,supermarket,VIC,"Item 133, Item 134",75%,0.36,Heidelberg Healthcare Pharmacy & Compounding,3420643,50000,35,213,0.2,130000,0.0,False,,,3300000.0,2734000.0,566000.0,657500,0.8608,1.16,3092426.04,2310000.0,-37150.0,-0.0565,-903630.3,4290000.0,1205700.0,1.8338,7330637.5
-37.723371,144.9623695,,ALDI,supermarket,VIC,Item 133,70%,0.34,Direct Chemist Outlet Coburg North,3616729,50000,57,231,0.2,130000,0.0,False,,,3300000.0,2734000.0,566000.0,657500,0.8608,1.16,3092426.04,2310000.0,-37150.0,-0.0565,-903630.3,4290000.0,1205700.0,1.8338,7330637.5
-36.076008,142.4153186,,McPherson General Store,supermarket,VIC,Item 131,70%,19.50,Warracknabeal Pharmacy,99,99,0,0,0.8,1029,0.0,True,,,26136.0,347295.2,-321159.2,657500,-0.4885,999.0,-2785279.59,18295.2,-374782.44,-0.57,-3140550.2,33976.8,-283528.58,-0.4312,-2535965.05
-38.6657911,146.4369242,,Welshpool Supermarket,supermarket,VIC,Item 131,75%,10.70,Toora Pharmacy,532,532,0,1,0.8,5532,0.0,True,,,140448.0,427313.6,-286865.6,657500,-0.4363,999.0,-2558073.82,98313.6,-359178.85,-0.5463,-3037171.58,182582.4,-228544.51,-0.3476,-2171678.47
-37.8689178,144.8299879,,Coles,supermarket,VIC,Item 133,75%,0.16,Chemist Discount Centre Altona,3033002,50000,11,62,0.2,130000,0.0,False,,,3300000.0,2734000.0,566000.0,657500,0.8608,1.16,3092426.04,2310000.0,-37150.0,-0.0565,-903630.3,4290000.0,1205700.0,1.8338,7330637.5
-37.85772795,144.88246005,,Woolworths,supermarket,VIC,"Item 133, Item 134",75%,1.30,Priceline Pharmacy Williamstown,3906114,50000,22,150,0.2,130000,0.0,False,,,3300000.0,2734000.0,566000.0,657500,0.8608,1.16,3092426.04,2310000.0,-37150.0,-0.0565,-903630.3,4290000.0,1205700.0,1.8338,7330637.5
-38.7004152,145.8680277,"IGA, 39, River Drive, Tarwin Lower, Shire of South Gippsland, Victoria, 3956, Australia",IGA,supermarket,VIC,"Item 131, Item 133",85%,20.86,TerryWhite Chemmart Inverloch,199,199,0,0,0.8,2069,0.0,True,,,52536.0,365775.2,-313239.2,657500,-0.4764,999.0,-2732807.12,36775.2,-371178.84,-0.5645,-3116675.23,68296.8,-270830.18,-0.4119,-2451834.2
-37.75626616666667,145.06925973333333,,Coles,supermarket,VIC,"Item 133, Item 134",75%,0.30,Heidelberg Healthcare Pharmacy & Compounding,3383349,50000,32,208,0.2,130000,0.0,False,,,3300000.0,2734000.0,566000.0,657500,0.8608,1.16,3092426.04,2310000.0,-37150.0,-0.0565,-903630.3,4290000.0,1205700.0,1.8338,7330637.5
-37.4614389,147.2508422,,Dargo General Store,supermarket,VIC,Item 131,70%,50.20,Omeo Pharmacy,31,31,0,0,0.8,322,0.0,True,,,8184.0,334728.8,-326544.8,657500,-0.4966,999.0,-2820960.86,5728.8,-377232.88,-0.5737,-3156785.18,10639.2,-292163.5,-0.4444,-2593174.03
-37.7145205,145.0073117,,Coles,supermarket,VIC,Item 133,75%,0.24,My Chemist,3351941,50000,50,191,0.2,130000,0.0,False,,,3300000.0,2734000.0,566000.0,657500,0.8608,1.16,3092426.04,2310000.0,-37150.0,-0.0565,-903630.3,4290000.0,1205700.0,1.8338,7330637.5
-36.7402262,144.2658686,,Champions SUPA IGA,supermarket,VIC,Item 133,65%,0.96,Chemist Warehouse,100649,50000,16,26,0.2,130000,0.0,False,,,3300000.0,2734000.0,566000.0,657500,0.8608,1.16,3092426.04,2310000.0,-37150.0,-0.0565,-903630.3,4290000.0,1205700.0,1.8338,7330637.5
-37.7820639,144.8643704,,Braybrook Plaza,shopping_centre,VIC,Item 134,55%,1.12,Chemist Warehouse Maribyrnong,3752469,50000,46,204,0.2,130000,0.0,False,,,3300000.0,2734000.0,566000.0,657500,0.8608,1.16,3092426.04,2310000.0,-37150.0,-0.0565,-903630.3,4290000.0,1205700.0,1.8338,7330637.5
-38.2420198,144.1748634,"Moriac Medical Centre, 806, Hendy Main Road, Moriac, Surf Coast Shire, Victoria, 3240, Australia",Moriac Medical Centre,gp,VIC,Item 131,85%,15.68,Slade Pharmacy Waurn Ponds,1248,1248,0,0,0.8,12979,0.0,True,,,329472.0,559630.4,-230158.4,657500,-0.3501,999.0,-2182370.98,230630.4,-333377.07,-0.507,-2866226.79,428313.6,-137623.97,-0.2093,-1569301.59
-38.1925375,146.5554809,,ALDI,supermarket,VIC,Item 133,70%,1.42,Priceline Pharmacy Traralgon,27628,27628,6,8,0.2,71832,0.0,False,,,1823448.0,1700413.6,123034.4,657500,0.1871,5.34,157641.17,1276413.6,-129449.35,-0.1969,-1515142.19,2370482.4,495478.49,0.7536,2625199.09
-37.8778132,145.09243943333334,,Chadstone Lifestyle Precinct,shopping_centre,VIC,"Item 132, Item 133, Item 134",85%,0.26,Chemist Warehouse,2996851,50000,53,243,0.2,130000,0.0,False,,,3300000.0,2734000.0,566000.0,657500,0.8608,1.16,3092426.04,2310000.0,-37150.0,-0.0565,-903630.3,4290000.0,1205700.0,1.8338,7330637.5
-37.5997464,143.8398507,,Coles Sebastopol,supermarket,VIC,"Item 133, Item 134",75%,0.93,Chemist Warehouse Sebastopol,105435,50000,19,30,0.2,130000,0.0,False,,,3300000.0,2734000.0,566000.0,657500,0.8608,1.16,3092426.04,2310000.0,-37150.0,-0.0565,-903630.3,4290000.0,1205700.0,1.8338,7330637.5
-38.1554329,144.33585541428573,,Newtown Advisory Group,shopping_centre,VIC,Item 134,55%,0.86,Peak Pharmacy Newtown,157079,50000,31,50,0.2,130000,0.0,False,,,3300000.0,2734000.0,566000.0,657500,0.8608,1.16,3092426.04,2310000.0,-37150.0,-0.0565,-903630.3,4290000.0,1205700.0,1.8338,7330637.5
-36.7576168,144.2962722,,Coles,supermarket,VIC,Item 133,75%,0.81,Emily Roberts Pharmacy 777,100649,50000,16,27,0.2,130000,0.0,False,,,3300000.0,2734000.0,566000.0,657500,0.8608,1.16,3092426.04,2310000.0,-37150.0,-0.0565,-903630.3,4290000.0,1205700.0,1.8338,7330637.5
-38.3498232,141.603926,,IGA,supermarket,VIC,Item 133,65%,0.45,Portland Amcal Pharmacy,10450,10450,1,1,0.4,54340,0.0,False,,,1379400.0,1294580.0,84820.0,657500,0.129,7.75,-95541.12,965580.0,-190061.9,-0.2891,-1916719.2,1793220.0,281891.4,0.4287,1210118.2
-37.8311018,144.9307435,,Woolworths,supermarket,VIC,Item 133,75%,1.13,Beacon Cove Pharmacy,196349,50000,88,264,0.2,130000,0.0,False,,,3300000.0,2734000.0,566000.0,657500,0.8608,1.16,3092426.04,2310000.0,-37150.0,-0.0565,-903630.3,4290000.0,1205700.0,1.8338,7330637.5
-37.7891777,145.0125134,,Thomas Embling Hospital,hospital,VIC,Item 135,55%,1.32,Fairfield Pharmacy,4556347,50000,100,312,0.2,130000,0.0,False,,,3300000.0,2734000.0,566000.0,657500,0.8608,1.16,3092426.04,2310000.0,-37150.0,-0.0565,-903630.3,4290000.0,1205700.0,1.8338,7330637.5
-37.6889515,144.9599995,,Coles,supermarket,VIC,Item 133,75%,0.16,Campbellfield Pharmacy,2889923,50000,36,170,0.2,130000,0.0,False,,,3300000.0,2734000.0,566000.0,657500,0.8608,1.16,3092426.04,2310000.0,-37150.0,-0.0565,-903630.3,4290000.0,1205700.0,1.8338,7330637.5
-36.755792,144.2629372,,Salvos Thrift Shop,shopping_centre,VIC,Item 134,55%,0.70,Slade Pharmacy Bendigo,100649,50000,20,26,0.2,130000,0.0,False,,,3300000.0,2734000.0,566000.0,657500,0.8608,1.16,3092426.04,2310000.0,-37150.0,-0.0565,-903630.3,4290000.0,1205700.0,1.8338,7330637.5
-37.8820925,147.97417,,ALDI,supermarket,VIC,Item 133,70%,1.17,Lakes Esplanade Pharmacy,6627,6627,2,2,0.3,25845,0.0,False,,,656073.0,788251.1,-132178.1,657500,-0.201,999.0,-1533221.02,459251.1,-288796.04,-0.4392,-2570863.56,852894.9,19471.11,0.0296,-528497.82
-36.3592127,145.4109254,,Shepparton Private Hospital,hospital,VIC,Item 135,55%,0.83,Chemist Warehouse Shepparton North,34915,34915,9,14,0.2,90779,0.0,False,,,2304390.0,2037073.0,267317.0,657500,0.4066,2.46,1113558.27,1613073.0,-173050.76,-0.2632,-1804015.14,2995707.0,726811.59,1.1054,4157852.84
-38.1672499,144.3195546,,IGA,supermarket,VIC,Item 133,65%,0.64,Pardeys Highton Pharmacy,157579,50000,34,48,0.2,130000,0.0,False,,,3300000.0,2734000.0,566000.0,657500,0.8608,1.16,3092426.04,2310000.0,-37150.0,-0.0565,-903630.3,4290000.0,1205700.0,1.8338,7330637.5
-37.8213474,144.8962221,,Alligator Brand Pasta,supermarket,VIC,Item 133,65%,0.76,Miles Yarraville Village Pharmacy,4408329,50000,56,233,0.2,130000,0.0,False,,,3300000.0,2734000.0,566000.0,657500,0.8608,1.16,3092426.04,2310000.0,-37150.0,-0.0565,-903630.3,4290000.0,1205700.0,1.8338,7330637.5
-37.913326,144.9927645,,Coles,supermarket,VIC,Item 133,75%,0.11,Brighton Health Pharmacy,3386277,50000,45,157,0.2,130000,0.0,False,,,3300000.0,2734000.0,566000.0,657500,0.8608,1.16,3092426.04,2310000.0,-37150.0,-0.0565,-903630.3,4290000.0,1205700.0,1.8338,7330637.5
-37.9599664,146.98583,,Foodworks,supermarket,VIC,Item 133,55%,1.03,Maffra Pharmacy,4548,4548,2,3,0.3,17737,0.0,False,,,450252.0,644176.4,-193924.4,657500,-0.2949,999.0,-1942309.46,315176.4,-316890.6,-0.482,-2756998.8,585327.6,-79528.79,-0.121,-1184402.96
-36.3591735,146.3169075,,Coles,supermarket,VIC,Item 133,75%,0.87,Ramsay Pharmacy,19712,19712,6,6,0.2,51251,0.0,False,,,1300992.0,1239694.4,61297.6,657500,0.0932,10.73,-251384.34,910694.4,-200764.59,-0.3053,-1987627.86,1691289.6,244177.15,0.3714,960249.58
-38.2473653,144.5402618,,ALDI,supermarket,VIC,Item 133,70%,0.32,Direct Chemist Outlet Kingston,22315,22315,3,9,0.2,58019,0.0,False,,,1472790.0,1359953.0,112837.0,657500,0.1716,5.83,90080.22,1030953.0,-177314.16,-0.2697,-1832261.49,1914627.0,326811.99,0.4971,1507731.08
-36.7669138,144.2651965,,Woolworths,supermarket,VIC,Item 133,75%,0.56,Golden Square's Pharmacy,100649,50000,18,27,0.2,130000,0.0,False,,,3300000.0,2734000.0,566000.0,657500,0.8608,1.16,3092426.04,2310000.0,-37150.0,-0.0565,-903630.3,4290000.0,1205700.0,1.8338,7330637.5
-37.80008875,144.9953537,,Woolworths Metro,supermarket,VIC,Item 133,75%,0.95,Newton & Leung Pharmacy,196349,50000,132,325,0.2,130000,0.0,False,,,3300000.0,2734000.0,566000.0,657500,0.8608,1.16,3092426.04,2310000.0,-37150.0,-0.0565,-903630.3,4290000.0,1205700.0,1.8338,7330637.5
-38.1967461,144.347245,,Champions IGA Grovedale East,supermarket,VIC,Item 133,65%,0.48,Grove Plaza Pharmacy,167234,50000,23,44,0.2,130000,0.0,False,,,3300000.0,2734000.0,566000.0,657500,0.8608,1.16,3092426.04,2310000.0,-37150.0,-0.0565,-903630.3,4290000.0,1205700.0,1.8338,7330637.5
-37.9530103,145.5510357,,IGA,supermarket,VIC,Item 133,65%,5.49,Cockatoo Pharmacy,1326,1326,0,3,0.8,13790,0.0,False,,,350064.0,574044.8,-223980.8,657500,-0.3407,999.0,-2141442.46,245044.8,-330566.26,-0.5028,-2847604.31,455083.2,-127719.22,-0.1942,-1503679.53
-38.1650593,144.39008627142857,,Fairie’s Door,shopping_centre,VIC,Item 134,55%,0.45,Community Care Chemist Bellarine Village,157079,50000,21,50,0.2,130000,0.0,False,,,3300000.0,2734000.0,566000.0,657500,0.8608,1.16,3092426.04,2310000.0,-37150.0,-0.0565,-903630.3,4290000.0,1205700.0,1.8338,7330637.5
-37.8034488,145.0841241,,IGA,supermarket,VIC,Item 133,65%,0.12,Balwyn North Pharmacy,3505102,50000,57,225,0.2,130000,0.0,False,,,3300000.0,2734000.0,566000.0,657500,0.8608,1.16,3092426.04,2310000.0,-37150.0,-0.0565,-903630.3,4290000.0,1205700.0,1.8338,7330637.5
-37.7911005,144.8899038,,IGA Friendly Grocer,supermarket,VIC,Item 133,65%,0.60,Patel & Chin Pharmacy,4218758,50000,56,236,0.2,130000,0.0,False,,,3300000.0,2734000.0,566000.0,657500,0.8608,1.16,3092426.04,2310000.0,-37150.0,-0.0565,-903630.3,4290000.0,1205700.0,1.8338,7330637.5
-38.3954714,142.628306,,Allansford Cheese World,supermarket,VIC,Item 131,75%,10.95,Chemist Warehouse Warrnambool,718,718,0,2,0.8,7467,0.0,True,,,189552.0,461686.4,-272134.4,657500,-0.4139,999.0,-2460475.04,132686.4,-352476.15,-0.5361,-2992764.13,246417.6,-204925.49,-0.3117,-2015195.09
-37.7446,145.0073,"266, Plenty Road, Preston, Melbourne, City of Darebin, Victoria, 3072, Australia",Preston Medical Centre,medical_centre,VIC,Item 136,95%,0.68,Direct Chemist Outlet Preston,3890772,50000,67,262,0.2,130000,7.2,False,,,3300000.0,2734000.0,566000.0,657500,0.8608,1.16,3092426.04,2310000.0,-37150.0,-0.0565,-903630.3,4290000.0,1205700.0,1.8338,7330637.5
-38.0650064,144.3801446,,Aldi,supermarket,VIC,Item 133,70%,0.25,Chemist Warehouse,41657,41657,7,27,0.2,108308,0.0,False,YES,VIC Growth Area - Greater Geelong,2749362.0,2348553.4,400808.6,657500,0.6096,1.64,1997981.63,1924553.4,-112312.09,-0.1708,-1401602.51,3574170.6,940843.12,1.4309,5575878.3
-38.17393285,144.57245295,,Coles,supermarket,VIC,Item 133,75%,0.30,Peak Pharmacy Drysdale,20374,20374,3,7,0.2,52972,0.0,False,,,1344684.0,1270278.8,74405.2,657500,0.1132,8.84,-164542.41,941278.8,-194800.63,-0.2963,-1948114.79,1748089.2,265193.0,0.4033,1099486.13
-37.8300168,144.990153,,IGA Local Grocer Cremorne,supermarket,VIC,Item 133,65%,0.73,Priceline Pharmacy,196349,50000,142,308,0.2,130000,0.0,False,,,3300000.0,2734000.0,566000.0,657500,0.8608,1.16,3092426.04,2310000.0,-37150.0,-0.0565,-903630.3,4290000.0,1205700.0,1.8338,7330637.5
-38.1961357,144.318837,,ALDI,supermarket,VIC,Item 133,70%,0.39,Priceline Pharmacy Waurn Ponds,136348,50000,20,43,0.2,130000,0.0,False,,,3300000.0,2734000.0,566000.0,657500,0.8608,1.16,3092426.04,2310000.0,-37150.0,-0.0565,-903630.3,4290000.0,1205700.0,1.8338,7330637.5
-36.7172487,144.2503939,,ALDI,supermarket,VIC,Item 133,70%,0.35,Eaglehawk UFS Dispensary,89004,50000,8,24,0.2,130000,0.0,False,,,3300000.0,2734000.0,566000.0,657500,0.8608,1.16,3092426.04,2310000.0,-37150.0,-0.0565,-903630.3,4290000.0,1205700.0,1.8338,7330637.5
-37.8473761,144.9490341,,Foodworks,supermarket,VIC,Item 133,55%,0.59,Victoria Avenue Pharmacy,196349,50000,88,279,0.2,130000,0.0,False,,,3300000.0,2734000.0,566000.0,657500,0.8608,1.16,3092426.04,2310000.0,-37150.0,-0.0565,-903630.3,4290000.0,1205700.0,1.8338,7330637.5
-38.3376255,143.5987119,,Reynolds IGA,supermarket,VIC,Item 133,65%,0.59,TerryWhite Chemmart Colac,12348,12348,4,4,0.2,32104,0.0,False,,,814968.0,899477.6,-84509.6,657500,-0.1285,999.0,-1217402.38,570477.6,-267106.87,-0.4062,-2427166.08,1059458.4,95899.61,0.1459,-22135.27
-37.866424,145.0937422,,Woolworths,supermarket,VIC,Item 133,75%,0.10,PharmaSave,3095780,50000,56,232,0.2,130000,0.0,False,,,3300000.0,2734000.0,566000.0,657500,0.8608,1.16,3092426.04,2310000.0,-37150.0,-0.0565,-903630.3,4290000.0,1205700.0,1.8338,7330637.5
-37.0487286,143.7414417,,Coles,supermarket,VIC,Item 133,75%,0.40,Maryborough Pharmacy,7769,7769,2,2,0.3,30299,0.0,False,,,769131.0,867391.7,-98260.7,657500,-0.1494,999.0,-1308507.7,538391.7,-273363.62,-0.4158,-2468618.99,999870.3,73852.01,0.1123,-168207.46
-37.8323252,144.9708404,,Woolworths Metro,supermarket,VIC,Item 133,75%,0.59,Melbourne Boulevard Pharmacy & Health Foods,196349,50000,127,303,0.2,130000,0.0,False,,,3300000.0,2734000.0,566000.0,657500,0.8608,1.16,3092426.04,2310000.0,-37150.0,-0.0565,-903630.3,4290000.0,1205700.0,1.8338,7330637.5
-37.0468814,143.7423115,,ALDI,supermarket,VIC,Item 133,70%,0.39,Maryborough Pharmacy,7769,7769,2,2,0.3,30299,0.0,False,,,769131.0,867391.7,-98260.7,657500,-0.1494,999.0,-1308507.7,538391.7,-273363.62,-0.4158,-2468618.99,999870.3,73852.01,0.1123,-168207.46
-36.7102,142.1984,"5, David Street, Horsham, Rural City of Horsham, Victoria, 3400, Australia",Horsham Medical Centre,medical_centre,VIC,Item 136,95%,0.42,TerryWhite Chemmart Horsham Compounding,16289,16289,4,4,0.2,42351,4.8,False,,,1075074.0,1081551.8,-6477.8,657500,-0.0099,999.0,-700417.44,752551.8,-231602.4,-0.3522,-2191937.93,1397596.2,221010.59,0.3361,806763.92
-35.3393,143.5538,"McCallum Street, Swan Hill, Rural City of Swan Hill, Victoria, 3585, Australia",Swan Hill Medical Centre,medical_centre,VIC,Item 136,95%,0.46,Amcal,10869,10869,3,3,0.2,28259,4.8,False,,,717354.0,831147.8,-113793.8,657500,-0.1731,999.0,-1411419.32,502147.8,-280431.18,-0.4265,-2515443.78,932560.2,48947.27,0.0744,-333209.09
-34.2064562,142.1349576,,ALDI,supermarket,VIC,Item 133,70%,0.40,Chemist Warehouse,36156,36156,8,10,0.2,94005,0.0,False,,,2386296.0,2094407.2,291888.8,657500,0.4439,2.25,1276354.08,1670407.2,-161870.6,-0.2462,-1729943.04,3102184.8,766208.38,1.1653,4418868.8
-37.8240916,144.9620137,,Foodworks,supermarket,VIC,Item 133,55%,0.55,Southgate Pharmacy - VIC,196349,50000,121,300,0.2,130000,0.0,False,,,3300000.0,2734000.0,566000.0,657500,0.8608,1.16,3092426.04,2310000.0,-37150.0,-0.0565,-903630.3,4290000.0,1205700.0,1.8338,7330637.5
-37.7581645,144.9394033,,IGA,supermarket,VIC,Item 133,65%,0.50,Albion Pharmacy,4286363,50000,81,286,0.2,130000,0.0,False,,,3300000.0,2734000.0,566000.0,657500,0.8608,1.16,3092426.04,2310000.0,-37150.0,-0.0565,-903630.3,4290000.0,1205700.0,1.8338,7330637.5
-37.798141,144.8802126,,IGA,supermarket,VIC,Item 133,65%,0.41,Pepin's Pharmacy,4110116,50000,56,222,0.2,130000,0.0,False,,,3300000.0,2734000.0,566000.0,657500,0.8608,1.16,3092426.04,2310000.0,-37150.0,-0.0565,-903630.3,4290000.0,1205700.0,1.8338,7330637.5
-38.3471445,141.6021559,,ALDI,supermarket,VIC,Item 133,70%,0.18,Portland Amcal Pharmacy,10450,10450,1,1,0.4,54340,0.0,False,,,1379400.0,1294580.0,84820.0,657500,0.129,7.75,-95541.12,965580.0,-190061.9,-0.2891,-1916719.2,1793220.0,281891.4,0.4287,1210118.2
-36.9195203,144.7057016,,Champions SUPA IGA Heathcote,supermarket,VIC,Item 133,65%,0.87,Heathcote Pharmacy,1844,1844,1,1,0.4,9588,0.0,False,,,243408.0,499385.6,-255977.6,657500,-0.3893,999.0,-2353431.21,170385.6,-345124.81,-0.5249,-2944059.19,316430.4,-179020.75,-0.2723,-1843568.16
-38.2314822,144.3706803,,ALDI,supermarket,VIC,Item 133,70%,0.21,Direct Chemist Outlet Warralily,39494,39494,7,35,0.2,102684,0.0,False,,,2606604.0,2248622.8,357981.2,657500,0.5445,1.84,1714236.79,1824622.8,-131798.55,-0.2005,-1530706.41,3388585.2,872176.52,1.3265,5120940.73
-38.45317710714286,145.23907677857144,,Woolworths,supermarket,VIC,"Item 133, Item 134",75%,0.43,TerryWhite Chemmart Phillip Island,7218,7218,2,2,0.3,28150,0.0,False,,,714582.0,829207.4,-114625.4,657500,-0.1743,999.0,-1416928.93,500207.4,-280809.56,-0.4271,-2517950.65,928956.6,47613.94,0.0724,-342042.83
-38.60380685,145.58636405,,Coles,supermarket,VIC,"Item 133, Item 134",75%,0.35,Wonthaggi Pharmacy and Health Hub,8430,8430,2,2,0.3,32877,0.0,False,,,834570.0,913199.0,-78629.0,657500,-0.1196,999.0,-1178441.58,584199.0,-264431.19,-0.4022,-2409438.91,1084941.0,105328.17,0.1602,40331.89
-38.6042866,145.5926656,,ALDI,supermarket,VIC,Item 133,70%,0.35,Wonthaggi Pharmacy and Health Hub,8430,8430,2,2,0.3,32877,0.0,False,,,834570.0,913199.0,-78629.0,657500,-0.1196,999.0,-1178441.58,584199.0,-264431.19,-0.4022,-2409438.91,1084941.0,105328.17,0.1602,40331.89
-38.3843271,142.4793343,,Warrnambool Supa IGA & Liquor,supermarket,VIC,Item 133,65%,0.34,Direct Chemist Outlet Target Warrnambool,32894,32894,9,9,0.2,85524,0.0,False,,,2171004.0,1943702.8,227301.2,657500,0.3457,2.89,848441.14,1519702.8,-191257.95,-0.2909,-1924643.43,2822305.2,662652.92,1.0078,3732781.72
-37.8038373,145.0376993,,Coles,supermarket,VIC,Item 133,75%,0.45,Cotham Road Pharmacy,4272662,50000,74,317,0.2,130000,0.0,False,,,3300000.0,2734000.0,566000.0,657500,0.8608,1.16,3092426.04,2310000.0,-37150.0,-0.0565,-903630.3,4290000.0,1205700.0,1.8338,7330637.5
-37.5402345,143.8268079,,Shepp Cannery Surplus,shopping_centre,VIC,Item 134,55%,0.28,UFS Dispensaries Wendouree,105348,50000,20,29,0.2,130000,0.0,False,,,3300000.0,2734000.0,566000.0,657500,0.8608,1.16,3092426.04,2310000.0,-37150.0,-0.0565,-903630.3,4290000.0,1205700.0,1.8338,7330637.5
-36.549703699999995,145.98959405,,Woolworths,supermarket,VIC,Item 133,75%,0.37,Healthsave Pharmacy Benalla,9742,9742,3,3,0.2,25329,0.0,False,,,642972.0,779080.4,-136108.4,657500,-0.207,999.0,-1559260.48,450080.4,-290584.32,-0.442,-2582711.51,835863.6,13169.53,0.02,-570247.75
-38.3798844,142.4789514,,Aldi,supermarket,VIC,Item 133,70%,0.31,Direct Chemist Outlet Henna Street,32894,32894,9,9,0.2,85524,0.0,False,,,2171004.0,1943702.8,227301.2,657500,0.3457,2.89,848441.14,1519702.8,-191257.95,-0.2909,-1924643.43,2822305.2,662652.92,1.0078,3732781.72
-36.7716773,144.3044119,,ALDI,supermarket,VIC,Item 133,70%,0.25,TerryWhite Chemmart Strathdale,100649,50000,16,27,0.2,130000,0.0,False,,,3300000.0,2734000.0,566000.0,657500,0.8608,1.16,3092426.04,2310000.0,-37150.0,-0.0565,-903630.3,4290000.0,1205700.0,1.8338,7330637.5
-38.1917768,144.3438268,,The Sandman Mattress Factory,shopping_centre,VIC,Item 134,55%,0.24,Grove Plaza Pharmacy,157079,50000,28,44,0.2,130000,0.0,False,,,3300000.0,2734000.0,566000.0,657500,0.8608,1.16,3092426.04,2310000.0,-37150.0,-0.0565,-903630.3,4290000.0,1205700.0,1.8338,7330637.5
-37.5847377,143.8419352,,ALDI Sebastopol,supermarket,VIC,"Item 133, Item 134",70%,0.27,UFS Dispensaries Sebastopol,105435,50000,22,30,0.2,130000,0.0,False,,,3300000.0,2734000.0,566000.0,657500,0.8608,1.16,3092426.04,2310000.0,-37150.0,-0.0565,-903630.3,4290000.0,1205700.0,1.8338,7330637.5
-38.3316698,144.3198144,,Coles,supermarket,VIC,Item 133,75%,0.39,Priceline Pharmacy Torquay,22998,22998,5,5,0.2,59794,0.0,False,YES,VIC Growth Area - Surf Coast,1517868.0,1486507.6,31360.4,657500,0.0477,20.97,-449727.6,1062507.6,-171161.02,-0.2603,-1791494.98,1973228.4,348494.51,0.53,1651384.5
-38.1744441,146.258408,,Coles,supermarket,VIC,Item 133,75%,0.31,Soul Pattinson Pharmacy Moe,15958,15958,5,6,0.2,41490,0.0,False,,,1053228.0,1066259.6,-13031.6,657500,-0.0198,999.0,-743838.4,737259.6,-234584.38,-0.3568,-2211694.46,1369196.4,210502.67,0.3202,737145.65
-37.8078975,144.9486199,,ALDI,supermarket,VIC,Item 133,70%,0.38,Chemist Warehouse,196349,50000,127,309,0.2,130000,0.0,False,,,3300000.0,2734000.0,566000.0,657500,0.8608,1.16,3092426.04,2310000.0,-37150.0,-0.0565,-903630.3,4290000.0,1205700.0,1.8338,7330637.5
-38.17152752,144.34623127999998,,Pho Bowl,shopping_centre,VIC,Item 134,55%,0.24,Pharmacy 4 Less Belmont,157079,50000,37,49,0.2,130000,0.0,False,,,3300000.0,2734000.0,566000.0,657500,0.8608,1.16,3092426.04,2310000.0,-37150.0,-0.0565,-903630.3,4290000.0,1205700.0,1.8338,7330637.5
-37.7578952,144.9638489,,Woolworths Metro,supermarket,VIC,Item 133,75%,0.35,Amcal,4345255,50000,92,294,0.2,130000,0.0,False,,,3300000.0,2734000.0,566000.0,657500,0.8608,1.16,3092426.04,2310000.0,-37150.0,-0.0565,-903630.3,4290000.0,1205700.0,1.8338,7330637.5
-36.7038221,144.3168295,,ALDI,supermarket,VIC,Item 133,70%,0.16,Chemist Warehouse Epsom Village,54102,50000,3,20,0.2,130000,0.0,False,,,3300000.0,2734000.0,566000.0,657500,0.8608,1.16,3092426.04,2310000.0,-37150.0,-0.0565,-903630.3,4290000.0,1205700.0,1.8338,7330637.5
-36.8057259,144.357169,,Strathfieldsaye SUPA IGA,supermarket,VIC,Item 133,65%,0.14,Bendigo UFS Strathfieldsaye,14502,14502,1,16,0.4,75410,0.0,False,,,1914264.0,1763984.8,150279.2,657500,0.2286,4.38,338146.44,1339984.8,-117052.96,-0.178,-1433012.29,2488543.2,539160.98,0.82,2914609.21
-37.7978511,144.9779798,,Coles,supermarket,VIC,Item 133,75%,0.38,Chemist Warehouse,196349,50000,131,330,0.2,130000,0.0,False,,,3300000.0,2734000.0,566000.0,657500,0.8608,1.16,3092426.04,2310000.0,-37150.0,-0.0565,-903630.3,4290000.0,1205700.0,1.8338,7330637.5
-37.8548897,144.9987132,,The Avenue Hospital,hospital,VIC,Item 135,55%,0.34,TerryWhite Chemmart Prahran Midnight,4492086,50000,96,274,0.2,130000,0.0,False,,,3300000.0,2734000.0,566000.0,657500,0.8608,1.16,3092426.04,2310000.0,-37150.0,-0.0565,-903630.3,4290000.0,1205700.0,1.8338,7330637.5
-37.7544234,144.9155326,,Foodworks,supermarket,VIC,Item 133,55%,0.30,Chemist Warehouse,4042824,50000,76,253,0.2,130000,0.0,False,,,3300000.0,2734000.0,566000.0,657500,0.8608,1.16,3092426.04,2310000.0,-37150.0,-0.0565,-903630.3,4290000.0,1205700.0,1.8338,7330637.5
-38.1436485,144.3480699,,Pholklore,shopping_centre,VIC,Item 134,55%,0.22,Chemist Warehouse Geelong West,157079,50000,30,51,0.2,130000,0.0,False,,,3300000.0,2734000.0,566000.0,657500,0.8608,1.16,3092426.04,2310000.0,-37150.0,-0.0565,-903630.3,4290000.0,1205700.0,1.8338,7330637.5
-37.8300256,144.9693817,,Foodworks,supermarket,VIC,Item 133,55%,0.35,Chemist Warehouse,196349,50000,125,304,0.2,130000,0.0,False,,,3300000.0,2734000.0,566000.0,657500,0.8608,1.16,3092426.04,2310000.0,-37150.0,-0.0565,-903630.3,4290000.0,1205700.0,1.8338,7330637.5
-38.184994,144.4540089,,ALDI,supermarket,VIC,Item 133,70%,0.12,Direct Chemist Outlet Leopold,53259,50000,2,25,0.3,195000,0.0,False,,,3600000.0,2944000.0,656000.0,657500,0.9977,1.0,3688704.03,2520000.0,3800.0,0.0058,-632323.82,4680000.0,1350000.0,2.0532,8286669.88
-36.7272792,146.9589454,,Woolworths,supermarket,VIC,Item 133,75%,0.29,Bright Pharmacy,2481,2481,1,1,0.4,12901,0.0,False,,,327492.0,558244.4,-230752.4,657500,-0.351,999.0,-2186306.42,229244.4,-333647.34,-0.5074,-2868017.41,425739.6,-138576.35,-0.2108,-1575611.41
-37.82656035,144.95967430000002,,Woolworths Metro,supermarket,VIC,"Item 133, Item 134",75%,0.32,Rays Wellness Melbourne,196349,50000,119,303,0.2,130000,0.0,False,,,3300000.0,2734000.0,566000.0,657500,0.8608,1.16,3092426.04,2310000.0,-37150.0,-0.0565,-903630.3,4290000.0,1205700.0,1.8338,7330637.5
-34.2108266,142.1396072,,Coles,supermarket,VIC,Item 133,75%,0.22,Direct Chemist Outlet Mildura,36156,36156,8,10,0.2,94005,0.0,False,,,2386296.0,2094407.2,291888.8,657500,0.4439,2.25,1276354.08,1670407.2,-161870.6,-0.2462,-1729943.04,3102184.8,766208.38,1.1653,4418868.8
-37.805942,144.98017,,Foodworks,supermarket,VIC,Item 133,55%,0.34,Soul Pattinson Chemist,196349,50000,139,328,0.2,130000,0.0,False,,,3300000.0,2734000.0,566000.0,657500,0.8608,1.16,3092426.04,2310000.0,-37150.0,-0.0565,-903630.3,4290000.0,1205700.0,1.8338,7330637.5
-37.2845692,142.9326789,,Aldi,supermarket,VIC,Item 133,70%,0.28,Blooms The Chemist Ararat,7015,7015,2,2,0.3,27358,0.0,False,,,694485.0,815139.5,-120654.5,657500,-0.1835,999.0,-1456873.59,486139.5,-283552.8,-0.4313,-2536125.47,902830.5,37947.29,0.0577,-406087.43
-38.341133325,143.5905516,,Aldi,supermarket,VIC,"Item 133, Item 134",70%,0.28,TerryWhite Chemmart Colac,12348,12348,4,4,0.2,32104,0.0,False,,,814968.0,899477.6,-84509.6,657500,-0.1285,999.0,-1217402.38,570477.6,-267106.87,-0.4062,-2427166.08,1059458.4,95899.61,0.1459,-22135.27
-34.1683414,142.0612817,,Ritchies IGA,supermarket,VIC,Item 133,65%,0.16,Keens Pharmacy,2581,2581,1,9,0.4,13421,0.0,False,,,340692.0,567484.4,-226792.4,657500,-0.3449,999.0,-2160070.19,238484.4,-331845.54,-0.5047,-2856079.93,442899.6,-132227.15,-0.2011,-1533545.98
-36.8108831,144.2435224,,Coles,supermarket,VIC,Item 133,75%,0.14,Priceline Pharmacy,56916,50000,6,21,0.2,130000,0.0,False,,,3300000.0,2734000.0,566000.0,657500,0.8608,1.16,3092426.04,2310000.0,-37150.0,-0.0565,-903630.3,4290000.0,1205700.0,1.8338,7330637.5
-37.818838516666666,144.95452115,,Liberty Tower,shopping_centre,VIC,"Item 132, Item 133, Item 134",85%,0.29,Chemist Warehouse Spencer Outlet Centre,196349,50000,118,306,0.2,130000,0.0,False,,,3300000.0,2734000.0,566000.0,657500,0.8608,1.16,3092426.04,2310000.0,-37150.0,-0.0565,-903630.3,4290000.0,1205700.0,1.8338,7330637.5
-37.0233054,145.1334822,,Coles,supermarket,VIC,"Item 133, Item 134",75%,0.26,Chemist Discount Centre Seymour,6016,6016,2,2,0.3,23462,0.0,False,,,595584.0,745908.8,-150324.8,657500,-0.2286,999.0,-1653448.55,416908.8,-297052.78,-0.4518,-2625567.08,774259.2,-9624.1,-0.0146,-721262.63
-37.8109903,145.007512,,Green Square IGA plus Liquor,supermarket,VIC,Item 133,65%,0.30,Chemist Warehouse Victoria Gardens Shopping Centre,196349,50000,134,323,0.2,130000,0.0,False,,,3300000.0,2734000.0,566000.0,657500,0.8608,1.16,3092426.04,2310000.0,-37150.0,-0.0565,-903630.3,4290000.0,1205700.0,1.8338,7330637.5
-38.3824132,142.518366,,Woolworths,supermarket,VIC,Item 133,75%,0.19,Chemist Warehouse Warrnambool,32894,32894,8,9,0.2,85524,0.0,False,,,2171004.0,1943702.8,227301.2,657500,0.3457,2.89,848441.14,1519702.8,-191257.95,-0.2909,-1924643.43,2822305.2,662652.92,1.0078,3732781.72
-37.7444203,142.027979,,ALDI,supermarket,VIC,Item 133,70%,0.30,James Dean Pharmacy - Gray St,9577,9577,4,4,0.2,24900,0.0,False,,,632082.0,771457.4,-139375.4,657500,-0.212,999.0,-1580905.37,442457.4,-292070.81,-0.4442,-2592559.94,821706.6,7931.44,0.0121,-604951.73
-38.139763849999994,144.33882914999998,,ALDI,supermarket,VIC,"Item 133, Item 134",70%,0.17,Mitchell and O'Hara Pharmacy,157079,50000,29,50,0.2,130000,0.0,False,,,3300000.0,2734000.0,566000.0,657500,0.8608,1.16,3092426.04,2310000.0,-37150.0,-0.0565,-903630.3,4290000.0,1205700.0,1.8338,7330637.5
-37.80750995,144.9565146,,M Shed,shopping_centre,VIC,Item 134,55%,0.27,Victoria Market Pharmacy,196349,50000,130,321,0.2,130000,0.0,False,,,3300000.0,2734000.0,566000.0,657500,0.8608,1.16,3092426.04,2310000.0,-37150.0,-0.0565,-903630.3,4290000.0,1205700.0,1.8338,7330637.5
-36.131069,144.7494176,,Coles,supermarket,VIC,Item 133,75%,0.34,Priceline Pharmacy Echuca Square,13764,13764,7,7,0.2,35786,0.0,False,,,908424.0,964896.8,-56472.8,657500,-0.0859,999.0,-1031649.86,635896.8,-254350.12,-0.3868,-2342648.68,1180951.2,140851.94,0.2142,275687.94
-37.8074444,144.9621938,,ALDI,supermarket,VIC,Item 133,70%,0.26,Victoria Market Pharmacy,196349,50000,124,319,0.2,130000,0.0,False,,,3300000.0,2734000.0,566000.0,657500,0.8608,1.16,3092426.04,2310000.0,-37150.0,-0.0565,-903630.3,4290000.0,1205700.0,1.8338,7330637.5
-37.5361259,143.8184995,,ALDI Wendouree,supermarket,VIC,Item 133,70%,0.16,The Ballarat Pet Pharmacy,105348,50000,19,29,0.2,130000,0.0,False,,,3300000.0,2734000.0,566000.0,657500,0.8608,1.16,3092426.04,2310000.0,-37150.0,-0.0565,-903630.3,4290000.0,1205700.0,1.8338,7330637.5
-37.5644091,143.8621232,,Woolworths,supermarket,VIC,Item 133,75%,0.17,UFS Dispensaries Ballarat (Bridge Mall),105348,50000,25,30,0.2,130000,0.0,False,,,3300000.0,2734000.0,566000.0,657500,0.8608,1.16,3092426.04,2310000.0,-37150.0,-0.0565,-903630.3,4290000.0,1205700.0,1.8338,7330637.5
-37.8224729,144.9650768,,IGA,supermarket,VIC,Item 133,65%,0.25,Southgate Pharmacy - VIC,196349,50000,121,306,0.2,130000,0.0,False,,,3300000.0,2734000.0,566000.0,657500,0.8608,1.16,3092426.04,2310000.0,-37150.0,-0.0565,-903630.3,4290000.0,1205700.0,1.8338,7330637.5
-38.1999703,144.3168594,,Coles,supermarket,VIC,Item 133,75%,0.14,Priceline Pharmacy Waurn Ponds,121208,50000,20,41,0.2,130000,0.0,False,,,3300000.0,2734000.0,566000.0,657500,0.8608,1.16,3092426.04,2310000.0,-37150.0,-0.0565,-903630.3,4290000.0,1205700.0,1.8338,7330637.5
-37.6830219,144.578842,,ALDI,supermarket,VIC,Item 133,70%,0.14,UFS Dispensaries Melton Central,76346,50000,12,14,0.2,130000,0.0,False,,,3300000.0,2734000.0,566000.0,657500,0.8608,1.16,3092426.04,2310000.0,-37150.0,-0.0565,-903630.3,4290000.0,1205700.0,1.8338,7330637.5
-37.7411393,145.0033339,,369,shopping_centre,VIC,Item 134,55%,0.22,Direct Chemist Outlet Preston,3852577,50000,67,272,0.2,130000,0.0,False,,,3300000.0,2734000.0,566000.0,657500,0.8608,1.16,3092426.04,2310000.0,-37150.0,-0.0565,-903630.3,4290000.0,1205700.0,1.8338,7330637.5
-37.6838522,144.5826013,,Morgan's IGA,supermarket,VIC,Item 133,65%,0.14,Chemist Discount Centre Melton,76346,50000,12,14,0.2,130000,0.0,False,,,3300000.0,2734000.0,566000.0,657500,0.8608,1.16,3092426.04,2310000.0,-37150.0,-0.0565,-903630.3,4290000.0,1205700.0,1.8338,7330637.5
-34.1833877,142.159892,,Coles,supermarket,VIC,Item 133,75%,0.17,My Chemist,35652,35652,8,10,0.2,92695,0.0,False,,,2353032.0,2071122.4,281909.6,657500,0.4288,2.33,1210238.78,1647122.4,-166411.13,-0.2531,-1760025.51,3058941.6,750208.39,1.141,4312863.93
-37.7996847,144.9535849,,MAAP,shopping_centre,VIC,Item 134,55%,0.24,HealthSmart Pharmacy Melbourne,196349,50000,135,314,0.2,130000,0.0,False,,,3300000.0,2734000.0,566000.0,657500,0.8608,1.16,3092426.04,2310000.0,-37150.0,-0.0565,-903630.3,4290000.0,1205700.0,1.8338,7330637.5
-38.13418715,145.85485864999998,,Coles,supermarket,VIC,"Item 133, Item 134",75%,0.11,Chemist Discount Centre Drouin,15720,15720,2,8,0.3,61308,0.0,False,YES,VIC Growth Area - West Gippsland,1556280.0,1513396.0,42884.0,657500,0.0652,15.33,-373380.16,1089396.0,-165917.78,-0.2523,-1756756.9,2023164.0,366970.68,0.5581,1773794.89
-38.45075198,145.23810587999998,,ALDI,supermarket,VIC,"Item 133, Item 134",70%,0.21,Priceline Pharmacy Cowes,7218,7218,2,2,0.3,28150,0.0,False,,,714582.0,829207.4,-114625.4,657500,-0.1743,999.0,-1416928.93,500207.4,-280809.56,-0.4271,-2517950.65,928956.6,47613.94,0.0724,-342042.83
-37.81863155,144.96282854999998,,Izumi,shopping_centre,VIC,Item 134,55%,0.22,Chemist Warehouse Melbourne - Flinders Street,196349,50000,128,305,0.2,130000,0.0,False,,,3300000.0,2734000.0,566000.0,657500,0.8608,1.16,3092426.04,2310000.0,-37150.0,-0.0565,-903630.3,4290000.0,1205700.0,1.8338,7330637.5
-37.654128,145.5136058,,ALDI,supermarket,VIC,Item 133,70%,0.24,Healesville Pharmacy,8698,8698,2,2,0.3,33922,0.0,False,,,861102.0,931771.4,-70669.4,657500,-0.1075,999.0,-1125706.75,602771.4,-260809.58,-0.3967,-2385444.56,1119432.6,118090.06,0.1796,124883.39
-37.5336188,143.8252408,,Woolworths Stocklands,supermarket,VIC,Item 133,75%,0.14,Priceline Pharmacy Stocklands,105348,50000,20,29,0.2,130000,0.0,False,,,3300000.0,2734000.0,566000.0,657500,0.8608,1.16,3092426.04,2310000.0,-37150.0,-0.0565,-903630.3,4290000.0,1205700.0,1.8338,7330637.5
-37.7709122,144.9616256,,ALDI,supermarket,VIC,Item 133,70%,0.22,Brunswick Pharmacy,196349,50000,117,308,0.2,130000,0.0,False,,,3300000.0,2734000.0,566000.0,657500,0.8608,1.16,3092426.04,2310000.0,-37150.0,-0.0565,-903630.3,4290000.0,1205700.0,1.8338,7330637.5
-37.7714962,144.915536,,IGA Local Grocer Plus Liquor Moonee Ponds,supermarket,VIC,Item 133,65%,0.19,Union Road Pharmacy,4332412,50000,82,270,0.2,130000,0.0,False,,,3300000.0,2734000.0,566000.0,657500,0.8608,1.16,3092426.04,2310000.0,-37150.0,-0.0565,-903630.3,4290000.0,1205700.0,1.8338,7330637.5
-38.5351816,143.9739247,,FoodWorks,supermarket,VIC,Item 133,55%,0.69,Lorne Pharmacy,1248,1248,1,1,0.4,6489,0.0,False,,,164736.0,444315.2,-279579.2,657500,-0.4252,999.0,-2509799.15,115315.2,-355863.54,-0.5412,-3015206.61,214156.8,-216861.98,-0.3298,-2094278.09
-38.1059641,147.0677987,,IGA,supermarket,VIC,Item 133,65%,0.21,Chemist Warehouse,14100,14100,5,5,0.2,36660,0.0,False,,,930600.0,980420.0,-49820.0,657500,-0.0758,999.0,-987572.99,651420.0,-251323.1,-0.3822,-2322593.7,1209780.0,151518.6,0.2304,346357.85
-37.80555556,144.95121804000001,,Whitebark,shopping_centre,VIC,Item 134,55%,0.21,Chemist Warehouse,196349,50000,132,311,0.2,130000,0.0,False,,,3300000.0,2734000.0,566000.0,657500,0.8608,1.16,3092426.04,2310000.0,-37150.0,-0.0565,-903630.3,4290000.0,1205700.0,1.8338,7330637.5
-36.7754017,144.3061077,,Woolworths,supermarket,VIC,Item 133,75%,0.12,Strathdale Pharmacy,100649,50000,14,27,0.2,130000,0.0,False,,,3300000.0,2734000.0,566000.0,657500,0.8608,1.16,3092426.04,2310000.0,-37150.0,-0.0565,-903630.3,4290000.0,1205700.0,1.8338,7330637.5
-36.7139538,142.1977247,,Coles,supermarket,VIC,Item 133,75%,0.15,Priceline Pharmacy Horsham,16289,16289,4,4,0.2,42351,0.0,False,,,1075074.0,1081551.8,-6477.8,657500,-0.0099,999.0,-700417.44,752551.8,-231602.4,-0.3522,-2191937.93,1397596.2,221010.59,0.3361,806763.92
-38.0231208,144.40967535,,Coles,supermarket,VIC,Item 133,75%,0.18,Lara Pharmacy,15772,15772,1,8,0.4,82014,0.0,False,YES,VIC Growth Area - Greater Geelong,2081904.0,1881332.8,200571.2,657500,0.3051,3.28,671346.58,1457332.8,-94170.1,-0.1432,-1281406.23,2706475.2,619795.82,0.9427,3448840.1
-38.6038483,145.58933833333333,,Woolworths,supermarket,VIC,"Item 133, Item 134",75%,0.15,Wonthaggi Pharmacy and Health Hub,8430,8430,2,2,0.3,32877,0.0,False,,,834570.0,913199.0,-78629.0,657500,-0.1196,999.0,-1178441.58,584199.0,-264431.19,-0.4022,-2409438.91,1084941.0,105328.17,0.1602,40331.89
-36.7612657,144.2826422,,Coles,supermarket,VIC,Item 133,75%,0.12,Chemist Discount Centre Bendigo,100649,50000,16,27,0.2,130000,0.0,False,,,3300000.0,2734000.0,566000.0,657500,0.8608,1.16,3092426.04,2310000.0,-37150.0,-0.0565,-903630.3,4290000.0,1205700.0,1.8338,7330637.5
-37.8245797,147.6279603,,ALDI,supermarket,VIC,Item 133,70%,0.21,Priceline Pharmacy Bairnsdale,13734,13734,5,5,0.2,35708,0.0,False,,,906444.0,963510.8,-57066.8,657500,-0.0868,999.0,-1035585.3,634510.8,-254620.39,-0.3873,-2344439.3,1178377.2,139899.56,0.2128,269378.12
-36.7972806,144.2432764,,ALDI,supermarket,VIC,Item 133,70%,0.10,Chemist Warehouse,87705,50000,8,24,0.2,130000,0.0,False,,,3300000.0,2734000.0,566000.0,657500,0.8608,1.16,3092426.04,2310000.0,-37150.0,-0.0565,-903630.3,4290000.0,1205700.0,1.8338,7330637.5
-37.7017311,144.574255,,Coles,supermarket,VIC,Item 133,75%,0.11,UFS Dispensaries South Melton,76446,50000,13,14,0.2,130000,0.0,False,,,3300000.0,2734000.0,566000.0,657500,0.8608,1.16,3092426.04,2310000.0,-37150.0,-0.0565,-903630.3,4290000.0,1205700.0,1.8338,7330637.5
-37.8165743,144.89154935,,Woolworths Metro,supermarket,VIC,Item 133,75%,0.14,Miles Yarraville Village Pharmacy,4339403,50000,53,228,0.2,130000,0.0,False,,,3300000.0,2734000.0,566000.0,657500,0.8608,1.16,3092426.04,2310000.0,-37150.0,-0.0565,-903630.3,4290000.0,1205700.0,1.8338,7330637.5
-37.8604328,145.0291228,,Coles,supermarket,VIC,Item 133,75%,0.18,Amcal Pharmacy Malvern,4065427,50000,96,287,0.2,130000,0.0,False,,,3300000.0,2734000.0,566000.0,657500,0.8608,1.16,3092426.04,2310000.0,-37150.0,-0.0565,-903630.3,4290000.0,1205700.0,1.8338,7330637.5
-36.3563708,146.3271285,,ALDI,supermarket,VIC,Item 133,70%,0.16,Ramsay Pharmacy,19712,19712,6,6,0.2,51251,0.0,False,,,1300992.0,1239694.4,61297.6,657500,0.0932,10.73,-251384.34,910694.4,-200764.59,-0.3053,-1987627.86,1691289.6,244177.15,0.3714,960249.58
-37.7140271,144.6022542,,Coles,supermarket,VIC,Item 133,75%,0.13,Direct Chemist Outlet Cobblebank,76346,50000,13,15,0.2,130000,0.0,False,,,3300000.0,2734000.0,566000.0,657500,0.8608,1.16,3092426.04,2310000.0,-37150.0,-0.0565,-903630.3,4290000.0,1205700.0,1.8338,7330637.5
-36.1202037,146.8888404,,Coles,supermarket,VIC,Item 133,75%,0.21,TerryWhite Chemmart Wodonga,37839,37839,11,20,0.2,98381,0.0,False,,,2497374.0,2172161.8,325212.2,657500,0.4946,2.02,1497131.97,1748161.8,-146708.45,-0.2231,-1629489.1,3246586.2,819636.89,1.2466,4772849.35
-36.5497326,145.9858493,,Coles,supermarket,VIC,Item 133,75%,0.15,Healthsave Pharmacy Benalla,9742,9742,3,3,0.2,25329,0.0,False,,,642972.0,779080.4,-136108.4,657500,-0.207,999.0,-1559260.48,450080.4,-290584.32,-0.442,-2582711.51,835863.6,13169.53,0.02,-570247.75
-38.1458229,144.3360867,,Woolworths,supermarket,VIC,Item 133,75%,0.11,TerryWhite Chemmart Geelong West,157079,50000,29,51,0.2,130000,0.0,False,,,3300000.0,2734000.0,566000.0,657500,0.8608,1.16,3092426.04,2310000.0,-37150.0,-0.0565,-903630.3,4290000.0,1205700.0,1.8338,7330637.5
-36.0087948,146.0049268,,Ritchies IGA + Liquour,supermarket,VIC,Item 133,65%,0.23,Blooms The Chemist Yarrawonga Lake End,8580,8580,4,4,0.2,22308,0.0,False,,,566280.0,725396.0,-159116.0,657500,-0.242,999.0,-1711692.99,396396.0,-301052.78,-0.4579,-2652068.3,736164.0,-23719.32,-0.0361,-814647.87
-37.2501959,144.4532383,,IGA,supermarket,VIC,Item 133,65%,0.22,TerryWhite Chemmart Kyneton,5151,5151,1,2,0.4,26785,0.0,False,,,679932.0,804952.4,-125020.4,657500,-0.1901,999.0,-1485799.03,475952.4,-285539.28,-0.4343,-2549286.55,883911.6,30947.29,0.0471,-452464.57
-37.7079778,148.4549913,,Foodworks,supermarket,VIC,Item 133,55%,0.25,Orbost Pharmacy,2124,2124,1,1,0.4,11044,0.0,False,,,280368.0,525257.6,-244889.6,657500,-0.3725,999.0,-2279969.77,196257.6,-340079.77,-0.5172,-2910634.23,364478.4,-161242.99,-0.2452,-1725784.97
-37.0515675,146.0866578,,Foodworks,supermarket,VIC,Item 133,55%,0.23,Eisner's Pharmacy,3999,3999,2,2,0.3,15596,0.0,False,,,395901.0,606130.7,-210229.7,657500,-0.3197,999.0,-2050337.15,277130.7,-324309.51,-0.4932,-2806151.39,514671.3,-105671.62,-0.1607,-1357607.34
-37.5613944,143.8685176,,Coles Bakery Hill,supermarket,VIC,Item 133,75%,0.11,UFS Dispensaries Ballarat (Victoria Street),105348,50000,24,30,0.2,130000,0.0,False,,,3300000.0,2734000.0,566000.0,657500,0.8608,1.16,3092426.04,2310000.0,-37150.0,-0.0565,-903630.3,4290000.0,1205700.0,1.8338,7330637.5
-37.8978,144.6629,"18-20, Glen Street, Werribee, Melbourne, City of Wyndham, Victoria, 3030, Australia",Werribee Medical Centre,medical_centre,VIC,Item 136,95%,0.32,Minh Ha Pharmacist Advice,44088,44088,18,41,0.2,114628,8.0,False,YES,VIC Growth Corridor - Western,3600000.0,2944000.0,656000.0,657500,0.9977,1.0,3688704.03,2520000.0,3800.0,0.0058,-632323.82,4680000.0,1350000.0,2.0532,8286669.88
-38.1736001,144.3430639,,Coles,supermarket,VIC,Item 133,75%,0.10,Community Care Chemist Belmont,157079,50000,37,49,0.2,130000,0.0,False,,,3300000.0,2734000.0,566000.0,657500,0.8608,1.16,3092426.04,2310000.0,-37150.0,-0.0565,-903630.3,4290000.0,1205700.0,1.8338,7330637.5
-37.7560827,144.9641749,,Gervasi FoodWorks,supermarket,VIC,Item 133,55%,0.15,Amcal,4306947,50000,91,292,0.2,130000,0.0,False,,,3300000.0,2734000.0,566000.0,657500,0.8608,1.16,3092426.04,2310000.0,-37150.0,-0.0565,-903630.3,4290000.0,1205700.0,1.8338,7330637.5
-37.7363922,144.9691528,,Richies IGA Fine Food and Wine Merchants,supermarket,VIC,Item 133,65%,0.14,Community Health Pharmacy Pentridge,3888526,50000,69,269,0.2,130000,0.0,False,,,3300000.0,2734000.0,566000.0,657500,0.8608,1.16,3092426.04,2310000.0,-37150.0,-0.0565,-903630.3,4290000.0,1205700.0,1.8338,7330637.5
-38.7589129,143.6694163,,Comfort Inn The International,shopping_centre,VIC,Item 134,55%,0.31,Apollo Bay Pharmacy,1591,1591,1,1,0.4,8273,0.0,False,,,210012.0,476008.4,-265996.4,657500,-0.4046,999.0,-2419808.88,147008.4,-349683.36,-0.5318,-2974261.03,273015.6,-195084.23,-0.2967,-1949993.69
-37.7951171,144.9415256,,IGA,supermarket,VIC,Item 133,65%,0.15,Amcal Arden Gardens Pharmacy,196349,50000,126,303,0.2,130000,0.0,False,,,3300000.0,2734000.0,566000.0,657500,0.8608,1.16,3092426.04,2310000.0,-37150.0,-0.0565,-903630.3,4290000.0,1205700.0,1.8338,7330637.5
-36.119091,146.8815944,,ALDI,supermarket,VIC,Item 133,70%,0.18,Chemist Warehouse Wodonga Plaza,37839,37839,10,20,0.2,98381,0.0,False,,,2497374.0,2172161.8,325212.2,657500,0.4946,2.02,1497131.97,1748161.8,-146708.45,-0.2231,-1629489.1,3246586.2,819636.89,1.2466,4772849.35
-38.3685746,142.4950598,,Coles,supermarket,VIC,Item 133,75%,0.11,Direct Chemist Outlet Northpoint,32994,32994,9,9,0.2,85784,0.0,False,,,2177604.0,1948322.8,229281.2,657500,0.3487,2.87,861559.26,1524322.8,-190357.05,-0.2895,-1918674.69,2830885.2,665827.52,1.0127,3753814.43
-37.82538165,144.99385575,,Coles,supermarket,VIC,"Item 133, Item 134",75%,0.16,Priceline Pharmacy,196349,50000,139,323,0.2,130000,0.0,False,,,3300000.0,2734000.0,566000.0,657500,0.8608,1.16,3092426.04,2310000.0,-37150.0,-0.0565,-903630.3,4290000.0,1205700.0,1.8338,7330637.5
-37.742482,144.9658855,,Coles,supermarket,VIC,Item 133,75%,0.14,Healthline Pharmacy,4019382,50000,83,275,0.2,130000,0.0,False,,,3300000.0,2734000.0,566000.0,657500,0.8608,1.16,3092426.04,2310000.0,-37150.0,-0.0565,-903630.3,4290000.0,1205700.0,1.8338,7330637.5
-37.825797050000006,147.63329099999999,,Coles,supermarket,VIC,"Item 133, Item 134",75%,0.16,Complete Care Pharmacy Bairnsdale,13734,13734,5,5,0.2,35708,0.0,False,,,906444.0,963510.8,-57066.8,657500,-0.0868,999.0,-1035585.3,634510.8,-254620.39,-0.3873,-2344439.3,1178377.2,139899.56,0.2128,269378.12
-38.310150566666664,144.3180913,,Aldi,supermarket,VIC,"Item 133, Item 134",70%,0.17,Coastal Compounding Pharmacy,22998,22998,5,7,0.2,59794,0.0,False,YES,VIC Growth Area - Surf Coast,1517868.0,1486507.6,31360.4,657500,0.0477,20.97,-449727.6,1062507.6,-171161.02,-0.2603,-1791494.98,1973228.4,348494.51,0.53,1651384.5
-36.3326608,141.6520912,,IGA Nhill & Liquor,supermarket,VIC,"Item 133, Item 134",65%,0.23,Nhill Pharmacy,1949,1949,1,1,0.4,10134,0.0,False,,,257268.0,509087.6,-251819.6,657500,-0.383,999.0,-2325883.17,180087.6,-343232.92,-0.522,-2931524.83,334448.4,-172354.09,-0.2621,-1799399.46
-37.8198464,145.009407,,IGA,supermarket,VIC,Item 133,65%,0.15,The Pharmacy Common Richmond,196349,50000,132,329,0.2,130000,0.0,False,,,3300000.0,2734000.0,566000.0,657500,0.8608,1.16,3092426.04,2310000.0,-37150.0,-0.0565,-903630.3,4290000.0,1205700.0,1.8338,7330637.5
-37.9276332,145.4452677,,Woolworths,supermarket,VIC,Item 133,75%,0.63,Emerald Wellness Pharmacy,4635,4635,3,8,0.2,12051,0.0,False,,,305910.0,543137.0,-237227.0,657500,-0.3608,999.0,-2229202.66,214137.0,-336593.29,-0.5119,-2887535.2,397683.0,-148957.29,-0.2266,-1644388.37
-38.45546006666667,145.2391363,,Cowes IGA,supermarket,VIC,"Item 133, Item 134",65%,0.12,TerryWhite Chemmart Phillip Island,7218,7218,2,2,0.3,28150,0.0,False,,,714582.0,829207.4,-114625.4,657500,-0.1743,999.0,-1416928.93,500207.4,-280809.56,-0.4271,-2517950.65,928956.6,47613.94,0.0724,-342042.83
-37.79828895,144.98392465,,Woolworths Metro Smith Street,supermarket,VIC,Item 133,75%,0.14,Chemist Warehouse,196349,50000,132,328,0.2,130000,0.0,False,,,3300000.0,2734000.0,566000.0,657500,0.8608,1.16,3092426.04,2310000.0,-37150.0,-0.0565,-903630.3,4290000.0,1205700.0,1.8338,7330637.5
-37.9051618,144.6577989,,Aldi,supermarket,VIC,Item 133,70%,0.28,Direct Chemist Outlet Werribee Central,40027,40027,16,41,0.2,104070,0.0,False,YES,VIC Growth Corridor - Western,2641782.0,2273247.4,368534.6,657500,0.5605,1.78,1784156.35,1849247.4,-126996.76,-0.1932,-1498893.01,3434316.6,889097.14,1.3522,5233045.09
-37.7842775,144.8922627,,Aldi,supermarket,VIC,Item 133,70%,0.10,Edgewater Boulevard Pharmacy,4193555,50000,56,242,0.2,130000,0.0,False,,,3300000.0,2734000.0,566000.0,657500,0.8608,1.16,3092426.04,2310000.0,-37150.0,-0.0565,-903630.3,4290000.0,1205700.0,1.8338,7330637.5
-35.3404775,143.5574889,,Coles,supermarket,VIC,Item 133,75%,0.11,Amcal,10869,10869,3,3,0.2,28259,0.0,False,,,717354.0,831147.8,-113793.8,657500,-0.1731,999.0,-1411419.32,502147.8,-280431.18,-0.4265,-2515443.78,932560.2,48947.27,0.0744,-333209.09
-37.7520867,145.0028302,,ALDI,supermarket,VIC,Item 133,70%,0.12,Preston South Pharmacy,4065424,50000,70,283,0.2,130000,0.0,False,,,3300000.0,2734000.0,566000.0,657500,0.8608,1.16,3092426.04,2310000.0,-37150.0,-0.0565,-903630.3,4290000.0,1205700.0,1.8338,7330637.5
-36.2520952,142.3952382,,Ritchies IGA + Liquor,supermarket,VIC,Item 133,65%,0.18,Warracknabeal Pharmacy,2227,2227,1,1,0.4,11580,0.0,False,,,293964.0,534774.8,-240810.8,657500,-0.3663,999.0,-2252946.45,205774.8,-338223.91,-0.5144,-2898338.62,382153.2,-154703.32,-0.2353,-1682457.58
-37.21115076666667,145.42607766666666,,Foodworks,supermarket,VIC,"Item 133, Item 134",55%,0.31,Yea Pharmacy,1279,1279,1,1,0.4,6650,0.0,False,,,168828.0,447179.6,-278351.6,657500,-0.4233,999.0,-2501665.92,118179.6,-355304.98,-0.5404,-3011505.99,219476.4,-214893.73,-0.3268,-2081237.81
-37.3421575,144.1417141,,Coles,supermarket,VIC,Item 133,75%,0.11,Blooms The Chemist Daylesford,4032,4032,1,1,0.4,20966,0.0,False,,,532224.0,701556.8,-169332.8,657500,-0.2575,999.0,-1779382.47,372556.8,-305701.42,-0.4649,-2682867.01,691891.2,-40100.26,-0.061,-923176.67
-37.28763,144.94817475000002,,Coles,supermarket,VIC,Item 133,75%,0.12,Direct Chemist Outlet Kilmore,8786,8786,2,2,0.3,34265,0.0,False,,,869814.0,937869.8,-68055.8,657500,-0.1035,999.0,-1108390.84,608869.8,-259620.39,-0.3949,-2377565.82,1130758.2,122280.53,0.186,152646.57
-35.7325678,143.9200794,,Walker's IGA,supermarket,VIC,Item 133,65%,0.19,TerryWhite Chemmart Kerang,3696,3696,2,2,0.3,14414,0.0,False,,,365904.0,585132.8,-219228.8,657500,-0.3334,999.0,-2109958.98,256132.8,-328404.1,-0.4995,-2833279.33,475675.2,-120100.18,-0.1827,-1453201.02
-37.0664479,144.2186219,,Maxi IGA,supermarket,VIC,Item 133,65%,0.12,TerryWhite Chemmart Castlemaine,10577,10577,4,4,0.2,27500,0.0,False,,,698082.0,817657.4,-119575.4,657500,-0.1819,999.0,-1449724.22,488657.4,-283061.81,-0.4305,-2532872.51,907506.6,39677.44,0.0603,-394624.61
-38.6328746,145.7286408,,Foodworks,supermarket,VIC,Item 133,55%,0.10,TerryWhite Chemmart Inverloch,6046,6046,1,1,0.4,31439,0.0,False,,,798072.0,887650.4,-89578.4,657500,-0.1362,999.0,-1250984.76,558650.4,-269413.17,-0.4098,-2442446.06,1037493.6,87772.63,0.1335,-75979.01
-37.8679128,144.9919849,,Coles,supermarket,VIC,Item 133,75%,0.10,Priceline Pharmacy Balaclava,4312720,50000,74,254,0.2,130000,0.0,False,,,3300000.0,2734000.0,566000.0,657500,0.8608,1.16,3092426.04,2310000.0,-37150.0,-0.0565,-903630.3,4290000.0,1205700.0,1.8338,7330637.5
-36.2507663,144.9499623,,Tongala IGA plus Liquor,supermarket,VIC,Item 133,65%,0.28,Tongala Pharmacy,1331,1331,1,1,0.4,6921,0.0,False,,,175692.0,451984.4,-276292.4,657500,-0.4202,999.0,-2488023.08,122984.4,-354368.04,-0.539,-3005298.49,228399.6,-211592.15,-0.3218,-2059363.79
-37.829949,144.9573832,,ALDI,supermarket,VIC,Item 133,70%,0.11,South Melbourne Pharmacy,196349,50000,118,299,0.2,130000,0.0,False,,,3300000.0,2734000.0,566000.0,657500,0.8608,1.16,3092426.04,2310000.0,-37150.0,-0.0565,-903630.3,4290000.0,1205700.0,1.8338,7330637.5
-37.7630951,144.9632833,,Brunswick Supa IGA,supermarket,VIC,Item 133,65%,0.11,Your Discount Pharmacy,4455035,50000,98,302,0.2,130000,0.0,False,,,3300000.0,2734000.0,566000.0,657500,0.8608,1.16,3092426.04,2310000.0,-37150.0,-0.0565,-903630.3,4290000.0,1205700.0,1.8338,7330637.5
-37.737145,145.0028388,,Woolworths,supermarket,VIC,Item 133,75%,0.10,Amcal Pharmacy Preston,3778063,50000,68,274,0.2,130000,0.0,False,,,3300000.0,2734000.0,566000.0,657500,0.8608,1.16,3092426.04,2310000.0,-37150.0,-0.0565,-903630.3,4290000.0,1205700.0,1.8338,7330637.5
-38.4786703,145.9449685,,ALDI,supermarket,VIC,Item 133,70%,0.15,TerryWhite Chemmart Leongatha,5618,5618,2,2,0.3,21910,0.0,False,,,556182.0,718327.4,-162145.4,657500,-0.2466,999.0,-1731763.71,389327.4,-302431.16,-0.46,-2661200.48,723036.6,-28576.46,-0.0435,-846827.92
-37.7982692,144.9571353,,Melbourne Private Hospital,hospital,VIC,Item 135,40%,0.11,HealthSmart Pharmacy Melbourne,196349,50000,136,313,0.2,130000,0.0,False,,,3300000.0,2734000.0,566000.0,657500,0.8608,1.16,3092426.04,2310000.0,-37150.0,-0.0565,-903630.3,4290000.0,1205700.0,1.8338,7330637.5
-37.820028,145.0354654,,Coles Local,supermarket,VIC,Item 133,75%,0.11,TerryWhite Chemmart Hawthorn,4323138,50000,92,317,0.2,130000,0.0,False,,,3300000.0,2734000.0,566000.0,657500,0.8608,1.16,3092426.04,2310000.0,-37150.0,-0.0565,-903630.3,4290000.0,1205700.0,1.8338,7330637.5
-37.8057563,145.0309266,,Woolworths,supermarket,VIC,Item 133,75%,0.11,Star Pharmacy,4390736,50000,87,317,0.2,130000,0.0,False,,,3300000.0,2734000.0,566000.0,657500,0.8608,1.16,3092426.04,2310000.0,-37150.0,-0.0565,-903630.3,4290000.0,1205700.0,1.8338,7330637.5
-36.1255917,144.7508055,,Aldi,supermarket,VIC,Item 133,70%,0.14,Coburn & Reid Pharmacy,13764,13764,7,7,0.2,35786,0.0,False,,,908424.0,964896.8,-56472.8,657500,-0.0859,999.0,-1031649.86,635896.8,-254350.12,-0.3868,-2342648.68,1180951.2,140851.94,0.2142,275687.94
-38.2390054,146.3983912,,Coles,supermarket,VIC,Item 133,75%,0.13,Chemist Discount Centre Morwell,14068,14068,5,6,0.2,36576,0.0,False,,,928488.0,978941.6,-50453.6,657500,-0.0767,999.0,-991770.79,649941.6,-251611.39,-0.3827,-2324503.7,1207034.4,150502.73,0.2289,339627.38
-36.7508127,145.5710032,,IGA,supermarket,VIC,Item 133,65%,0.18,Euroa Pharmacy,3116,3116,2,2,0.3,12152,0.0,False,,,308484.0,544938.8,-236454.8,657500,-0.3596,999.0,-2224086.59,215938.8,-336241.93,-0.5114,-2885207.39,401029.2,-147719.2,-0.2247,-1636185.62
-37.6278019,145.0274063,,Woolworths,supermarket,VIC,Item 133,75%,1.21,Priceline Epping Plaza (Near Kmart),19430,19430,21,69,0.2,50518,0.0,False,,,1282380.0,1226666.0,55714.0,657500,0.0847,11.8,-288377.42,897666.0,-203305.13,-0.3092,-2004459.72,1667094.0,235224.78,0.3578,900937.33
-37.5782701,144.7123852,,ALDI,supermarket,VIC,Item 133,70%,0.10,Chemist Warehouse,38010,38010,8,8,0.2,98826,0.0,False,YES,VIC Growth Corridor - Northern,2508660.0,2180062.0,328598.0,657500,0.4998,2.0,1519563.95,1756062.0,-145167.91,-0.2208,-1619282.55,3261258.0,825065.46,1.2549,4808815.28
-37.8156928,144.9874666,,Epworth Cliveden,hospital,VIC,Item 135,40%,0.08,Pymans Pharmacy,196349,50000,137,322,0.2,130000,0.0,False,,,3300000.0,2734000.0,566000.0,657500,0.8608,1.16,3092426.04,2310000.0,-37150.0,-0.0565,-903630.3,4290000.0,1205700.0,1.8338,7330637.5
-34.5834608,142.7719912,,Ritchies IGA,supermarket,VIC,Item 133,65%,0.12,Robinvale Pharmacy,2441,2441,1,1,0.4,12693,0.0,False,,,322212.0,554548.4,-232336.4,657500,-0.3534,999.0,-2196800.91,225548.4,-334368.06,-0.5085,-2872792.41,418875.6,-141116.03,-0.2146,-1592437.58
-36.1296895,144.751593,,Woolworths,supermarket,VIC,Item 133,75%,0.12,Priceline Pharmacy Echuca Square,13764,13764,7,7,0.2,35786,0.0,False,,,908424.0,964896.8,-56472.8,657500,-0.0859,999.0,-1031649.86,635896.8,-254350.12,-0.3868,-2342648.68,1180951.2,140851.94,0.2142,275687.94
-38.4014473,146.1585741,,Foodworks,supermarket,VIC,Item 133,55%,0.19,Mirboo North Pharmacy,1752,1752,1,1,0.4,9110,0.0,False,,,231264.0,490884.8,-259620.8,657500,-0.3949,999.0,-2377568.55,161884.8,-346782.46,-0.5274,-2955041.68,300643.2,-184862.02,-0.2812,-1882268.35
-38.754813,143.668025,,Foodworks,supermarket,VIC,Item 133,55%,0.17,Apollo Bay Pharmacy,1591,1591,1,1,0.4,8273,0.0,False,,,210012.0,476008.4,-265996.4,657500,-0.4046,999.0,-2419808.88,147008.4,-349683.36,-0.5318,-2974261.03,273015.6,-195084.23,-0.2967,-1949993.69
-37.2485895,144.4520922,,Woolworths,supermarket,VIC,Item 133,75%,0.11,TerryWhite Chemmart Kyneton,5151,5151,1,2,0.4,26785,0.0,False,,,679932.0,804952.4,-125020.4,657500,-0.1901,999.0,-1485799.03,475952.4,-285539.28,-0.4343,-2549286.55,883911.6,30947.29,0.0471,-452464.57
-38.221703979999994,145.0403014,,Ouest France Bistro,shopping_centre,VIC,Item 134,55%,0.20,Advantage Pharmacy Mornington,24301,24301,8,13,0.2,63182,0.0,False,,,1603866.0,1546706.2,57159.8,657500,0.0869,11.5,-278798.55,1122706.2,-159422.29,-0.2425,-1713722.26,2085025.8,389859.55,0.5929,1925440.75
-37.6462393,143.6836033,,IGA,supermarket,VIC,Item 133,65%,0.34,Smythesdale Pharmacy,831,831,1,1,0.4,4321,0.0,False,,,109692.0,405784.4,-296092.4,657500,-0.4503,999.0,-2619204.24,76784.4,-363377.04,-0.5527,-3064985.92,142599.6,-243338.15,-0.3701,-2269690.91
-37.6296479,145.0794343,,Coles,supermarket,VIC,Item 133,75%,0.72,Lakes Boulevard Medical Pharmacy,21379,21379,17,63,0.2,55585,0.0,False,,,1411014.0,1316709.8,94304.2,657500,0.1434,6.97,-32705.34,987709.8,-185746.59,-0.2825,-1888128.92,1834318.2,297097.73,0.4519,1310864.89
-38.2409286,142.9181945,,Terang Supa IGA,supermarket,VIC,Item 133,65%,0.11,Fraz Family Pharmacy,2020,2020,1,1,0.4,10504,0.0,False,,,266640.0,515648.0,-249008.0,657500,-0.3787,999.0,-2307255.45,186648.0,-341953.64,-0.5201,-2923049.22,346632.0,-167846.16,-0.2553,-1769533.01
-37.3884937,144.321389,,IGA Country Grocers & Liquor,supermarket,VIC,Item 133,65%,0.13,Trentham Pharmacy,1427,1427,1,1,0.4,7420,0.0,False,,,188364.0,460854.8,-272490.8,657500,-0.4144,999.0,-2462836.3,131854.8,-352638.31,-0.5363,-2993838.51,244873.2,-205496.92,-0.3125,-2018980.98
-36.562886,146.7266738,,Foodworks,supermarket,VIC,Item 133,55%,0.14,Blooms The Chemist Myrtleford Clyde Street,3446,3446,2,2,0.3,13439,0.0,False,,,341154.0,567807.8,-226653.8,657500,-0.3447,999.0,-2159151.92,238807.8,-331782.48,-0.5046,-2855662.11,443500.2,-132004.93,-0.2008,-1532073.69
-35.9198826,145.6465119,,Woolworths,supermarket,VIC,Item 133,75%,0.12,Cobram Discount Drug Store,5389,5389,3,3,0.2,14011,0.0,False,,,355674.0,577971.8,-222297.8,657500,-0.3381,999.0,-2130292.06,248971.8,-329800.5,-0.5016,-2842530.88,462376.2,-125020.81,-0.1901,-1485801.72
-36.1951371,147.9055788,,Corryong IGA and Liquor,supermarket,VIC,Item 133,65%,0.19,Corryong Pharmacy,1186,1186,1,1,0.4,6167,0.0,False,,,156552.0,438586.4,-282034.4,657500,-0.4289,999.0,-2526065.62,109586.4,-356980.65,-0.5429,-3022607.85,203517.6,-220798.49,-0.3358,-2120358.66
-36.5876964,145.0167077,,Cochlan's IGA plus Liquor,supermarket,VIC,Item 133,65%,0.22,Mediconsul Rushworth Pharmacy,972,972,1,1,0.4,5054,0.0,False,,,128304.0,418812.8,-290508.8,657500,-0.4418,999.0,-2582211.15,89812.8,-360836.5,-0.5488,-3048154.07,166795.2,-234385.78,-0.3565,-2210378.66
-37.6876635,145.10827205,,IGA,supermarket,VIC,"Item 133, Item 134",65%,1.56,EcoLife Pharmacy,12319,12319,30,95,0.2,32029,0.0,False,,,813054.0,898137.8,-85083.8,657500,-0.1294,999.0,-1221206.64,569137.8,-267368.13,-0.4066,-2428897.01,1056970.2,94978.97,0.1445,-28234.76
-36.4202837,143.6136597,,Foodworks,supermarket,VIC,Item 133,55%,0.30,Wedderburn Pharmacy,650,650,1,1,0.4,3380,0.0,False,,,85800.0,389060.0,-303260.0,657500,-0.4612,999.0,-2666691.82,60060.0,-366638.3,-0.5576,-3086592.77,111540.0,-254830.2,-0.3876,-2345829.33
-35.069117,142.3146899,,Jasons IGA and Liquor,supermarket,VIC,Item 133,65%,0.17,Ouyen Pharmacy,1022,1022,1,1,0.4,5314,0.0,False,,,134904.0,423432.8,-288528.8,657500,-0.4388,999.0,-2569093.04,94432.8,-359935.6,-0.5474,-3042185.32,175375.2,-231211.18,-0.3517,-2189345.95
-38.3284148,143.0780706,,Ritchies Supa IGA,supermarket,VIC,Item 133,65%,0.16,Cobden Pharmacy,1603,1603,1,1,0.4,8335,0.0,False,,,211596.0,477117.2,-265521.2,657500,-0.4038,999.0,-2416660.53,148117.2,-349467.15,-0.5315,-2972828.53,275074.8,-194322.32,-0.2955,-1944945.83
-34.3054599,142.1884708,,Ritchies IGA & Liquor,supermarket,VIC,Item 133,65%,0.14,TerryWhite Chemmart Red Cliffs,3136,3136,1,2,0.4,16307,0.0,False,,,413952.0,618766.4,-204814.4,657500,-0.3115,999.0,-2014459.1,289766.4,-321845.55,-0.4895,-2789826.88,538137.6,-96989.09,-0.1475,-1300082.87
-38.219185,145.0399321,,Coles,supermarket,VIC,Item 133,75%,0.11,Chemist Warehouse,24525,24525,8,13,0.2,63765,0.0,False,,,1618650.0,1557055.0,61595.0,657500,0.0937,10.67,-249413.97,1133055.0,-157404.27,-0.2394,-1700352.28,2104245.0,396970.65,0.6038,1972554.02
-38.2916088,142.3642103,,Daly's IGA,supermarket,VIC,Item 133,65%,0.18,Koroit Pharmacy,1997,1997,1,1,0.4,10384,0.0,False,,,263604.0,513522.8,-249918.8,657500,-0.3801,999.0,-2313289.78,184522.8,-342368.05,-0.5207,-2925794.84,342685.2,-169306.48,-0.2575,-1779208.06
-37.6492,145.0259,"High Street, Epping, Melbourne, City of Whittlesea, Victoria, 3076, Australia",IPN Medical Centre Epping,medical_centre,VIC,Item 136,95%,0.57,Chemist Warehouse Epping Homelife Centre,20945,20945,31,91,0.2,54457,8.0,False,,,1727962.5,1633573.75,94388.75,657500,0.1436,6.97,-32145.17,1209573.75,-142483.12,-0.2167,-1601494.98,2246351.25,449549.96,0.6837,2320908.32
-37.6813787,145.0253087,,Foodworks,supermarket,VIC,Item 133,55%,0.94,Lorne Street Pharmacy,9928,9928,40,137,0.2,25812,0.0,False,,,655248.0,787673.6,-132425.6,657500,-0.2014,999.0,-1534860.79,458673.6,-288908.65,-0.4394,-2571609.65,851822.4,19074.29,0.029,-531126.91
-38.2199255,145.0628334,,ALDI,supermarket,VIC,Item 133,70%,0.17,Priceline Pharmacy Mornington,9495,9495,11,24,0.2,24687,0.0,False,,,626670.0,767669.0,-140999.0,657500,-0.2144,999.0,-1591662.23,438669.0,-292809.55,-0.4453,-2597454.3,814671.0,5328.27,0.0081,-622198.55
-37.6998024,145.058831,,ALDI,supermarket,VIC,Item 133,70%,0.37,Priceline Pharmacy Bundoora,26306,26306,37,133,0.2,68395,0.0,False,,,1736196.0,1639337.2,96858.8,657500,0.1473,6.79,-15780.33,1215337.2,-141359.25,-0.215,-1594048.97,2257054.8,453510.28,0.6897,2347146.63
-37.7771492,145.4590878,,Woolworths,supermarket,VIC,Item 133,75%,0.11,Seville Village Pharmacy,2018,2018,2,10,0.3,7870,0.0,False,,,199782.0,468847.4,-269065.4,657500,-0.4092,999.0,-2440141.96,139847.4,-351079.76,-0.534,-2983512.58,259716.6,-200004.86,-0.3042,-1982594.39
-37.6777574,144.9989322,,Supa IGA Thomastown,supermarket,VIC,Item 133,65%,0.33,Joe Ardi's Pharmacy,23396,23396,36,136,0.2,60829,0.0,False,,,1544136.0,1504895.2,39240.8,657500,0.0597,16.76,-397517.5,1080895.2,-167575.44,-0.2549,-1767739.38,2007376.8,361129.42,0.5492,1735094.7
-38.3303177,144.987326,,ALDI,supermarket,VIC,Item 133,70%,1.66,Dromana Alliance Pharmacy,414,414,4,12,0.2,1076,0.0,False,,,27324.0,348126.8,-320802.8,657500,-0.4879,999.0,-2782918.33,19126.8,-374620.27,-0.5698,-3139475.83,35521.2,-282957.16,-0.4304,-2532179.16
-37.6539128,145.0128705,,Northern Private Hospital,hospital,VIC,Item 135,55%,0.36,Chemist Warehouse Pacific Epping SC,13369,13369,27,104,0.2,34759,0.0,False,,,882354.0,946647.8,-64293.8,657500,-0.0978,999.0,-1083466.42,617647.8,-257908.68,-0.3923,-2366225.21,1147060.2,128312.27,0.1952,192608.72
-37.6778323,145.0139671,,Fortune IGA,supermarket,VIC,Item 133,65%,0.15,Chemist Warehouse Thomastown,23563,23563,40,134,0.2,61263,0.0,False,,,1555158.0,1512610.6,42547.4,657500,0.0647,15.45,-375610.24,1088610.6,-166070.93,-0.2526,-1757771.58,2021705.4,366431.0,0.5573,1770219.33
-38.0716,145.486,,Pakenham Medical Centre,medical_centre,VIC,Item 136,70%,0.55,United Chemists Pakenham,526,526,10,12,0.2,1367,8.0,False,,,43395.0,359376.5,-315981.5,657500,-0.4806,999.0,-2750975.71,30376.5,-372426.58,-0.5664,-3124941.94,56413.5,-275227.01,-0.4186,-2480964.51
-37.5089809,145.7475277,,Marysville Grocer,shopping_centre,VIC,Item 134,55%,0.21,Marysville Pharmacy Excellence,1000,1000,1,1,0.4,5200,0.0,False,,,132000.0,421400.0,-289400.0,657500,-0.4402,999.0,-2574865.01,92400.0,-360332.0,-0.548,-3044811.57,171600.0,-232608.0,-0.3538,-2198600.35
-37.682907,145.0704091,,Coles,supermarket,VIC,Item 133,75%,0.11,Priceline Pharmacy University Hill,11163,11163,33,111,0.2,29023,0.0,False,,,736758.0,844730.6,-107972.6,657500,-0.1642,999.0,-1372852.06,515730.6,-277782.53,-0.4225,-2497895.68,957785.4,58280.6,0.0886,-271372.91
-38.3596312,144.8936418,,ALDI,supermarket,VIC,Item 133,70%,0.26,Amcal,414,414,7,13,0.2,1076,0.0,False,,,27324.0,348126.8,-320802.8,657500,-0.4879,999.0,-2782918.33,19126.8,-374620.27,-0.5698,-3139475.83,35521.2,-282957.16,-0.4304,-2532179.16
-37.7609226,145.3491933,,ALDI,supermarket,VIC,Item 133,70%,0.14,Chemist Warehouse,1918,1918,13,29,0.2,4986,0.0,False,,,126588.0,417611.6,-291023.6,657500,-0.4426,999.0,-2585621.86,88611.6,-361070.74,-0.5492,-3049705.94,164564.4,-235211.17,-0.3577,-2215847.17
-37.786984,145.3788507,,IGA,supermarket,VIC,Item 133,65%,0.14,Mt Evelyn Pharmacy,1918,1918,8,30,0.2,4986,0.0,False,,,126588.0,417611.6,-291023.6,657500,-0.4426,999.0,-2585621.86,88611.6,-361070.74,-0.5492,-3049705.94,164564.4,-235211.17,-0.3577,-2215847.17
-37.889438,145.2936982,,Woolworths,supermarket,VIC,Item 133,75%,0.36,Chemist Warehouse,500,500,19,59,0.2,1300,0.0,False,,,33000.0,352100.0,-319100.0,657500,-0.4853,999.0,-2771636.75,23100.0,-373845.5,-0.5686,-3134342.71,42900.0,-280227.0,-0.4262,-2514091.03
-37.883705,145.2778081,,Woolworths,supermarket,VIC,Item 133,75%,0.12,Elixir Compounding Pharmacy,500,500,29,86,0.2,1300,0.0,False,,,33000.0,352100.0,-319100.0,657500,-0.4853,999.0,-2771636.75,23100.0,-373845.5,-0.5686,-3134342.71,42900.0,-280227.0,-0.4262,-2514091.03
-37.6006,144.9464,"10, Export Road, Craigieburn, Melbourne, City of Hume, Victoria, 3064, Australia",Craigieburn Medical Centre,medical_centre,VIC,Item 136,95%,0.54,Priceline Pharmacy Craigieburn,24407,24407,13,49,0.2,63458,8.0,False,YES,VIC Growth Corridor - Northern,2013577.5,1833504.25,180073.25,657500,0.2739,3.65,535541.29,1409504.25,-103496.67,-0.1574,-1343197.64,2617650.75,586930.78,0.8927,3231098.95
-37.8913,144.7471,"10, Grassmere Road, Newminster, Point Cook, Melbourne, City of Wyndham, Victoria, 3030, Australia",Point Cook Medical Centre,medical_centre,VIC,Item 136,95%,0.66,Priceline Pharmacy Sanctuary Lakes,50027,50000,19,41,0.2,130000,9.6,False,YES,VIC Growth Corridor - Western,3600000.0,2944000.0,656000.0,657500,0.9977,1.0,3688704.03,2520000.0,3800.0,0.0058,-632323.82,4680000.0,1350000.0,2.0532,8286669.88
-37.849,144.6958,"492, Sayers Road, Hoppers Crossing, Melbourne, City of Wyndham, Victoria, 3029, Australia",Tarneit Medical Centre,medical_centre,VIC,Item 136,95%,0.62,Tarneit Pharmacy,50027,50000,23,45,0.2,130000,8.0,False,YES,VIC Growth Corridor - Western,3600000.0,2944000.0,656000.0,657500,0.9977,1.0,3688704.03,2520000.0,3800.0,0.0058,-632323.82,4680000.0,1350000.0,2.0532,8286669.88
-37.738,144.7373,"Kororoit Creek Trail, Caroline Springs, Melbourne, City of Melton, Victoria, 3023, Australia",Caroline Springs Medical Centre,medical_centre,VIC,Item 136,95%,0.41,TerryWhite Chemmart Caroline Springs,822,822,18,53,0.2,2137,8.0,False,YES,VIC Growth Corridor - Western,67815.0,376470.5,-308655.5,657500,-0.4694,999.0,-2702438.69,47470.5,-369093.25,-0.5614,-3102857.59,88159.5,-263480.99,-0.4007,-2403143.47
-38.035,145.3513,"5, Cord Close, Berwick, Melbourne, City of Casey, Victoria, 3806, Australia",Berwick Medical Centre,medical_centre,VIC,Item 136,95%,0.61,Berwick Pharmacy,5890,5890,20,48,0.2,15314,8.0,False,,,485925.0,669147.5,-183222.5,657500,-0.2787,999.0,-1871406.05,340147.5,-312021.24,-0.4746,-2724737.74,631702.5,-62370.08,-0.0949,-1070721.15
-35.3402,149.1031,"4, Gilmore Crescent, Garran, District of Woden Valley, Australian Capital Territory, 2605, Australia",Garran Medical Centre,medical_centre,VIC,Item 136,95%,0.48,Capital Chemist Garran,1000,1000,24,58,0.2,2600,6.4,False,,,66000.0,375200.0,-309200.0,657500,-0.4703,999.0,-2706046.17,46200.0,-369341.0,-0.5617,-3104499.0,85800.0,-264354.0,-0.4021,-2408927.47
-35.2341,149.0178,"Pegasus, Macnaughton Street, Holt, District of Belconnen, Australian Capital Territory, 2615, Australia",Kippax Medical Centre,medical_centre,VIC,Item 136,95%,0.89,TerryWhite Chemmart,1000,1000,19,35,0.2,2600,6.4,False,,,66000.0,375200.0,-309200.0,657500,-0.4703,999.0,-2706046.17,46200.0,-369341.0,-0.5617,-3104499.0,85800.0,-264354.0,-0.4021,-2408927.47
-33.4188,149.5792,"158, Russell Street, Bathurst, Bathurst Regional Council, New South Wales, 2795, Australia",Bathurst Medical Centre,medical_centre,VIC,Item 136,95%,0.31,Moodie's Pharmacy,1000,1000,8,8,0.2,2600,6.4,False,,,66000.0,375200.0,-309200.0,657500,-0.4703,999.0,-2706046.17,46200.0,-369341.0,-0.5617,-3104499.0,85800.0,-264354.0,-0.4021,-2408927.47
-37.8146,145.2307,,Eastland Shopping Centre,shopping_centre,VIC,Item 132,85%,0.23,Priceline Pharmacy Ringwood,1000,1000,34,117,0.2,2600,0.0,False,,,66000.0,375200.0,-309200.0,657500,-0.4703,999.0,-2706046.17,46200.0,-369341.0,-0.5617,-3104499.0,85800.0,-264354.0,-0.4021,-2408927.47
-37.965617,144.7066647,,Wyndham Harbour Mini Mart,supermarket,VIC,Item 131,75%,10.28,Direct Chemist Outlet Featherbrook,50027,50000,0,18,0.8,520000,0.0,True,YES,VIC Growth Corridor - Western,3600000.0,2944000.0,656000.0,657500,0.9977,1.0,3688704.03,2520000.0,3800.0,0.0058,-632323.82,4680000.0,1350000.0,2.0532,8286669.88
-37.8682575,145.240404,,Coles,supermarket,VIC,Item 133,75%,0.16,TerryWhite Chemmart Knox,1000,1000,30,111,0.2,2600,0.0,False,,,66000.0,375200.0,-309200.0,657500,-0.4703,999.0,-2706046.17,46200.0,-369341.0,-0.5617,-3104499.0,85800.0,-264354.0,-0.4021,-2408927.47
-37.9208945,145.2375525,,Coles,supermarket,VIC,Item 133,75%,0.11,Blooms The Chemist,1000,1000,15,115,0.2,2600,0.0,False,,,66000.0,375200.0,-309200.0,657500,-0.4703,999.0,-2706046.17,46200.0,-369341.0,-0.5617,-3104499.0,85800.0,-264354.0,-0.4021,-2408927.47
-37.9494484,145.0033694,,Coles,supermarket,VIC,Item 133,75%,0.24,Sandringham Amcal Pharmacy,15153,15153,35,105,0.2,39397,0.0,False,,,1000098.0,1029068.6,-28970.6,657500,-0.0441,999.0,-849439.24,700068.6,-241836.62,-0.3678,-2259742.84,1300127.4,184947.14,0.2813,567832.31
-37.8768747,145.1645918,,Coles,supermarket,VIC,Item 133,75%,0.11,Priceline Pharmacy The Glen,1000,1000,33,170,0.2,2600,0.0,False,,,66000.0,375200.0,-309200.0,657500,-0.4703,999.0,-2706046.17,46200.0,-369341.0,-0.5617,-3104499.0,85800.0,-264354.0,-0.4021,-2408927.47
-37.803235,145.3108152,,Woolworths,supermarket,VIC,Item 133,75%,0.11,Kilsyth Pharmacy,1918,1918,19,65,0.2,4986,0.0,False,,,126588.0,417611.6,-291023.6,657500,-0.4426,999.0,-2585621.86,88611.6,-361070.74,-0.5492,-3049705.94,164564.4,-235211.17,-0.3577,-2215847.17
-38.13945305,145.126657175,,Woolworths,supermarket,VIC,"Item 133, Item 134",75%,0.25,Frankston Compounding Pharmacy,25852,25852,20,40,0.2,67215,0.0,False,,,1706232.0,1618362.4,87869.6,657500,0.1336,7.48,-75336.57,1194362.4,-145449.33,-0.2212,-1621147.06,2218101.6,439097.59,0.6678,2251658.11
-38.0686164,145.3007558,,Coles,supermarket,VIC,Item 133,75%,0.11,Blooms the Chemist Casey Central,1000,1000,31,57,0.2,2600,0.0,False,,,66000.0,375200.0,-309200.0,657500,-0.4703,999.0,-2706046.17,46200.0,-369341.0,-0.5617,-3104499.0,85800.0,-264354.0,-0.4021,-2408927.47
-37.9865785,145.2183528,,Coles,supermarket,VIC,Item 133,75%,0.18,Priceline Pharmacy Dandenong Plaza Upper,1000,1000,34,89,0.2,2600,0.0,False,,,66000.0,375200.0,-309200.0,657500,-0.4703,999.0,-2706046.17,46200.0,-369341.0,-0.5617,-3104499.0,85800.0,-264354.0,-0.4021,-2408927.47
-37.811917300000005,145.22921505,,Woolworths,supermarket,VIC,Item 133,75%,0.11,Priceline Pharmacy Ringwood,1000,1000,33,115,0.2,2600,0.0,False,,,66000.0,375200.0,-309200.0,657500,-0.4703,999.0,-2706046.17,46200.0,-369341.0,-0.5617,-3104499.0,85800.0,-264354.0,-0.4021,-2408927.47
-38.06173415,145.3399234,,Coles,supermarket,VIC,Item 133,75%,0.16,PharmaSave,1000,1000,17,56,0.2,2600,0.0,False,,,66000.0,375200.0,-309200.0,657500,-0.4703,999.0,-2706046.17,46200.0,-369341.0,-0.5617,-3104499.0,85800.0,-264354.0,-0.4021,-2408927.47
-37.7271612,144.8069276,,Coles,supermarket,VIC,"Item 133, Item 134",75%,0.42,Keilor Downs Caring Chemist,822,822,23,92,0.2,2137,0.0,False,YES,VIC Growth Corridor - Western,54252.0,366976.4,-312724.4,657500,-0.4756,999.0,-2729396.41,37976.4,-370944.6,-0.5642,-3115123.36,70527.6,-270004.79,-0.4107,-2446365.7
-37.9259993,145.1185924,,Coles,supermarket,VIC,Item 133,75%,0.12,Direct Chemist Outlet Clayton Central Compounding Pharmacy,15153,15153,41,163,0.2,39397,0.0,False,,,1000098.0,1029068.6,-28970.6,657500,-0.0441,999.0,-849439.24,700068.6,-241836.62,-0.3678,-2259742.84,1300127.4,184947.14,0.2813,567832.31
-38.0185007,145.306709,,Coles,supermarket,VIC,Item 133,75%,0.14,Chemist Warehouse Westfield Fountain Gate,1000,1000,21,64,0.2,2600,0.0,False,,,66000.0,375200.0,-309200.0,657500,-0.4703,999.0,-2706046.17,46200.0,-369341.0,-0.5617,-3104499.0,85800.0,-264354.0,-0.4021,-2408927.47
-37.638387,144.9323564,,Coles,supermarket,VIC,Item 133,75%,0.17,Chemist Warehouse,23219,23219,17,79,0.2,60369,0.0,False,,,1532454.0,1496717.8,35736.2,657500,0.0544,18.4,-420736.56,1072717.8,-169170.03,-0.2573,-1778304.06,1992190.2,355510.37,0.5407,1697866.8
-38.0321022,145.3450266,,Coles,supermarket,VIC,Item 133,75%,0.20,Berwick Pharmacy,5890,5890,20,52,0.2,15314,0.0,False,,,388740.0,601118.0,-212378.0,657500,-0.323,999.0,-2064570.3,272118.0,-325286.99,-0.4947,-2812627.48,505362.0,-109116.06,-0.166,-1380427.83
-37.5365138,144.9212675,,Coles,supermarket,VIC,Item 133,75%,0.14,Chemist Warehouse Merrifield City SC Mickleham,24407,24407,4,16,0.2,63458,0.0,False,YES,VIC Growth Corridor - Northern,1610862.0,1551603.4,59258.6,657500,0.0901,11.1,-264893.34,1127603.4,-158467.34,-0.241,-1707395.39,2094120.6,393224.62,0.5981,1947735.42
-37.9738785,145.0163098,,Woolworths Metro,supermarket,VIC,Item 133,75%,0.12,Pharmacy 360 Black Rock,15153,15153,24,71,0.2,39397,0.0,False,,,1000098.0,1029068.6,-28970.6,657500,-0.0441,999.0,-849439.24,700068.6,-241836.62,-0.3678,-2259742.84,1300127.4,184947.14,0.2813,567832.31
-38.1092936,145.1265883,,Woolworths,supermarket,VIC,Item 133,75%,0.75,PharmaSave,25852,25852,17,44,0.2,67215,0.0,False,,,1706232.0,1618362.4,87869.6,657500,0.1336,7.48,-75336.57,1194362.4,-145449.33,-0.2212,-1621147.06,2218101.6,439097.59,0.6678,2251658.11
-38.308946649999996,145.1900536,,Woolworths,supermarket,VIC,Item 133,75%,0.12,TerryWhite Chemmart Hastings,541,541,4,11,0.2,1406,0.0,False,,,35706.0,353994.2,-318288.2,657500,-0.4841,999.0,-2766258.32,24994.2,-373476.13,-0.568,-3131895.53,46417.8,-278925.41,-0.4242,-2505467.62
-37.9840734,145.0643704,,Coles,supermarket,VIC,"Item 133, Item 134",75%,0.20,Chemist Warehouse,15153,15153,25,98,0.2,39397,0.0,False,,,1000098.0,1029068.6,-28970.6,657500,-0.0441,999.0,-849439.24,700068.6,-241836.62,-0.3678,-2259742.84,1300127.4,184947.14,0.2813,567832.31
-38.306299,145.1914173,,Coles,supermarket,VIC,Item 133,75%,0.13,Hastings Discount Drug Store,541,541,3,11,0.2,1406,0.0,False,,,35706.0,353994.2,-318288.2,657500,-0.4841,999.0,-2766258.32,24994.2,-373476.13,-0.568,-3131895.53,46417.8,-278925.41,-0.4242,-2505467.62
-37.8408888,145.2627028,,Woolworths,supermarket,VIC,Item 133,75%,0.24,TerryWhite Chemmart Bayswater,1000,1000,41,95,0.2,2600,0.0,False,,,66000.0,375200.0,-309200.0,657500,-0.4703,999.0,-2706046.17,46200.0,-369341.0,-0.5617,-3104499.0,85800.0,-264354.0,-0.4021,-2408927.47
-38.0849951,145.2928351,,Coles,supermarket,VIC,Item 133,75%,0.15,Chemist Warehouse,617,617,29,60,0.2,1604,0.0,False,,,40722.0,357505.4,-316783.4,657500,-0.4818,999.0,-2756288.55,28505.4,-372791.45,-0.567,-3127359.28,52938.6,-276512.72,-0.4206,-2489482.76
-38.004827,145.2664991,,Coles,supermarket,VIC,Item 133,75%,0.48,Healthfirst Family Pharmacy,1000,1000,28,78,0.2,2600,0.0,False,,,66000.0,375200.0,-309200.0,657500,-0.4703,999.0,-2706046.17,46200.0,-369341.0,-0.5617,-3104499.0,85800.0,-264354.0,-0.4021,-2408927.47
-38.0441357,145.3689227,,Woolworths,supermarket,VIC,Item 133,75%,0.12,Beaconsfield Pharmacy,5890,5890,12,45,0.2,15314,0.0,False,,,388740.0,601118.0,-212378.0,657500,-0.323,999.0,-2064570.3,272118.0,-325286.99,-0.4947,-2812627.48,505362.0,-109116.06,-0.166,-1380427.83
-38.017448,145.3010818,,Aldi,supermarket,VIC,Item 133,70%,0.25,Chemist Warehouse,1000,1000,22,64,0.2,2600,0.0,False,,,66000.0,375200.0,-309200.0,657500,-0.4703,999.0,-2706046.17,46200.0,-369341.0,-0.5617,-3104499.0,85800.0,-264354.0,-0.4021,-2408927.47
-37.9366727,145.1915257,,ALDI,supermarket,VIC,Item 133,70%,0.21,Priceline Pharmacy Waverley Gardens,1000,1000,38,121,0.2,2600,0.0,False,,,66000.0,375200.0,-309200.0,657500,-0.4703,999.0,-2706046.17,46200.0,-369341.0,-0.5617,-3104499.0,85800.0,-264354.0,-0.4021,-2408927.47
-37.9287015,145.2513265,,ALDI,supermarket,VIC,Item 133,70%,0.12,Rowville Pharmacy Amcal+ Wellington Village,1000,1000,11,108,0.2,2600,0.0,False,,,66000.0,375200.0,-309200.0,657500,-0.4703,999.0,-2706046.17,46200.0,-369341.0,-0.5617,-3104499.0,85800.0,-264354.0,-0.4021,-2408927.47
-37.97095493333333,145.08946943333333,,ALDI,supermarket,VIC,"Item 133, Item 134",70%,0.12,Chemist Warehouse Kingston Central Plaza,15153,15153,26,123,0.2,39397,0.0,False,,,1000098.0,1029068.6,-28970.6,657500,-0.0441,999.0,-849439.24,700068.6,-241836.62,-0.3678,-2259742.84,1300127.4,184947.14,0.2813,567832.31
-38.2249896,145.1774728,,ALDI,supermarket,VIC,Item 133,70%,0.31,Direct Chemist Outlet Centro Somerville,541,541,7,31,0.2,1406,0.0,False,,,35706.0,353994.2,-318288.2,657500,-0.4841,999.0,-2766258.32,24994.2,-373476.13,-0.568,-3131895.53,46417.8,-278925.41,-0.4242,-2505467.62
-37.8718502,144.7751035,,Aldi,supermarket,VIC,Item 133,70%,0.16,Direct Chemist Outlet Central Square,50027,50000,17,49,0.2,130000,0.0,False,YES,VIC Growth Corridor - Western,3300000.0,2734000.0,566000.0,657500,0.8608,1.16,3092426.04,2310000.0,-37150.0,-0.0565,-903630.3,4290000.0,1205700.0,1.8338,7330637.5
-37.8763934,145.4089514,,ALDI,supermarket,VIC,Item 133,70%,0.30,Monbulk Pharmacy,5890,5890,3,13,0.2,15314,0.0,False,,,388740.0,601118.0,-212378.0,657500,-0.323,999.0,-2064570.3,272118.0,-325286.99,-0.4947,-2812627.48,505362.0,-109116.06,-0.166,-1380427.83
-38.1519413,145.1673256,,Aldi,supermarket,VIC,Item 133,70%,0.20,Priceline Pharmacy Karingal Hub,25852,25852,26,46,0.2,67215,0.0,False,,,1706232.0,1618362.4,87869.6,657500,0.1336,7.48,-75336.57,1194362.4,-145449.33,-0.2212,-1621147.06,2218101.6,439097.59,0.6678,2251658.11
-38.0942353,145.3333701,,Aldi Clyde North,supermarket,VIC,Item 133,70%,1.68,Chemist Warehouse,617,617,20,55,0.2,1604,0.0,False,,,40722.0,357505.4,-316783.4,657500,-0.4818,999.0,-2756288.55,28505.4,-372791.45,-0.567,-3127359.28,52938.6,-276512.72,-0.4206,-2489482.76
-38.0345455,145.2842811,,ALDI,supermarket,VIC,Item 133,70%,0.11,Chemist Warehouse,1000,1000,21,71,0.2,2600,0.0,False,,,66000.0,375200.0,-309200.0,657500,-0.4703,999.0,-2706046.17,46200.0,-369341.0,-0.5617,-3104499.0,85800.0,-264354.0,-0.4021,-2408927.47
-38.1102556,145.1610991,,ALDI,supermarket,VIC,Item 133,70%,0.43,Direct Chemist Outlet Belvedere Park,1000,1000,19,45,0.2,2600,0.0,False,,,66000.0,375200.0,-309200.0,657500,-0.4703,999.0,-2706046.17,46200.0,-369341.0,-0.5617,-3104499.0,85800.0,-264354.0,-0.4021,-2408927.47
-37.88770395,144.60724545,,ALDI,supermarket,VIC,"Item 133, Item 134",70%,1.38,Unknown Pharmacy,50027,50000,8,26,0.2,130000,0.0,False,YES,VIC Growth Corridor - Western,3300000.0,2734000.0,566000.0,657500,0.8608,1.16,3092426.04,2310000.0,-37150.0,-0.0565,-903630.3,4290000.0,1205700.0,1.8338,7330637.5
-37.8430635,145.2661744,,Aldi,supermarket,VIC,Item 133,70%,0.12,Direct Chemist Outlet Bayswater,1000,1000,38,91,0.2,2600,0.0,False,,,66000.0,375200.0,-309200.0,657500,-0.4703,999.0,-2706046.17,46200.0,-369341.0,-0.5617,-3104499.0,85800.0,-264354.0,-0.4021,-2408927.47
-38.1115747,145.2842262,,ALDI,supermarket,VIC,Item 133,70%,0.13,Pharmacy 4 Less,617,617,22,48,0.2,1604,0.0,False,,,40722.0,357505.4,-316783.4,657500,-0.4818,999.0,-2756288.55,28505.4,-372791.45,-0.567,-3127359.28,52938.6,-276512.72,-0.4206,-2489482.76
-37.9558454,145.0334368,,Aldi,supermarket,VIC,Item 133,70%,1.49,TerryWhite Chemmart Bluff Road,15153,15153,39,107,0.2,39397,0.0,False,,,1000098.0,1029068.6,-28970.6,657500,-0.0441,999.0,-849439.24,700068.6,-241836.62,-0.3678,-2259742.84,1300127.4,184947.14,0.2813,567832.31
-37.9012273,145.2329917,,ALDI,supermarket,VIC,Item 133,70%,0.38,U Pharmacy Scoresby Village,1000,1000,22,126,0.2,2600,0.0,False,,,66000.0,375200.0,-309200.0,657500,-0.4703,999.0,-2706046.17,46200.0,-369341.0,-0.5617,-3104499.0,85800.0,-264354.0,-0.4021,-2408927.47
-37.97517415,145.068694025,,ALDI,supermarket,VIC,"Item 133, Item 134",70%,0.80,Good Health Pharmacy,15153,15153,28,118,0.2,39397,0.0,False,,,1000098.0,1029068.6,-28970.6,657500,-0.0441,999.0,-849439.24,700068.6,-241836.62,-0.3678,-2259742.84,1300127.4,184947.14,0.2813,567832.31
-35.1101,147.3688,,Wagga Wagga Medical Centre,medical_centre,VIC,Item 136,70%,0.41,Cincotta Discount Chemist Wagga Wagga,1000,1000,10,11,0.2,2600,7.2,False,,,66000.0,375200.0,-309200.0,657500,-0.4703,999.0,-2706046.17,46200.0,-369341.0,-0.5617,-3104499.0,85800.0,-264354.0,-0.4021,-2408927.47
-37.9809432,145.3167652,,Marco's IGA,supermarket,VIC,Item 133,65%,3.53,Chemist Discount Centre Endeavour Hills,5890,5890,12,61,0.2,15314,0.0,False,,,388740.0,601118.0,-212378.0,657500,-0.323,999.0,-2064570.3,272118.0,-325286.99,-0.4947,-2812627.48,505362.0,-109116.06,-0.166,-1380427.83
-37.8479014,145.3607598,,Mt Dandenong IGA,supermarket,VIC,Item 133,65%,0.91,Olinda Pharmacy,1918,1918,4,45,0.2,4986,0.0,False,,,126588.0,417611.6,-291023.6,657500,-0.4426,999.0,-2585621.86,88611.6,-361070.74,-0.5492,-3049705.94,164564.4,-235211.17,-0.3577,-2215847.17
-37.8990016,144.7398241,,IGA Point Cook,supermarket,VIC,Item 133,65%,1.13,Direct Chemist Outlet Featherbrook,50027,50000,17,42,0.2,130000,0.0,False,YES,VIC Growth Corridor - Western,3300000.0,2734000.0,566000.0,657500,0.8608,1.16,3092426.04,2310000.0,-37150.0,-0.0565,-903630.3,4290000.0,1205700.0,1.8338,7330637.5
-37.8612753,144.6742753,,IGA,supermarket,VIC,Item 133,65%,0.71,Direct Chemist Outlet Tarneit West,50027,50000,23,42,0.2,130000,0.0,False,YES,VIC Growth Corridor - Western,3300000.0,2734000.0,566000.0,657500,0.8608,1.16,3092426.04,2310000.0,-37150.0,-0.0565,-903630.3,4290000.0,1205700.0,1.8338,7330637.5
-37.7356853,145.2722906,,IGA,supermarket,VIC,Item 133,65%,4.26,TerryWhite Chemmart Chirnside Park,2417,2417,4,37,0.2,6284,0.0,False,,,159522.0,440665.4,-281143.4,657500,-0.4276,999.0,-2520162.47,111665.4,-356575.25,-0.5423,-3019921.91,207378.6,-219369.92,-0.3336,-2110893.93
-37.828042733333334,145.2462677,,IGA,supermarket,VIC,"Item 133, Item 134",65%,0.99,Priceline Pharmacy Heathmont,1000,1000,38,104,0.2,2600,0.0,False,,,66000.0,375200.0,-309200.0,657500,-0.4703,999.0,-2706046.17,46200.0,-369341.0,-0.5617,-3104499.0,85800.0,-264354.0,-0.4021,-2408927.47
-37.8211081,145.1419147,,IGA,supermarket,VIC,Item 133,65%,0.89,Amcal Pharmacy Blackburn,5352,5352,48,158,0.2,13915,0.0,False,,,353232.0,576262.4,-223030.4,657500,-0.3392,999.0,-2135145.77,247262.4,-330133.83,-0.5021,-2844739.31,459201.6,-126195.41,-0.1919,-1493583.83
-37.8120235,145.2516228,,IGA,supermarket,VIC,Item 133,65%,0.11,National Pharmacies,1000,1000,31,91,0.2,2600,0.0,False,,,66000.0,375200.0,-309200.0,657500,-0.4703,999.0,-2706046.17,46200.0,-369341.0,-0.5617,-3104499.0,85800.0,-264354.0,-0.4021,-2408927.47
-38.0516254,145.2873009,,IGA,supermarket,VIC,Item 133,65%,0.11,Amberly Park Pharmacy,1000,1000,27,70,0.2,2600,0.0,False,,,66000.0,375200.0,-309200.0,657500,-0.4703,999.0,-2706046.17,46200.0,-369341.0,-0.5617,-3104499.0,85800.0,-264354.0,-0.4021,-2408927.47
-37.6389263,144.8804683,,IGA Greenvale,supermarket,VIC,Item 133,65%,0.14,Direct Chemist Outlet Greenvale,23219,23219,10,51,0.2,60369,0.0,False,,,1532454.0,1496717.8,35736.2,657500,0.0544,18.4,-420736.56,1072717.8,-169170.03,-0.2573,-1778304.06,1992190.2,355510.37,0.5407,1697866.8
-37.9316948,145.3581416,,IGA,supermarket,VIC,Item 133,65%,0.19,Belgrave South Pharmacy,5890,5890,4,25,0.2,15314,0.0,False,,,388740.0,601118.0,-212378.0,657500,-0.323,999.0,-2064570.3,272118.0,-325286.99,-0.4947,-2812627.48,505362.0,-109116.06,-0.166,-1380427.83
-37.743743699999996,144.7991577,,IGA,supermarket,VIC,"Item 133, Item 134",65%,0.11,Ren Jih Tang,822,822,22,89,0.2,2137,0.0,False,YES,VIC Growth Corridor - Western,54252.0,366976.4,-312724.4,657500,-0.4756,999.0,-2729396.41,37976.4,-370944.6,-0.5642,-3115123.36,70527.6,-270004.79,-0.4107,-2446365.7
-37.8553997,144.5901663,,IGA Jubilee Plus,supermarket,VIC,Item 133,65%,3.14,Unknown Pharmacy,50027,50000,1,21,0.4,260000,0.0,False,YES,VIC Growth Corridor - Western,3600000.0,2944000.0,656000.0,657500,0.9977,1.0,3688704.03,2520000.0,3800.0,0.0058,-632323.82,4680000.0,1350000.0,2.0532,8286669.88
-37.8528305,144.7754259,,Foodworks,supermarket,VIC,Item 133,55%,2.16,Direct Chemist Outlet Laverton,50027,50000,11,64,0.2,130000,0.0,False,YES,VIC Growth Corridor - Western,3300000.0,2734000.0,566000.0,657500,0.8608,1.16,3092426.04,2310000.0,-37150.0,-0.0565,-903630.3,4290000.0,1205700.0,1.8338,7330637.5
-37.6938639,144.7545298,,Foodworks,supermarket,VIC,Item 133,55%,0.44,TerryWhite Chemmart Sydenham Medical Centre,822,822,21,45,0.2,2137,0.0,False,YES,VIC Growth Corridor - Western,54252.0,366976.4,-312724.4,657500,-0.4756,999.0,-2729396.41,37976.4,-370944.6,-0.5642,-3115123.36,70527.6,-270004.79,-0.4107,-2446365.7
-37.883565,144.689379,,Foodworks,supermarket,VIC,Item 133,55%,0.99,Wyndham Discount Chemist,50027,50000,25,43,0.2,130000,0.0,False,YES,VIC Growth Corridor - Western,3300000.0,2734000.0,566000.0,657500,0.8608,1.16,3092426.04,2310000.0,-37150.0,-0.0565,-903630.3,4290000.0,1205700.0,1.8338,7330637.5
-37.7343898,144.80572525,,Foodworks,supermarket,VIC,"Item 133, Item 134",55%,1.04,Ren Jih Tang,822,822,26,89,0.2,2137,0.0,False,YES,VIC Growth Corridor - Western,54252.0,366976.4,-312724.4,657500,-0.4756,999.0,-2729396.41,37976.4,-370944.6,-0.5642,-3115123.36,70527.6,-270004.79,-0.4107,-2446365.7
-37.6104128,144.9333515,,Foodworks,supermarket,VIC,Item 133,55%,1.44,Priceline Pharmacy Craigieburn,23219,23219,16,53,0.2,60369,0.0,False,,,1532454.0,1496717.8,35736.2,657500,0.0544,18.4,-420736.56,1072717.8,-169170.03,-0.2573,-1778304.06,1992190.2,355510.37,0.5407,1697866.8
-38.0793147,145.4505209,,Foodworks,supermarket,VIC,Item 133,55%,1.35,Direct Chemist Outlet Pakenham,526,526,11,18,0.2,1367,0.0,False,,,34716.0,353301.2,-318585.2,657500,-0.4845,999.0,-2768226.04,24301.2,-373611.27,-0.5682,-3132790.84,45130.8,-279401.6,-0.4249,-2508622.53
-37.9974888,145.08459,,Parkdale Plaza,shopping_centre,VIC,Item 134,55%,0.75,Warren Road Pharmacy,1000,1000,21,95,0.2,2600,0.0,False,,,66000.0,375200.0,-309200.0,657500,-0.4703,999.0,-2706046.17,46200.0,-369341.0,-0.5617,-3104499.0,85800.0,-264354.0,-0.4021,-2408927.47
-37.819687599999995,145.17632450000002,,Rosarias Cafe,shopping_centre,VIC,Item 134,55%,0.22,Nunawading Amcal Pharmacy,5352,5352,43,136,0.2,13915,0.0,False,,,353232.0,576262.4,-223030.4,657500,-0.3392,999.0,-2135145.77,247262.4,-330133.83,-0.5021,-2844739.31,459201.6,-126195.41,-0.1919,-1493583.83
-37.9463634,145.15364075,,Bonsaiarium,shopping_centre,VIC,Item 134,55%,0.20,Khang Ninh,1000,1000,41,139,0.2,2600,0.0,False,,,66000.0,375200.0,-309200.0,657500,-0.4703,999.0,-2706046.17,46200.0,-369341.0,-0.5617,-3104499.0,85800.0,-264354.0,-0.4021,-2408927.47
-38.1649801,145.1557921,,Grocery Outlet,shopping_centre,VIC,Item 134,55%,0.63,Priceline Frankston,25852,25852,23,40,0.2,67215,0.0,False,,,1706232.0,1618362.4,87869.6,657500,0.1336,7.48,-75336.57,1194362.4,-145449.33,-0.2212,-1621147.06,2218101.6,439097.59,0.6678,2251658.11
-37.8495497,145.1341877,,Burwood Brickworks Shopping Centre,shopping_centre,VIC,Item 134,55%,0.33,Quality Pharmacy 777 Burwood East,15153,15153,56,183,0.2,39397,0.0,False,,,1000098.0,1029068.6,-28970.6,657500,-0.0441,999.0,-849439.24,700068.6,-241836.62,-0.3678,-2259742.84,1300127.4,184947.14,0.2813,567832.31
-38.0664793,145.388533,,IGA Local Grocer Officer,shopping_centre,VIC,Item 134,55%,1.29,TerryWhite Chemmart Officer,1000,1000,12,46,0.2,2600,0.0,False,,,66000.0,375200.0,-309200.0,657500,-0.4703,999.0,-2706046.17,46200.0,-369341.0,-0.5617,-3104499.0,85800.0,-264354.0,-0.4021,-2408927.47
-37.8114049,145.2437941,,Ringwood Private Hospital,hospital,VIC,Item 135,55%,0.59,National Pharmacies,1000,1000,33,96,0.2,2600,0.0,False,,,66000.0,375200.0,-309200.0,657500,-0.4703,999.0,-2706046.17,46200.0,-369341.0,-0.5617,-3104499.0,85800.0,-264354.0,-0.4021,-2408927.47
-37.8104805,145.1947515,,Mitcham Private Hospital,hospital,VIC,Item 135,55%,0.62,Quality Pharmacy Mitcham,21070,21070,33,127,0.2,54782,0.0,False,,,1390620.0,1302434.0,88186.0,657500,0.1341,7.46,-73240.32,973434.0,-188530.37,-0.2867,-1906572.34,1807806.0,287288.22,0.4369,1245873.81
-37.8878433,144.7022103,,St Vincent's Private Hospital Werribee,hospital,VIC,Item 135,40%,0.08,Slade Pharmacy Werribee,50027,50000,30,43,0.2,130000,0.0,False,YES,VIC Growth Corridor - Western,3300000.0,2734000.0,566000.0,657500,0.8608,1.16,3092426.04,2310000.0,-37150.0,-0.0565,-903630.3,4290000.0,1205700.0,1.8338,7330637.5
