latitude,longitude,address,poi_name,poi_type,region,qualifying_rules,confidence,nearest_pharmacy_km,nearest_pharmacy_name,catchment_pop,effective_pop,pharmacy_count_5km,pharmacy_count_10km,market_share,est_annual_scripts,gp_fte,is_remote,growth_indicator,growth_details,est_annual_revenue,est_annual_costs,est_annual_profit,total_investment,roi,payback_years,npv_10yr,worst_revenue,worst_profit,worst_roi,worst_npv,best_revenue,best_profit,best_roi,best_npv
-29.7040741,144.123962,,Wanaaring Community Health service,gp,NSW,"Item 131, Item 134A",90%,179.89,The Towers Drug Co Pharmacy,500,500,0,0,0.8,5200,0.0,True,,,132000.0,431400.0,-299400.0,657500,-0.4554,999.0,-2641118.12,92400.0,-371832.0,-0.5655,-3121002.65,171600.0,-241608.0,-0.3675,-2258228.14
-29.7049195,144.148759,,Wanaaring Health Clinic,gp,NSW,"Item 131, Item 134A",90%,177.55,The Towers Drug Co Pharmacy,500,500,0,0,0.8,5200,0.0,True,,,132000.0,431400.0,-299400.0,657500,-0.4554,999.0,-2641118.12,92400.0,-371832.0,-0.5655,-3121002.65,171600.0,-241608.0,-0.3675,-2258228.14
-32.3943078,142.4172709,,Darling River Supermarket,supermarket,NSW,"Item 131, Item 134A",90%,101.81,C P Peoples Chemist,380,380,0,0,0.8,3952,0.0,True,,,100320.0,409224.0,-308904.0,657500,-0.4698,999.0,-2704085.08,70224.0,-376156.32,-0.5721,-3149652.61,130416.0,-256846.08,-0.3906,-2359185.16
-32.390316,142.4150138,,Menindee Health Service,hospital,NSW,"Item 131, Item 134A",90%,101.42,C P Peoples Chemist,380,380,0,0,0.8,3952,0.0,True,,,100320.0,409224.0,-308904.0,657500,-0.4698,999.0,-2704085.08,70224.0,-376156.32,-0.5721,-3149652.61,130416.0,-256846.08,-0.3906,-2359185.16
-28.7245913,149.5785637,,Boomi Co-Op,supermarket,NSW,Item 131,70%,63.91,Mungindi Pharmacy,500,500,0,0,0.8,5200,0.0,True,,,132000.0,431400.0,-299400.0,657500,-0.4554,999.0,-2641118.12,92400.0,-371832.0,-0.5655,-3121002.65,171600.0,-241608.0,-0.3675,-2258228.14
-34.3548418,150.4937239,,Hilltop Surgery,gp,NSW,Item 131,85%,22.93,Caremore Bargo Pharmacy,7333,7333,0,0,0.8,76263,0.0,True,,,1935912.0,1789138.4,146773.6,657500,0.2232,4.48,314920.75,1355138.4,-125598.01,-0.191,-1489625.89,2516685.6,540573.67,0.8222,2923968.71
-29.4331613,142.0129124,,Tibooburra Health Service,hospital,NSW,"Item 131, Item 134A",90%,270.09,St Abram Wilcannia Pharmacy,100,100,0,0,0.8,1040,0.0,True,,,26400.0,357480.0,-331080.0,657500,-0.5035,999.0,-2851007.97,18480.0,-386246.4,-0.5874,-3216502.53,34320.0,-292401.6,-0.4447,-2594751.54
-29.435721399999995,142.0100184,,TJ's Roadhouse,supermarket,NSW,"Item 131, Item 134, Item 134A",90%,269.98,St Abram Wilcannia Pharmacy,100,100,0,0,0.8,1040,0.0,True,,,26400.0,357480.0,-331080.0,657500,-0.5035,999.0,-2851007.97,18480.0,-386246.4,-0.5874,-3216502.53,34320.0,-292401.6,-0.4447,-2594751.54
-32.0306936,147.9768545,,Trangie Multi Purpose Service,hospital,NSW,Item 131,70%,33.34,Narromine Pharmacy,768,768,0,0,0.8,7987,0.0,True,,,202752.0,480926.4,-278174.4,657500,-0.4231,999.0,-2500491.92,141926.4,-362174.35,-0.5508,-3057017.73,263577.6,-207576.29,-0.3157,-2032757.47
-33.4245577,148.3669433,,Eugowra Multi-Purpose Service,hospital,NSW,Item 131,70%,31.29,Canowindra Pharmacy,801,801,0,0,0.8,8330,0.0,True,,,211464.0,487024.8,-275560.8,657500,-0.4191,999.0,-2483176.0,148024.8,-360985.16,-0.549,-3049138.98,274903.2,-203385.82,-0.3093,-2004994.29
-33.4272308,148.3689384,,Eugowra Supermarket & Newsagency,supermarket,NSW,Item 131,70%,30.98,Canowindra Pharmacy,801,801,0,0,0.8,8330,0.0,True,,,211464.0,487024.8,-275560.8,657500,-0.4191,999.0,-2483176.0,148024.8,-360985.16,-0.549,-3049138.98,274903.2,-203385.82,-0.3093,-2004994.29
-30.9450275,149.0664006,,Baradine Multi-Purpose Service,hospital,NSW,Item 131,70%,41.64,Coonabarabran Pharmacy,586,586,0,0,0.8,6094,0.0,True,,,154704.0,447292.8,-292588.8,657500,-0.445,999.0,-2595991.8,108292.8,-368732.9,-0.5608,-3100470.17,201115.2,-230687.38,-0.3509,-2185875.61
-28.456129,153.4962157,,Crabbes Creek General Store,supermarket,NSW,Item 131,85%,11.45,Ocean Shores Pharmacy,18858,18858,0,2,0.8,196123,0.0,True,,,3600000.0,2954000.0,646000.0,657500,0.9825,1.02,3622450.92,2520000.0,-7700.0,-0.0117,-708514.89,4680000.0,1341000.0,2.0395,8227042.08
-32.894455300000004,144.29532035,,Ivanhoe Hospital,hospital,NSW,"Item 131, Item 134A",90%,132.51,Hillston Pharmacy,162,162,0,0,0.8,1684,0.0,True,,,42768.0,368937.6,-326169.6,657500,-0.4961,999.0,-2818475.04,29937.6,-384012.17,-0.584,-3201700.05,55598.4,-284528.59,-0.4327,-2542590.42
-32.9005339,144.3006282,,Star Point Groceries,supermarket,NSW,"Item 131, Item 134A",90%,131.76,Hillston Pharmacy,162,162,0,0,0.8,1684,0.0,True,,,42768.0,368937.6,-326169.6,657500,-0.4961,999.0,-2818475.04,29937.6,-384012.17,-0.584,-3201700.05,55598.4,-284528.59,-0.4327,-2542590.42
-31.4611716,151.1275861,,Nundle Friendly Grocer Supermarket,supermarket,NSW,Item 131,70%,41.26,TerryWhite Chemmart Calala,414,414,0,0,0.8,4305,0.0,True,,,109296.0,415507.2,-306211.2,657500,-0.4657,999.0,-2686244.44,76507.2,-374931.1,-0.5702,-3141535.12,142084.8,-252528.62,-0.3841,-2330580.68
-31.60572225,152.46791515,,Comboyne LPO,supermarket,NSW,Item 131,70%,27.49,Your Discount Chemist Lakewood,616,616,0,0,0.8,6406,0.0,True,,,162624.0,452836.8,-290212.8,657500,-0.4414,999.0,-2580250.06,113836.8,-367651.82,-0.5592,-3093307.68,211411.2,-226877.86,-0.3451,-2160636.36
-33.7444555,148.8499565,,Woodstock Community Health Center,gp,NSW,Item 131,70%,17.46,Optimal Pharmacy Plus Health Hub Cowra,792,792,0,0,0.8,8236,0.0,True,,,209088.0,485361.6,-276273.6,657500,-0.4202,999.0,-2487898.53,146361.6,-361309.49,-0.5495,-3051287.73,271814.4,-204528.67,-0.3111,-2012566.06
-32.2424623,147.3581185,,Tottenham Multi Purpose Service,hospital,NSW,Item 131,70%,47.92,Fairwater Compounding Pharmacy,263,263,0,0,0.8,2735,0.0,True,,,69432.0,387602.4,-318170.4,657500,-0.4839,999.0,-2765477.86,48602.4,-380372.53,-0.5785,-3177586.33,90261.6,-271703.21,-0.4132,-2457618.26
-29.1102562,147.4560175,,Goodooga Health Service,hospital,NSW,Item 131,70%,61.66,White's Pharmacy - Lightning Ridge,179,179,0,0,0.8,1861,0.0,True,,,47256.0,372079.2,-324823.2,657500,-0.494,999.0,-2809554.73,33079.2,-383399.56,-0.5831,-3197641.3,61432.8,-282369.86,-0.4295,-2528288.17
-35.996638,148.7738012,,Adaminaby Store,supermarket,NSW,Item 131,70%,41.28,Hook's Pharmacy,257,257,0,0,0.8,2672,0.0,True,,,67848.0,386493.6,-318645.6,657500,-0.4846,999.0,-2768626.2,47493.6,-380588.75,-0.5788,-3179018.83,88202.4,-272465.11,-0.4144,-2462666.11
-30.1646202,151.0757175,,Bundarra Community Health,hospital,NSW,Item 131,70%,26.74,Tingha Pharmacy,374,374,0,0,0.8,3889,0.0,True,,,98736.0,408115.2,-309379.2,657500,-0.4705,999.0,-2707233.42,69115.2,-376372.54,-0.5724,-3151085.11,128356.8,-257607.98,-0.3918,-2364233.01
-32.6616647,151.7276714,,Seaham Doctor's Surgery,gp,NSW,Item 131,85%,14.23,Clarence Town Pharmacy,7594,7594,0,1,0.8,78977,0.0,True,,,2004816.0,1837371.2,167444.8,657500,0.2547,3.93,451873.88,1403371.2,-116192.62,-0.1767,-1427312.22,2606260.8,573716.5,0.8726,3143550.22
-33.2161935,151.2104899,,Sciberras fresh (fruits and veggies),supermarket,NSW,Item 131,70%,20.64,Chemist Outlet North Wyong,417,417,0,0,0.8,4336,0.0,True,,,110088.0,416061.6,-305973.6,657500,-0.4654,999.0,-2684670.26,77061.6,-374822.99,-0.5701,-3140818.87,143114.4,-252147.67,-0.3835,-2328056.75
-33.7751647,151.2914012,,South Pacific Private Hospital,hospital,NSW,Item 135,55%,0.76,Freshwater Village Pharmacy,3195773,50000,32,72,0.2,130000,0.0,False,,,3300000.0,2744000.0,556000.0,657500,0.8456,1.18,3026172.93,2310000.0,-48650.0,-0.074,-979821.38,4290000.0,1196700.0,1.8201,7271009.7
-34.2884617,146.5788588,,Barellan Community Health Centre,gp,NSW,Item 131,70%,30.60,Ardlethan Pharmacy,276,276,0,0,0.8,2870,0.0,True,,,72864.0,390004.8,-317140.8,657500,-0.4823,999.0,-2758656.44,51004.8,-379904.06,-0.5778,-3174482.58,94723.2,-270052.42,-0.4107,-2446681.25
-35.5584719,146.1638266,,Oaklands Medical Centre,gp,NSW,Item 131,70%,26.93,Urana Pharmacy,296,296,0,0,0.8,3078,0.0,True,,,78144.0,393700.8,-315556.8,657500,-0.4799,999.0,-2748161.94,54700.8,-379183.34,-0.5767,-3169707.59,101587.2,-267512.74,-0.4069,-2429855.08
-36.50245285,148.83496524999998,,Cool Country Cuisine Gourmet Condiments,supermarket,NSW,"Item 131, Item 134",70%,15.21,Berridale Pharmacy,500,500,0,0,0.8,5200,0.0,True,,,132000.0,431400.0,-299400.0,657500,-0.4554,999.0,-2641118.12,92400.0,-371832.0,-0.5655,-3121002.65,171600.0,-241608.0,-0.3675,-2258228.14
-33.8051362,151.2845238,,Manly Waters Private Hospital,hospital,NSW,Item 135,55%,0.77,Malouf Manly Pharmacy,3779142,50000,25,134,0.2,130000,0.0,False,,,3300000.0,2744000.0,556000.0,657500,0.8456,1.18,3026172.93,2310000.0,-48650.0,-0.074,-979821.38,4290000.0,1196700.0,1.8201,7271009.7
-33.778528,151.107676,,Woolworths,supermarket,NSW,Item 133,75%,1.11,Mu Hospital Pharmacy,3015944,50000,43,164,0.2,130000,0.0,False,,,3300000.0,2744000.0,556000.0,657500,0.8456,1.18,3026172.93,2310000.0,-48650.0,-0.074,-979821.38,4290000.0,1196700.0,1.8201,7271009.7
-32.8063184,149.0766767,,Stuart Town Shop,supermarket,NSW,Item 131,70%,30.85,Keirle's Pharmacy,200,200,0,0,0.8,2080,0.0,True,,,52800.0,375960.0,-323160.0,657500,-0.4915,999.0,-2798535.51,36960.0,-382642.8,-0.582,-3192627.56,68640.0,-279703.2,-0.4254,-2510620.69
-37.0447209,148.9459705,,Delegate Multi-Purpose Service,hospital,NSW,Item 131,70%,29.99,Bombala Pharmacy,201,201,0,0,0.8,2090,0.0,True,,,53064.0,376144.8,-323080.8,657500,-0.4914,999.0,-2798010.78,37144.8,-382606.76,-0.5819,-3192388.81,68983.2,-279576.22,-0.4252,-2509779.38
-33.781539,151.1125923,,The Ranch,shopping_centre,NSW,Item 134,55%,0.81,Priceline Pharmacy Macquarie Upper,3126548,50000,42,173,0.2,130000,0.0,False,,,3300000.0,2744000.0,556000.0,657500,0.8456,1.18,3026172.93,2310000.0,-48650.0,-0.074,-979821.38,4290000.0,1196700.0,1.8201,7271009.7
-33.788129975,151.267138275,,Woolworths,supermarket,NSW,"Item 133, Item 134",75%,0.50,Manly Vale Pharmacy,3683216,50000,35,112,0.2,130000,0.0,False,,,3300000.0,2744000.0,556000.0,657500,0.8456,1.18,3026172.93,2310000.0,-48650.0,-0.074,-979821.38,4290000.0,1196700.0,1.8201,7271009.7
-32.7956471,149.97146563333334,,Foodworks,supermarket,NSW,"Item 133, Item 134",55%,7.11,Kandos-Rylstone Pharmacy,624,624,0,1,0.8,6489,0.0,False,,,164736.0,454315.2,-289579.2,657500,-0.4404,999.0,-2576052.26,115315.2,-367363.54,-0.5587,-3091397.68,214156.8,-225861.98,-0.3435,-2153905.89
-33.4515842,151.3601353,,ALDI,supermarket,NSW,Item 133,70%,1.28,Chemist Outlet Green Point,167369,50000,19,34,0.2,130000,0.0,False,,,3300000.0,2744000.0,556000.0,657500,0.8456,1.18,3026172.93,2310000.0,-48650.0,-0.074,-979821.38,4290000.0,1196700.0,1.8201,7271009.7
-33.4952791,151.3216838,,Brisbane Waters Private Hospital,hospital,NSW,Item 135,55%,0.85,Priceline Pharmacy Woy Woy,198874,50000,10,27,0.2,130000,0.0,False,,,3300000.0,2744000.0,556000.0,657500,0.8456,1.18,3026172.93,2310000.0,-48650.0,-0.074,-979821.38,4290000.0,1196700.0,1.8201,7271009.7
-33.8599515,151.0712702,,Sydney Markets Plaza,shopping_centre,NSW,Item 134,55%,0.76,Flemington Chemist,3219769,50000,45,233,0.2,130000,0.0,False,,,3300000.0,2744000.0,556000.0,657500,0.8456,1.18,3026172.93,2310000.0,-48650.0,-0.074,-979821.38,4290000.0,1196700.0,1.8201,7271009.7
-34.6482522,150.7756603,,Jamberoo IGA,supermarket,NSW,Item 133,65%,7.13,Kiama Health Destination Pharmacy,1529,1529,0,8,0.8,15901,0.0,False,,,403656.0,621559.2,-217903.2,657500,-0.3314,999.0,-2101176.47,282559.2,-334750.96,-0.5091,-2875329.2,524752.8,-110941.46,-0.1687,-1392521.7
-36.1646244,150.1257465,,IGA Dalmeny,supermarket,NSW,Item 133,65%,5.52,Narooma Pharmacy,600,600,0,2,0.8,6240,0.0,False,,,158400.0,449880.0,-291480.0,657500,-0.4433,999.0,-2588645.66,110880.0,-368228.4,-0.56,-3097127.68,205920.0,-228909.6,-0.3482,-2174097.3
-34.3769409,150.9133031,,Foodworks,supermarket,NSW,Item 133,55%,0.98,Complete Care Drive Thru Pharmacy,256228,50000,12,28,0.2,130000,0.0,False,,,3300000.0,2744000.0,556000.0,657500,0.8456,1.18,3026172.93,2310000.0,-48650.0,-0.074,-979821.38,4290000.0,1196700.0,1.8201,7271009.7
-32.916999,151.6745856,,Ritchies Supa IGA,supermarket,NSW,Item 133,65%,1.66,Priceline Pharmacy Wallsend,113540,50000,28,66,0.2,130000,0.0,False,,,3300000.0,2744000.0,556000.0,657500,0.8456,1.18,3026172.93,2310000.0,-48650.0,-0.074,-979821.38,4290000.0,1196700.0,1.8201,7271009.7
-33.9623514,151.0958733,,Hurstville Private Hospital,hospital,NSW,Item 135,55%,0.56,Priceline Pharmacy Hurstville Cent,2852863,50000,76,210,0.2,130000,0.0,False,,,3300000.0,2744000.0,556000.0,657500,0.8456,1.18,3026172.93,2310000.0,-48650.0,-0.074,-979821.38,4290000.0,1196700.0,1.8201,7271009.7
-35.1214404,147.3896486,,APCO IGA,supermarket,NSW,Item 133,65%,1.83,Blooms The Chemist Wagga,49686,49686,8,11,0.2,129183,0.0,False,,,3279276.0,2729493.2,549782.8,657500,0.8362,1.2,2984982.04,2295493.2,-51478.83,-0.0783,-998563.23,4263058.8,1186731.76,1.8049,7204966.98
-33.2815856,149.1215183,,Dudley Private Hospital,hospital,NSW,Item 135,55%,1.98,Blooms The Chemist Orange,40127,40127,9,9,0.2,104330,0.0,False,,,2648382.0,2287867.4,360514.6,657500,0.5483,1.82,1731021.35,1853867.4,-137595.86,-0.2093,-1569115.35,3442896.6,883271.74,1.3434,5194450.01
-30.2788804,153.1032184,,Baringa Private Hospital,hospital,NSW,Item 135,55%,2.02,Good Price Pharmacy Warehouse Coffs Harbour,51269,50000,9,13,0.2,130000,0.0,False,,,3300000.0,2744000.0,556000.0,657500,0.8456,1.18,3026172.93,2310000.0,-48650.0,-0.074,-979821.38,4290000.0,1196700.0,1.8201,7271009.7
-33.7851655,151.2687502,,Coles,supermarket,NSW,Item 133,75%,0.26,Manly Vale Pharmacy,3608385,50000,31,106,0.2,130000,0.0,False,,,3300000.0,2744000.0,556000.0,657500,0.8456,1.18,3026172.93,2310000.0,-48650.0,-0.074,-979821.38,4290000.0,1196700.0,1.8201,7271009.7
-32.9810719,151.6917166,,Lake Macquarie Private Hospital,hospital,NSW,Item 135,55%,1.33,Windale Pharmacy,101725,50000,19,66,0.2,130000,0.0,False,,,3300000.0,2744000.0,556000.0,657500,0.8456,1.18,3026172.93,2310000.0,-48650.0,-0.074,-979821.38,4290000.0,1196700.0,1.8201,7271009.7
-33.879,151.0928,"The Boulevarde at Woodward Av, The Boulevarde, Strathfield, Inner West, Sydney, Strathfield Municipal Council, New South Wales, 2135, Australia",Strathfield Medical Centre,medical_centre,NSW,Item 136,95%,0.51,Discount Chemist,3601724,50000,63,263,0.2,130000,7.2,False,,,3300000.0,2744000.0,556000.0,657500,0.8456,1.18,3026172.93,2310000.0,-48650.0,-0.074,-979821.38,4290000.0,1196700.0,1.8201,7271009.7
-32.2368891,148.6208721,,Dubbo Private Hospital,hospital,NSW,Item 135,55%,2.02,Priceline Pharmacy Dubbo,38883,38883,10,10,0.2,101095,0.0,False,,,2566278.0,2230394.6,335883.4,657500,0.5108,1.96,1567831.99,1796394.6,-148803.05,-0.2263,-1643366.51,3336161.4,843779.72,1.2833,4932803.06
-36.0757559,146.8832616,,Albury Wodonga Private Hospital,hospital,NSW,Item 135,55%,2.57,Gardens Compounding Pharmacy,53677,50000,7,20,0.2,130000,0.0,False,,,3300000.0,2744000.0,556000.0,657500,0.8456,1.18,3026172.93,2310000.0,-48650.0,-0.074,-979821.38,4290000.0,1196700.0,1.8201,7271009.7
-36.0334976,146.9503702,,Springdale Heights IGA Supermarket,supermarket,NSW,Item 133,65%,2.14,TerryWhite Chemmart Lavington,36876,36876,6,13,0.2,95877,0.0,False,,,2433816.0,2137671.2,296144.8,657500,0.4504,2.22,1304551.41,1703671.2,-166884.12,-0.2538,-1763159.17,3163960.8,780065.5,1.1864,4510676.53
-32.2379202,148.6269491,,Lourdes Hospital Dubbo,hospital,NSW,Item 135,55%,1.88,Western Plains Pharmacy,38883,38883,10,10,0.2,101095,0.0,False,,,2566278.0,2230394.6,335883.4,657500,0.5108,1.96,1567831.99,1796394.6,-148803.05,-0.2263,-1643366.51,3336161.4,843779.72,1.2833,4932803.06
-34.4397345,150.8511525,,Figtree Private Hospital,hospital,NSW,Item 135,55%,0.89,Blooms The Chemist Figtree,157079,50000,20,38,0.2,130000,0.0,False,,,3300000.0,2744000.0,556000.0,657500,0.8456,1.18,3026172.93,2310000.0,-48650.0,-0.074,-979821.38,4290000.0,1196700.0,1.8201,7271009.7
-34.3102481,150.91766,,Ramsay Clinic Thirroul,hospital,NSW,Item 135,55%,0.66,Thirroul Central Chemist,100,100,5,12,0.2,260,0.0,False,,,6600.0,343620.0,-337020.0,657500,-0.5126,999.0,-2890362.32,4620.0,-388949.1,-0.5916,-3234408.76,8580.0,-301925.4,-0.4592,-2657849.68
-32.9412,151.6961,,Westfield Kotara,shopping_centre,NSW,Item 132,85%,1.09,Pharmacy 4 Less Kotara,207374,50000,28,72,0.2,130000,0.0,False,,,3300000.0,2744000.0,556000.0,657500,0.8456,1.18,3026172.93,2310000.0,-48650.0,-0.074,-979821.38,4290000.0,1196700.0,1.8201,7271009.7
-33.2939092,151.2373896,,Mangrove Mountain Community Health Centre,gp,NSW,Item 131,85%,20.34,Advantage Pharmacy,192,192,0,0,0.8,1996,0.0,True,,,50688.0,374481.6,-323793.6,657500,-0.4925,999.0,-2802733.31,35481.6,-382931.09,-0.5824,-3194537.56,65894.4,-280719.07,-0.4269,-2517351.16
-33.4985476,150.128266,,Lithgow Private Hospital,hospital,NSW,Item 135,55%,2.60,Priceline Pharmacy,11197,11197,4,4,0.2,29112,0.0,False,,,739002.0,856301.4,-117299.4,657500,-0.1784,999.0,-1434645.01,517301.4,-288976.23,-0.4395,-2572057.38,960702.6,50359.96,0.0766,-323849.59
-33.8719185,151.0975672,,Strathfield Private Hospital,hospital,NSW,Item 135,55%,0.39,Chemist Warehouse Strathfield Plaza,3695006,50000,56,265,0.2,130000,0.0,False,,,3300000.0,2744000.0,556000.0,657500,0.8456,1.18,3026172.93,2310000.0,-48650.0,-0.074,-979821.38,4290000.0,1196700.0,1.8201,7271009.7
-33.9672,151.0986,"Rosebank Crescent, Hurstville, St George, Sydney, Georges River Council, New South Wales, 2220, Australia",Hurstville Medical Centre,medical_centre,NSW,Item 136,95%,0.37,Forest Pharmacy,2812261,50000,73,206,0.2,130000,8.0,False,,,3600000.0,2954000.0,646000.0,657500,0.9825,1.02,3622450.92,2520000.0,-7700.0,-0.0117,-708514.89,4680000.0,1341000.0,2.0395,8227042.08
-33.7663683,151.2673418,,ALDI,supermarket,NSW,Item 133,70%,0.18,Medical Centre Pharmacy Brookvale,3252701,50000,39,97,0.2,130000,0.0,False,,,3300000.0,2744000.0,556000.0,657500,0.8456,1.18,3026172.93,2310000.0,-48650.0,-0.074,-979821.38,4290000.0,1196700.0,1.8201,7271009.7
-32.7428,151.5845,,Stockland Green Hills,shopping_centre,NSW,Item 132,85%,1.11,Your Discount Chemist East Maitland,89597,50000,10,19,0.2,130000,0.0,False,,,3300000.0,2744000.0,556000.0,657500,0.8456,1.18,3026172.93,2310000.0,-48650.0,-0.074,-979821.38,4290000.0,1196700.0,1.8201,7271009.7
-36.2308812,149.1347452,,Aldi,supermarket,NSW,Item 133,70%,1.00,Hook's Pharmacy,6447,6447,1,1,0.4,33524,0.0,False,,,851004.0,934702.8,-83698.8,657500,-0.1273,999.0,-1212030.58,595702.8,-273687.95,-0.4163,-2470767.82,1106305.2,104232.92,0.1585,33075.54
-33.96685205,151.11081815,,Woolworths,supermarket,NSW,"Item 133, Item 134",75%,0.31,TerryWhite Chemmart Hurstville,2961247,50000,71,207,0.2,130000,0.0,False,,,3300000.0,2744000.0,556000.0,657500,0.8456,1.18,3026172.93,2310000.0,-48650.0,-0.074,-979821.38,4290000.0,1196700.0,1.8201,7271009.7
-32.1884137,152.5138781,,Forster Private Hospital,hospital,NSW,Item 135,55%,0.97,Your Discount Chemist Forster,26930,26930,4,5,0.2,70018,0.0,False,,,1777380.0,1678166.0,99214.0,657500,0.1509,6.63,-176.39,1244166.0,-147237.63,-0.2239,-1632995.09,2310594.0,464319.78,0.7062,2418762.95
-33.9244736,151.0793615,,Aldi,supermarket,NSW,Item 133,70%,0.33,Michael Vasili Chemist,3092684,50000,68,230,0.2,130000,0.0,False,,,3300000.0,2744000.0,556000.0,657500,0.8456,1.18,3026172.93,2310000.0,-48650.0,-0.074,-979821.38,4290000.0,1196700.0,1.8201,7271009.7
-28.4724267,152.54769564999998,,Urbenville General Store and Takeaway,supermarket,NSW,Item 131,85%,12.78,Woodenbong Pharmacy - Chemist,232,232,0,0,0.8,2412,0.0,True,,,61248.0,381873.6,-320625.6,657500,-0.4876,999.0,-2781744.32,42873.6,-381489.65,-0.5802,-3184987.57,79622.4,-275639.71,-0.4192,-2483698.82
-28.4714415,152.5429693,,Urbenville Multi-Purpose Service,hospital,NSW,Item 131,85%,13.35,Woodenbong Pharmacy - Chemist,218,218,0,0,0.8,2267,0.0,True,,,57552.0,379286.4,-321734.4,657500,-0.4893,999.0,-2789090.47,40286.4,-381994.15,-0.581,-3188330.06,74817.6,-277417.49,-0.4219,-2495477.14
-35.1211895,147.3544554,,Riverina Day Surgery,hospital,NSW,Item 135,55%,1.00,The Bush Chemist Wagga,49786,49786,9,11,0.2,129443,0.0,False,,,3285876.0,2734113.2,551762.8,657500,0.8392,1.19,2998100.16,2300113.2,-50577.93,-0.0769,-992594.49,4271638.8,1189906.36,1.8097,7225999.69
-33.9669406,151.1360456,,St George Private Hospital,hospital,NSW,Item 135,55%,0.25,St George Prescription Centre,3221665,50000,61,216,0.2,130000,0.0,False,,,3300000.0,2744000.0,556000.0,657500,0.8456,1.18,3026172.93,2310000.0,-48650.0,-0.074,-979821.38,4290000.0,1196700.0,1.8201,7271009.7
-36.0763061,146.9395288,,East Albury IGA,supermarket,NSW,Item 133,65%,1.59,TerryWhite Chemmart Albury City,53677,50000,12,21,0.2,130000,0.0,False,,,3300000.0,2744000.0,556000.0,657500,0.8456,1.18,3026172.93,2310000.0,-48650.0,-0.074,-979821.38,4290000.0,1196700.0,1.8201,7271009.7
-33.7386178,151.2107779,,ALDI,supermarket,NSW,Item 133,70%,0.13,Belrose Chemist,2856843,50000,20,115,0.2,130000,0.0,False,,,3300000.0,2744000.0,556000.0,657500,0.8456,1.18,3026172.93,2310000.0,-48650.0,-0.074,-979821.38,4290000.0,1196700.0,1.8201,7271009.7
-33.7786076,151.2856062,,IGA,supermarket,NSW,Item 133,65%,0.11,Freshwater Village Pharmacy,3315473,50000,31,91,0.2,130000,0.0,False,,,3300000.0,2744000.0,556000.0,657500,0.8456,1.18,3026172.93,2310000.0,-48650.0,-0.074,-979821.38,4290000.0,1196700.0,1.8201,7271009.7
-32.2457967,148.6123089,,Aldi,supermarket,NSW,Item 133,70%,0.98,Priceline Pharmacy Dubbo,38783,38783,10,10,0.2,100835,0.0,False,,,2559678.0,2225774.6,333903.4,657500,0.5078,1.97,1554713.88,1791774.6,-149703.95,-0.2277,-1649335.25,3327581.4,840605.12,1.2785,4911770.35
-33.27580255,149.0882712,,Greengate Shopping Centre,shopping_centre,NSW,Item 134,55%,0.85,Hogans Pharmacy,40127,40127,9,9,0.2,104330,0.0,False,,,2648382.0,2287867.4,360514.6,657500,0.5483,1.82,1731021.35,1853867.4,-137595.86,-0.2093,-1569115.35,3442896.6,883271.74,1.3434,5194450.01
-34.425744699999996,150.8811483,,Wollongong Private Hospital,hospital,NSW,Item 135,55%,0.46,Hospital Hill Pharmacy,157079,50000,23,35,0.2,130000,0.0,False,,,3300000.0,2744000.0,556000.0,657500,0.8456,1.18,3026172.93,2310000.0,-48650.0,-0.074,-979821.38,4290000.0,1196700.0,1.8201,7271009.7
-35.11593675,147.35271784999998,,Calvary Riverina Surgicentre,hospital,NSW,"Item 135, Item 136",55%,0.77,The Bush Chemist Wagga,49786,49786,10,11,0.2,129443,0.0,False,,,3285876.0,2734113.2,551762.8,657500,0.8392,1.19,2998100.16,2300113.2,-50577.93,-0.0769,-992594.49,4271638.8,1189906.36,1.8097,7225999.69
-33.9801339,151.2453836,,Foodworks,supermarket,NSW,Item 133,55%,0.11,Little Bay Pharmacy,3213241,50000,19,75,0.2,130000,0.0,False,,,3300000.0,2744000.0,556000.0,657500,0.8456,1.18,3026172.93,2310000.0,-48650.0,-0.074,-979821.38,4290000.0,1196700.0,1.8201,7271009.7
-33.9643932,151.1004615,,Waratah Private Hospital,hospital,NSW,Item 135,55%,0.21,Friendly Pharmacy Hurstville,2878519,50000,77,211,0.2,130000,0.0,False,,,3300000.0,2744000.0,556000.0,657500,0.8456,1.18,3026172.93,2310000.0,-48650.0,-0.074,-979821.38,4290000.0,1196700.0,1.8201,7271009.7
-33.8588325,151.0927084,,Woolworths,supermarket,NSW,Item 133,75%,0.21,Concord Road Pharmacy,3595725,50000,58,252,0.2,130000,0.0,False,,,3300000.0,2744000.0,556000.0,657500,0.8456,1.18,3026172.93,2310000.0,-48650.0,-0.074,-979821.38,4290000.0,1196700.0,1.8201,7271009.7
-28.8502176,153.5541341,,ALDI,supermarket,NSW,Item 133,70%,1.20,Blooms The Chemist Ballina,21143,21143,6,8,0.2,54971,0.0,False,,,1395438.0,1315806.6,79631.4,657500,0.1211,8.26,-129917.21,976806.6,-199372.71,-0.3032,-1978406.23,1814069.4,280605.68,0.4268,1201599.89
-34.2971217,146.0502618,,Aldi,supermarket,NSW,Item 133,70%,0.78,Drive Thru Pharmacy,20799,20799,5,5,0.2,54077,0.0,False,,,1372734.0,1299913.8,72820.2,657500,0.1108,9.03,-175043.53,960913.8,-202471.81,-0.3079,-1998938.71,1784554.2,269685.05,0.4102,1129247.36
-33.8273181,151.1698556,,Longueville Private Hospital,hospital,NSW,Item 135,55%,0.90,Riverview Pharmacy,4606892,50000,68,279,0.2,130000,0.0,False,,,3300000.0,2744000.0,556000.0,657500,0.8456,1.18,3026172.93,2310000.0,-48650.0,-0.074,-979821.38,4290000.0,1196700.0,1.8201,7271009.7
-33.522163649999996,151.32135375000001,,Aldi,supermarket,NSW,"Item 133, Item 134",70%,0.19,Blooms The Chemist Umina,66183,50000,9,17,0.2,130000,0.0,False,,,3300000.0,2744000.0,556000.0,657500,0.8456,1.18,3026172.93,2310000.0,-48650.0,-0.074,-979821.38,4290000.0,1196700.0,1.8201,7271009.7
-33.4073499,151.3513627,,Aldi,supermarket,NSW,Item 133,70%,0.26,Wyoming Chempro Chemist,157079,50000,17,31,0.2,130000,0.0,False,,,3300000.0,2744000.0,556000.0,657500,0.8456,1.18,3026172.93,2310000.0,-48650.0,-0.074,-979821.38,4290000.0,1196700.0,1.8201,7271009.7
-32.8199257,151.4781814,,Coles,supermarket,NSW,Item 133,75%,0.38,Your Discount Chemist Kurri Kurri,21315,21315,3,4,0.2,55419,0.0,False,,,1406790.0,1323753.0,83037.0,657500,0.1263,7.92,-107354.05,984753.0,-197823.16,-0.3009,-1968139.99,1828827.0,286065.99,0.4351,1237776.16
-30.1119354,153.1895662,,Woolworths,supermarket,NSW,Item 133,75%,0.96,Woolgoolga Coastal Chemist,6297,6297,2,3,0.3,24558,0.0,False,,,623403.0,775382.1,-151979.1,657500,-0.2311,999.0,-1664408.81,436382.1,-304755.49,-0.4635,-2676599.91,810423.9,-5243.16,-0.008,-692237.55
-30.5120786,151.6546168,,Armidale Private Hospital,hospital,NSW,Item 135,55%,0.85,TerryWhite Chemmart Armidale,21312,21312,7,7,0.2,55411,0.0,False,,,1406592.0,1323614.4,82977.6,657500,0.1262,7.92,-107747.59,984614.4,-197850.19,-0.3009,-1968319.06,1828569.6,285970.75,0.4349,1237145.17
-33.1407623,148.1754024,,ALDI,supermarket,NSW,Item 133,70%,0.53,Ron Dunford Chemist,9832,9832,2,2,0.3,38344,0.0,False,,,973368.0,1020357.6,-46989.6,657500,-0.0715,999.0,-968820.71,681357.6,-256985.27,-0.3909,-2360107.33,1265378.4,163090.01,0.248,423022.03
-32.9275707,151.7873647,,Foodworks,supermarket,NSW,Item 133,55%,0.31,City Pharmacy,157179,50000,18,49,0.2,130000,0.0,False,,,3300000.0,2744000.0,556000.0,657500,0.8456,1.18,3026172.93,2310000.0,-48650.0,-0.074,-979821.38,4290000.0,1196700.0,1.8201,7271009.7
-32.941174,151.6533872,,Pendlebury Clinc Private Hospital,hospital,NSW,Item 135,55%,0.54,Cardiff Care Pharmacy,19434,19434,22,69,0.2,50528,0.0,False,,,1282644.0,1236850.8,45793.2,657500,0.0696,14.36,-354105.81,897850.8,-214769.09,-0.3266,-2080412.05,1667437.2,226351.76,0.3443,842150.84
-36.0512888,146.9212283,,IGA Norris Park,supermarket,NSW,Item 133,65%,0.87,TerryWhite Chemmart Northend,53677,50000,12,20,0.2,130000,0.0,False,,,3300000.0,2744000.0,556000.0,657500,0.8456,1.18,3026172.93,2310000.0,-48650.0,-0.074,-979821.38,4290000.0,1196700.0,1.8201,7271009.7
-33.8347198,151.2478969,,Mosman Private Hospital,hospital,NSW,Item 135,55%,0.59,Shane Henry Amcal Pharmacy,4725311,50000,52,245,0.2,130000,0.0,False,,,3300000.0,2744000.0,556000.0,657500,0.8456,1.18,3026172.93,2310000.0,-48650.0,-0.074,-979821.38,4290000.0,1196700.0,1.8201,7271009.7
-33.9061256,151.2044827,,Woolworths Metro,supermarket,NSW,Item 133,75%,0.79,TerryWhite Chemmart,209527,50000,149,293,0.2,130000,0.0,False,,,3300000.0,2744000.0,556000.0,657500,0.8456,1.18,3026172.93,2310000.0,-48650.0,-0.074,-979821.38,4290000.0,1196700.0,1.8201,7271009.7
-33.7901048,151.1786082,,Hirondelle Private Hospital,hospital,NSW,Item 135,55%,0.58,North Shore Pharmacy Roseville,3947134,50000,47,209,0.2,130000,0.0,False,,,3300000.0,2744000.0,556000.0,657500,0.8456,1.18,3026172.93,2310000.0,-48650.0,-0.074,-979821.38,4290000.0,1196700.0,1.8201,7271009.7
-33.8973422,151.2535878,,War Memorial Hospital - Waverley,hospital,NSW,Item 135,55%,0.59,Charing Cross Pharmacy,4673960,50000,87,224,0.2,130000,0.0,False,,,3300000.0,2744000.0,556000.0,657500,0.8456,1.18,3026172.93,2310000.0,-48650.0,-0.074,-979821.38,4290000.0,1196700.0,1.8201,7271009.7
-34.4283128,150.8983832,,Aldi,supermarket,NSW,Item 133,70%,0.28,Downtown Pharmacy,157079,50000,20,35,0.2,130000,0.0,False,,,3300000.0,2744000.0,556000.0,657500,0.8456,1.18,3026172.93,2310000.0,-48650.0,-0.074,-979821.38,4290000.0,1196700.0,1.8201,7271009.7
-32.7610429,151.5881213,,ALDI,supermarket,NSW,Item 133,70%,0.44,Priceline Green Hills,89597,50000,8,19,0.2,130000,0.0,False,,,3300000.0,2744000.0,556000.0,657500,0.8456,1.18,3026172.93,2310000.0,-48650.0,-0.074,-979821.38,4290000.0,1196700.0,1.8201,7271009.7
-32.9405024,151.7556176,,Lingard Private Hospital,hospital,NSW,Item 135,55%,0.35,TerryWhite Chemmart Junction Fair,157079,50000,33,59,0.2,130000,0.0,False,,,3300000.0,2744000.0,556000.0,657500,0.8456,1.18,3026172.93,2310000.0,-48650.0,-0.074,-979821.38,4290000.0,1196700.0,1.8201,7271009.7
-36.0691968,146.9166105,,Mercy Health Albury,hospital,NSW,Item 135,55%,0.80,TerryWhite Chemmart Albury City,53677,50000,12,21,0.2,130000,0.0,False,,,3300000.0,2744000.0,556000.0,657500,0.8456,1.18,3026172.93,2310000.0,-48650.0,-0.074,-979821.38,4290000.0,1196700.0,1.8201,7271009.7
-36.0444721,146.9962924,,Coles,supermarket,NSW,Item 133,75%,0.49,Thurgoona Family Pharmacy,2683,2683,1,13,0.4,13951,0.0,False,,,354156.0,586909.2,-232753.2,657500,-0.354,999.0,-2199562.34,247909.2,-341507.71,-0.5194,-2920094.77,460402.8,-134750.96,-0.2049,-1550267.05
-33.8846881,151.26863,,Woolworths Metro,supermarket,NSW,Item 133,75%,0.46,Glenayr Pharmacy,4557128,50000,57,212,0.2,130000,0.0,False,,,3300000.0,2744000.0,556000.0,657500,0.8456,1.18,3026172.93,2310000.0,-48650.0,-0.074,-979821.38,4290000.0,1196700.0,1.8201,7271009.7
-33.9036146,151.205652,,Ferrari Maserati Sydney,shopping_centre,NSW,Item 134,55%,0.68,TerryWhite Chemmart,214379,50000,148,296,0.2,130000,0.0,False,,,3300000.0,2744000.0,556000.0,657500,0.8456,1.18,3026172.93,2310000.0,-48650.0,-0.074,-979821.38,4290000.0,1196700.0,1.8201,7271009.7
-33.8237568,151.1240415,,Aldi,supermarket,NSW,Item 133,70%,0.64,Blooms The Chemist Gladesville,3892546,50000,51,262,0.2,130000,0.0,False,,,3300000.0,2744000.0,556000.0,657500,0.8456,1.18,3026172.93,2310000.0,-48650.0,-0.074,-979821.38,4290000.0,1196700.0,1.8201,7271009.7
-33.8650387,151.1070613,,Concord Private Hospital,hospital,NSW,Item 135,55%,0.67,Chemist Warehouse,3860887,50000,59,304,0.2,130000,0.0,False,,,3300000.0,2744000.0,556000.0,657500,0.8456,1.18,3026172.93,2310000.0,-48650.0,-0.074,-979821.38,4290000.0,1196700.0,1.8201,7271009.7
-34.2863072,146.0377868,,Rossies Foodworks,supermarket,NSW,Item 133,55%,0.47,Pat Zirilli Amcal Chemist,20799,20799,5,5,0.2,54077,0.0,False,,,1372734.0,1299913.8,72820.2,657500,0.1108,9.03,-175043.53,960913.8,-202471.81,-0.3079,-1998938.71,1784554.2,269685.05,0.4102,1129247.36
-34.8938249,150.6065124,,Nowra Private Hospital,hospital,NSW,Item 135,55%,0.62,Atli's Country Pharmacy,40521,40521,11,13,0.2,105354,0.0,False,,,2674386.0,2306070.2,368315.8,657500,0.5602,1.79,1782706.73,1872070.2,-134046.31,-0.2039,-1545598.5,3476701.8,895779.67,1.3624,5277318.89
-35.1101,147.3688,,Wagga Wagga Medical Centre,medical_centre,NSW,Item 136,70%,0.41,Cincotta Discount Chemist Wagga Wagga,49786,49786,10,11,0.2,129443,7.2,False,,,3285876.0,2734113.2,551762.8,657500,0.8392,1.19,2998100.16,2300113.2,-50577.93,-0.0769,-992594.49,4271638.8,1189906.36,1.8097,7225999.69
-32.93065005,151.765414,,Aldi,supermarket,NSW,"Item 133, Item 134",70%,0.27,Doc’s Mega Save Chemist,157179,50000,28,55,0.2,130000,0.0,False,,,3300000.0,2744000.0,556000.0,657500,0.8456,1.18,3026172.93,2310000.0,-48650.0,-0.074,-979821.38,4290000.0,1196700.0,1.8201,7271009.7
-32.96105,151.69175,"Griffiths Street, Charlestown, Newcastle-Maitland, City of Lake Macquarie, New South Wales, 2290, Australia",Lake Macquarie Medical Centre,medical_centre,NSW,"Item 132, Item 136",95%,0.31,Charlestown Pharmacy,154007,50000,24,72,0.2,130000,8.0,False,,,3600000.0,2954000.0,646000.0,657500,0.9825,1.02,3622450.92,2520000.0,-7700.0,-0.0117,-708514.89,4680000.0,1341000.0,2.0395,8227042.08
-33.4364166,151.3913424,,Coles,supermarket,NSW,Item 133,75%,0.19,Erina Fair Pharmacy,157079,50000,16,35,0.2,130000,0.0,False,,,3300000.0,2744000.0,556000.0,657500,0.8456,1.18,3026172.93,2310000.0,-48650.0,-0.074,-979821.38,4290000.0,1196700.0,1.8201,7271009.7
-32.8828488,151.6952866,,Hunter Valley Private Hospital,hospital,NSW,Item 135,55%,0.28,My Community Pharmacy Shortland,141473,50000,21,62,0.2,130000,0.0,False,,,3300000.0,2744000.0,556000.0,657500,0.8456,1.18,3026172.93,2310000.0,-48650.0,-0.074,-979821.38,4290000.0,1196700.0,1.8201,7271009.7
-31.9384495,141.4741772,,IGA Fresh,supermarket,NSW,Item 133,65%,0.51,Netting Chemist,17456,17456,5,5,0.2,45385,0.0,False,,,1152096.0,1145467.2,6628.8,657500,0.0101,99.19,-613582.14,806467.2,-232588.9,-0.3537,-2198473.78,1497724.8,249058.18,0.3788,992587.88
-34.4259711,150.8901371,,South Coast Private Hospital,hospital,NSW,Item 135,55%,0.22,Cincotta Discount Chemist Wollongong,157079,50000,21,35,0.2,130000,0.0,False,,,3300000.0,2744000.0,556000.0,657500,0.8456,1.18,3026172.93,2310000.0,-48650.0,-0.074,-979821.38,4290000.0,1196700.0,1.8201,7271009.7
-33.8018462,151.2170447,,Castlecrag Private Hospital,hospital,NSW,Item 135,55%,0.44,Castlecrag Pharmacy,4300059,50000,61,223,0.2,130000,0.0,False,,,3300000.0,2744000.0,556000.0,657500,0.8456,1.18,3026172.93,2310000.0,-48650.0,-0.074,-979821.38,4290000.0,1196700.0,1.8201,7271009.7
-30.8945619,153.0404861,,South West Rocks IGA,supermarket,NSW,Item 133,65%,0.99,South West Rocks TerryWhite Chemmart,6443,6443,3,4,0.2,16751,0.0,False,,,425238.0,636666.6,-211428.6,657500,-0.3216,999.0,-2058280.23,297666.6,-331805.01,-0.5046,-2855811.41,552809.4,-100560.52,-0.1529,-1323744.73
-34.3155352,150.9213275,,Coles,supermarket,NSW,Item 133,75%,0.15,Thirroul Central Chemist,100,100,5,12,0.2,260,0.0,False,,,6600.0,343620.0,-337020.0,657500,-0.5126,999.0,-2890362.32,4620.0,-388949.1,-0.5916,-3234408.76,8580.0,-301925.4,-0.4592,-2657849.68
-32.9281344,151.7607959,,Coles,supermarket,NSW,Item 133,75%,0.25,Docs Megasave Chemist Newcastle,157179,50000,32,56,0.2,130000,0.0,False,,,3300000.0,2744000.0,556000.0,657500,0.8456,1.18,3026172.93,2310000.0,-48650.0,-0.074,-979821.38,4290000.0,1196700.0,1.8201,7271009.7
-33.8275378,151.1840484,,Greenwich Hospital,hospital,NSW,Item 135,55%,0.50,Greenwich Pharmacy,4741886,50000,79,289,0.2,130000,0.0,False,,,3300000.0,2744000.0,556000.0,657500,0.8456,1.18,3026172.93,2310000.0,-48650.0,-0.074,-979821.38,4290000.0,1196700.0,1.8201,7271009.7
-31.0850374,150.9261867,,Aldi,supermarket,NSW,Item 133,70%,0.60,Cahill's Great Northern Chemist,35515,35515,13,13,0.2,92339,0.0,False,,,2343990.0,2074793.0,269197.0,657500,0.4094,2.44,1126013.85,1640793.0,-179145.36,-0.2725,-1844393.76,3047187.0,736859.19,1.1207,4224421.31
-33.7404646,150.7182475,,Coles,supermarket,NSW,Item 133,75%,0.55,Kingswood Park Pharmacy,157079,50000,30,70,0.2,130000,0.0,False,,,3300000.0,2744000.0,556000.0,657500,0.8456,1.18,3026172.93,2310000.0,-48650.0,-0.074,-979821.38,4290000.0,1196700.0,1.8201,7271009.7
-33.2833326,149.104122,,Ashcroft Supa IGA,supermarket,NSW,Item 133,65%,0.36,Blooms The Chemist Orange,40127,40127,9,9,0.2,104330,0.0,False,,,2648382.0,2287867.4,360514.6,657500,0.5483,1.82,1731021.35,1853867.4,-137595.86,-0.2093,-1569115.35,3442896.6,883271.74,1.3434,5194450.01
-33.9090162,151.1635363,,Harris Farm Markets,supermarket,NSW,Item 133,70%,0.56,Pharmacy 4 Less Marrickville Road,4506016,50000,90,332,0.2,130000,0.0,False,,,3300000.0,2744000.0,556000.0,657500,0.8456,1.18,3026172.93,2310000.0,-48650.0,-0.074,-979821.38,4290000.0,1196700.0,1.8201,7271009.7
-32.9187688,151.7461999,,ALDI,supermarket,NSW,Item 133,70%,0.25,Chemist Warehouse Hamilton,157179,50000,39,60,0.2,130000,0.0,False,,,3300000.0,2744000.0,556000.0,657500,0.8456,1.18,3026172.93,2310000.0,-48650.0,-0.074,-979821.38,4290000.0,1196700.0,1.8201,7271009.7
-36.2333976,149.1240621,,Woolworths,supermarket,NSW,Item 133,75%,0.29,Hook's Pharmacy,6447,6447,1,1,0.4,33524,0.0,False,,,851004.0,934702.8,-83698.8,657500,-0.1273,999.0,-1212030.58,595702.8,-273687.95,-0.4163,-2470767.82,1106305.2,104232.92,0.1585,33075.54
-30.2993295,153.1190865,,Coles,supermarket,NSW,Item 133,75%,0.37,Coffsmed Chemist,51069,50000,9,13,0.2,130000,0.0,False,,,3300000.0,2744000.0,556000.0,657500,0.8456,1.18,3026172.93,2310000.0,-48650.0,-0.074,-979821.38,4290000.0,1196700.0,1.8201,7271009.7
-32.8191784,151.4827396,,ALDI,supermarket,NSW,Item 133,70%,0.22,Complete Care Pharmacy Kurri Kurri,20815,20815,3,4,0.2,54119,0.0,False,,,1373790.0,1300653.0,73137.0,657500,0.1112,8.99,-172944.63,961653.0,-202327.66,-0.3077,-1997983.71,1785927.0,270192.99,0.4109,1132612.59
-30.5174397,151.66945,,ALDI,supermarket,NSW,Item 133,70%,0.51,Cincotta Discount Chemist Armidale,21312,21312,7,7,0.2,55411,0.0,False,,,1406592.0,1323614.4,82977.6,657500,0.1262,7.92,-107747.59,984614.4,-197850.19,-0.3009,-1968319.06,1828569.6,285970.75,0.4349,1237145.17
-33.8173666,151.190549,,Ramsay Clinic Northside,hospital,NSW,Item 135,55%,0.43,Unknown Pharmacy,4578367,50000,59,275,0.2,130000,0.0,False,,,3300000.0,2744000.0,556000.0,657500,0.8456,1.18,3026172.93,2310000.0,-48650.0,-0.074,-979821.38,4290000.0,1196700.0,1.8201,7271009.7
-33.7375527,150.8161793,,Foodworks,supermarket,NSW,Item 133,55%,0.93,Emerton Community Pharmacy,384,384,26,79,0.2,998,0.0,False,,,25344.0,356740.8,-331396.8,657500,-0.504,999.0,-2853106.87,17740.8,-386390.54,-0.5877,-3217457.53,32947.2,-292909.54,-0.4455,-2598116.78
-31.5108053,150.6786676,,Carlo's IGA + Liquor,supermarket,NSW,Item 133,65%,0.63,Quirindi Pharmacy,2702,2702,1,1,0.4,14050,0.0,False,,,356664.0,588664.8,-232000.8,657500,-0.3529,999.0,-2194577.46,249664.8,-341165.36,-0.5189,-2917826.65,463663.2,-133544.62,-0.2031,-1542274.62
-33.7487431,150.8240935,,Foodworks,supermarket,NSW,Item 133,55%,1.12,TerryWhite Chemmart Plumpton,384,384,29,80,0.2,998,0.0,False,,,25344.0,356740.8,-331396.8,657500,-0.504,999.0,-2853106.87,17740.8,-386390.54,-0.5877,-3217457.53,32947.2,-292909.54,-0.4455,-2598116.78
-34.310544,148.3003124,,ALDI,supermarket,NSW,Item 133,70%,0.40,The Bush Chemist Young,7812,7812,2,2,0.3,30466,0.0,False,,,773388.0,880371.6,-106983.6,657500,-0.1627,999.0,-1366299.62,541371.6,-284282.54,-0.4324,-2540960.23,1005404.4,66899.63,0.1017,-214269.16
-33.419533599999994,149.57959584999998,"Russell Street, Bathurst, Bathurst Regional Council, New South Wales, 2795, Australia",Bathurst Medical Centre,medical_centre,NSW,"Item 133, Item 136",95%,0.31,Moodie's Pharmacy,36330,36330,8,8,0.2,94458,6.4,False,,,2397780.0,2112446.0,285334.0,657500,0.434,2.3,1232926.49,1678446.0,-171803.03,-0.2613,-1795748.51,3117114.0,762732.18,1.16,4395837.92
-33.9106233,151.2461253,,Eastern Suburbs Private Hospital,hospital,NSW,Item 135,55%,0.35,Frenchmans Road Pharmacy,4559625,50000,90,221,0.2,130000,0.0,False,,,3300000.0,2744000.0,556000.0,657500,0.8456,1.18,3026172.93,2310000.0,-48650.0,-0.074,-979821.38,4290000.0,1196700.0,1.8201,7271009.7
-33.3079881,151.4099597,,Coles,supermarket,NSW,Item 133,75%,0.31,TerryWhite Chemmart Westfield Tuggerah,325255,50000,8,27,0.2,130000,0.0,False,,,3300000.0,2744000.0,556000.0,657500,0.8456,1.18,3026172.93,2310000.0,-48650.0,-0.074,-979821.38,4290000.0,1196700.0,1.8201,7271009.7
-33.8700269,151.1002886,,St John of God Burwood Hospital,hospital,NSW,Item 135,55%,0.43,Chemist Warehouse,3743747,50000,59,280,0.2,130000,0.0,False,,,3300000.0,2744000.0,556000.0,657500,0.8456,1.18,3026172.93,2310000.0,-48650.0,-0.074,-979821.38,4290000.0,1196700.0,1.8201,7271009.7
-33.3853616,151.3677247,,Coles,supermarket,NSW,Item 133,75%,0.12,Chemist Outlet Lisarow,324057,50000,4,37,0.2,130000,0.0,False,,,3300000.0,2744000.0,556000.0,657500,0.8456,1.18,3026172.93,2310000.0,-48650.0,-0.074,-979821.38,4290000.0,1196700.0,1.8201,7271009.7
-33.285873249999995,149.1017283,,Aldi,supermarket,NSW,"Item 133, Item 134",70%,0.28,Priceline Pharmacy Orange City Centre,40127,40127,9,9,0.2,104330,0.0,False,,,2648382.0,2287867.4,360514.6,657500,0.5483,1.82,1731021.35,1853867.4,-137595.86,-0.2093,-1569115.35,3442896.6,883271.74,1.3434,5194450.01
-31.4329449,152.9120794,,Foodworks,supermarket,NSW,Item 133,55%,0.40,Your Discount Chemist Port Macquarie,47893,47893,15,16,0.2,124521,0.0,False,,,3160938.0,2646656.6,514281.4,657500,0.7822,1.28,2749774.23,2212656.6,-67631.96,-0.1029,-1105582.79,4109219.4,1129811.18,1.7183,6827850.45
-32.5694167,151.1647335,,ALDI,supermarket,NSW,Item 133,70%,0.35,Priceline Pharmacy Singleton,14729,14729,4,4,0.2,38295,0.0,False,,,972114.0,1019479.8,-47365.8,657500,-0.072,999.0,-971313.16,680479.8,-257156.44,-0.3911,-2361241.39,1263748.2,162486.83,0.2471,419025.81
-29.6865087,152.9365585,,ALDI,supermarket,NSW,Item 133,70%,0.48,Good Price Pharmacy Warehouse Grafton,17455,17455,7,7,0.2,45383,0.0,False,,,1152030.0,1145421.0,6609.0,657500,0.0101,99.49,-613713.32,806421.0,-232597.9,-0.3538,-2198533.46,1497639.0,249026.43,0.3787,992377.55
-36.0469775,146.9394232,,ALDI,supermarket,NSW,Item 133,70%,0.39,Mates Discount Pharmacy,53677,50000,13,17,0.2,130000,0.0,False,,,3300000.0,2744000.0,556000.0,657500,0.8456,1.18,3026172.93,2310000.0,-48650.0,-0.074,-979821.38,4290000.0,1196700.0,1.8201,7271009.7
-34.2854595,146.0433096,,Woolworths,supermarket,NSW,Item 133,75%,0.27,Pat Zirilli Amcal Chemist,20799,20799,5,5,0.2,54077,0.0,False,,,1372734.0,1299913.8,72820.2,657500,0.1108,9.03,-175043.53,960913.8,-202471.81,-0.3079,-1998938.71,1784554.2,269685.05,0.4102,1129247.36
-33.8992786,151.1557375,,Royal Rehab Private Petersham,hospital,NSW,Item 135,55%,0.39,Petersham Pharmacy,4538177,50000,95,342,0.2,130000,0.0,False,,,3300000.0,2744000.0,556000.0,657500,0.8456,1.18,3026172.93,2310000.0,-48650.0,-0.074,-979821.38,4290000.0,1196700.0,1.8201,7271009.7
-32.9272486,151.7791758,,Woolworths Metro,supermarket,NSW,Item 133,75%,0.14,Bagga's Pharmacy Newcastle,157179,50000,21,49,0.2,130000,0.0,False,,,3300000.0,2744000.0,556000.0,657500,0.8456,1.18,3026172.93,2310000.0,-48650.0,-0.074,-979821.38,4290000.0,1196700.0,1.8201,7271009.7
-30.9537536,148.3833719,,Coonamble IGA,supermarket,NSW,Item 133,65%,0.54,Leonards Pharmacy,2353,2353,1,1,0.4,12235,0.0,False,,,310596.0,556417.2,-245821.2,657500,-0.3739,999.0,-2286141.91,217417.2,-347453.65,-0.5284,-2959488.47,403774.8,-155703.32,-0.2368,-1689082.95
-28.8136267,153.2793125,,Aldi,supermarket,NSW,Item 133,70%,0.42,Lismore Central Chempro Chemist,28616,28616,10,12,0.2,74401,0.0,False,,,1888656.0,1756059.2,132596.8,657500,0.2017,4.96,220995.04,1322059.2,-132048.46,-0.2008,-1532362.09,2455252.8,517843.54,0.7876,2773374.49
-33.6375323,150.2853518,,IGA,supermarket,NSW,Item 133,65%,0.23,Dash's Blackheath Pharmacy,5135,5135,1,4,0.4,26702,0.0,False,,,677820.0,813474.0,-135654.0,657500,-0.2063,999.0,-1556249.94,474474.0,-297327.57,-0.4522,-2627387.63,881166.0,20931.42,0.0318,-518822.83
-32.901587299999996,151.7426501,,Coles,supermarket,NSW,"Item 133, Item 134",75%,0.16,Chemist Warehouse,157179,50000,37,57,0.2,130000,0.0,False,,,3300000.0,2744000.0,556000.0,657500,0.8456,1.18,3026172.93,2310000.0,-48650.0,-0.074,-979821.38,4290000.0,1196700.0,1.8201,7271009.7
-32.9250877,151.6262375,,ALDI Edgeworth,supermarket,NSW,Item 133,70%,0.35,TerryWhite Chemmart Edgeworth Oasis,3916,3916,13,49,0.2,10181,0.0,False,,,258456.0,519919.2,-261463.2,657500,-0.3977,999.0,-2389775.02,180919.2,-354570.76,-0.5393,-3006641.54,335992.8,-180782.66,-0.275,-1855241.38
-34.8771,150.5987,"Burr Avenue, Nowra, Shoalhaven City Council, New South Wales, 2541, Australia",Nowra Medical Centre,medical_centre,NSW,Item 136,95%,0.34,Chemist Warehouse Nowra,40521,40521,13,13,0.2,105354,6.4,False,,,2674386.0,2306070.2,368315.8,657500,0.5602,1.79,1782706.73,1872070.2,-134046.31,-0.2039,-1545598.5,3476701.8,895779.67,1.3624,5277318.89
-34.4933685,150.7941786,,ALDI,supermarket,NSW,Item 133,70%,0.15,Priceline Pharmacy Dapto,3327,3327,5,32,0.2,8650,0.0,False,,,219582.0,492707.4,-273125.4,657500,-0.4154,999.0,-2467040.72,153707.4,-359877.06,-0.5473,-3041797.43,285456.6,-199481.06,-0.3034,-1979124.05
-33.743567,150.6083812,,IGA,supermarket,NSW,Item 133,65%,0.15,Blaxland Day And Night Pharmacy,90953,50000,6,37,0.2,130000,0.0,False,,,3300000.0,2744000.0,556000.0,657500,0.8456,1.18,3026172.93,2310000.0,-48650.0,-0.074,-979821.38,4290000.0,1196700.0,1.8201,7271009.7
-34.8445552,148.9128601,,ALDI,supermarket,NSW,Item 133,70%,0.35,Priceline Pharmacy Yass,5837,5837,2,2,0.3,22764,0.0,False,,,577863.0,743504.1,-165641.1,657500,-0.2519,999.0,-1754923.81,404504.1,-310971.7,-0.473,-2717784.23,751221.9,-27147.9,-0.0413,-837363.26
-28.2031322,153.5407557,,Aldi,supermarket,NSW,Item 133,70%,0.36,Blooms The Chemist Tweed City Central,64321,50000,17,30,0.2,130000,0.0,False,,,3300000.0,2744000.0,556000.0,657500,0.8456,1.18,3026172.93,2310000.0,-48650.0,-0.074,-979821.38,4290000.0,1196700.0,1.8201,7271009.7
-31.0776214,150.9216598,,Tamara Private Hospital,hospital,NSW,Item 135,55%,0.32,The Centre Pharmacy Tamworth,35515,35515,11,13,0.2,92339,0.0,False,,,2343990.0,2074793.0,269197.0,657500,0.4094,2.44,1126013.85,1640793.0,-179145.36,-0.2725,-1844393.76,3047187.0,736859.19,1.1207,4224421.31
-33.8738128,151.2162076,,Woolworths Metro,supermarket,NSW,Item 133,75%,0.28,Woolloomooloo Pharmacy,258638,50000,131,286,0.2,130000,0.0,False,,,3300000.0,2744000.0,556000.0,657500,0.8456,1.18,3026172.93,2310000.0,-48650.0,-0.074,-979821.38,4290000.0,1196700.0,1.8201,7271009.7
-34.4862559,150.8885311,,Coles,supermarket,NSW,Item 133,75%,0.11,Warrawong Health Pharmacy,200706,50000,8,41,0.2,130000,0.0,False,,,3300000.0,2744000.0,556000.0,657500,0.8456,1.18,3026172.93,2310000.0,-48650.0,-0.074,-979821.38,4290000.0,1196700.0,1.8201,7271009.7
-28.8657084,153.0458196,,Aldi,supermarket,NSW,Item 133,70%,0.34,McDonalds Pharmacy,10268,10268,4,4,0.2,26696,0.0,False,,,677688.0,813381.6,-135693.6,657500,-0.2064,999.0,-1556512.3,474381.6,-297345.59,-0.4522,-2627507.0,880994.4,20867.93,0.0317,-519243.49
-33.1328551,148.1735968,,Cunningham's IGA,supermarket,NSW,Item 133,65%,0.18,Parkes Pharmacy,9832,9832,2,2,0.3,38344,0.0,False,,,973368.0,1020357.6,-46989.6,657500,-0.0715,999.0,-968820.71,681357.6,-256985.27,-0.3909,-2360107.33,1265378.4,163090.01,0.248,423022.03
-30.283062700000002,153.12928134999999,,ALDI,supermarket,NSW,"Item 133, Item 134",70%,0.20,TerryWhite Chemmart Coffs Express,51169,50000,8,14,0.2,130000,0.0,False,,,3300000.0,2744000.0,556000.0,657500,0.8456,1.18,3026172.93,2310000.0,-48650.0,-0.074,-979821.38,4290000.0,1196700.0,1.8201,7271009.7
-33.9248939,151.2258675,,OTR Kingsford,shopping_centre,NSW,Item 134,55%,0.23,Blooms The Chemist,4442634,50000,77,235,0.2,130000,0.0,False,,,3300000.0,2744000.0,556000.0,657500,0.8456,1.18,3026172.93,2310000.0,-48650.0,-0.074,-979821.38,4290000.0,1196700.0,1.8201,7271009.7
-29.7738358,151.1102458,,Coles,supermarket,NSW,Item 133,75%,0.25,Campbell & Freebairn Chemists,9654,9654,3,3,0.2,25100,0.0,False,,,637164.0,785014.8,-147850.8,657500,-0.2249,999.0,-1637057.53,446014.8,-302877.11,-0.4606,-2664155.08,828313.2,1375.88,0.0021,-648384.34
-33.9124173,151.1608395,,Gasoline Pony,shopping_centre,NSW,Item 134,55%,0.29,Pharmacy 4 Less Marrickville Road,4420312,50000,86,330,0.2,130000,0.0,False,,,3300000.0,2744000.0,556000.0,657500,0.8456,1.18,3026172.93,2310000.0,-48650.0,-0.074,-979821.38,4290000.0,1196700.0,1.8201,7271009.7
-30.3238921,149.7827512,,Coles,supermarket,NSW,Item 133,75%,0.17,Narrabri Pharmacy,5699,5699,1,1,0.4,29634,0.0,False,,,752268.0,865587.6,-113319.6,657500,-0.1723,999.0,-1408277.59,526587.6,-287165.42,-0.4368,-2560060.21,977948.4,56740.91,0.0863,-281573.84
-33.7892207,150.6684726,,Glenmore Park Shopping Centre,shopping_centre,NSW,Item 134,55%,0.21,MediAdvice Pharmacy Glenmore Park,158179,50000,22,45,0.2,130000,0.0,False,,,3300000.0,2744000.0,556000.0,657500,0.8456,1.18,3026172.93,2310000.0,-48650.0,-0.074,-979821.38,4290000.0,1196700.0,1.8201,7271009.7
-33.8920826,151.1165471,,Wesley Hospital Ashfield,hospital,NSW,Item 135,55%,0.29,A1 Discount Chemist,3964385,50000,74,321,0.2,130000,0.0,False,,,3300000.0,2744000.0,556000.0,657500,0.8456,1.18,3026172.93,2310000.0,-48650.0,-0.074,-979821.38,4290000.0,1196700.0,1.8201,7271009.7
-28.2002215,153.5466587,,Coles,supermarket,NSW,Item 133,75%,0.31,Blooms The Chemist Tweed City Central,64321,50000,16,30,0.2,130000,0.0,False,,,3300000.0,2744000.0,556000.0,657500,0.8456,1.18,3026172.93,2310000.0,-48650.0,-0.074,-979821.38,4290000.0,1196700.0,1.8201,7271009.7
-33.7809531,150.8281912,,Minchinbury Community Private Hospital,hospital,NSW,Item 135,55%,0.82,Minchinbury Pharmacy,47176,47176,22,72,0.2,122657,0.0,False,,,3113616.0,2613531.2,500084.8,657500,0.7606,1.31,2655717.34,2179531.2,-74091.42,-0.1127,-1148378.67,4047700.8,1107049.3,1.6837,6677045.9
-32.7338043,151.5563388,,Aldi,supermarket,NSW,Item 133,70%,0.14,TerryWhite Chemmart Maitland,89597,50000,13,16,0.2,130000,0.0,False,,,3300000.0,2744000.0,556000.0,657500,0.8456,1.18,3026172.93,2310000.0,-48650.0,-0.074,-979821.38,4290000.0,1196700.0,1.8201,7271009.7
-35.1156151,147.372863,,Aldi,supermarket,NSW,Item 133,70%,0.17,Blooms The Chemist Wagga,49686,49686,10,11,0.2,129183,0.0,False,,,3279276.0,2729493.2,549782.8,657500,0.8362,1.2,2984982.04,2295493.2,-51478.83,-0.0783,-998563.23,4263058.8,1186731.76,1.8049,7204966.98
-33.8985898,151.1817036,,Woolworths Metro,supermarket,NSW,Item 133,75%,0.27,Bob's Chemist Newtown,216873,50000,135,329,0.2,130000,0.0,False,,,3300000.0,2744000.0,556000.0,657500,0.8456,1.18,3026172.93,2310000.0,-48650.0,-0.074,-979821.38,4290000.0,1196700.0,1.8201,7271009.7
-36.0761143,146.9249399,,ALDI,supermarket,NSW,"Item 133, Item 134",70%,0.27,TerryWhite Chemmart Albury City,53677,50000,12,21,0.2,130000,0.0,False,,,3300000.0,2744000.0,556000.0,657500,0.8456,1.18,3026172.93,2310000.0,-48650.0,-0.074,-979821.38,4290000.0,1196700.0,1.8201,7271009.7
-33.3735264,151.4727425,,Woolworths,supermarket,NSW,Item 133,75%,0.14,TerryWhite Chemmart Bateau Bay,325255,50000,13,24,0.2,130000,0.0,False,,,3300000.0,2744000.0,556000.0,657500,0.8456,1.18,3026172.93,2310000.0,-48650.0,-0.074,-979821.38,4290000.0,1196700.0,1.8201,7271009.7
-32.9077062,151.7257102,,Coles,supermarket,NSW,Item 133,75%,0.12,Amcal,319373,50000,37,63,0.2,130000,0.0,False,,,3300000.0,2744000.0,556000.0,657500,0.8456,1.18,3026172.93,2310000.0,-48650.0,-0.074,-979821.38,4290000.0,1196700.0,1.8201,7271009.7
-32.7171274,151.5273332,,ALDI,supermarket,NSW,Item 133,70%,0.12,Priceline Pharmacy Rutherford,89597,50000,8,15,0.2,130000,0.0,False,,,3300000.0,2744000.0,556000.0,657500,0.8456,1.18,3026172.93,2310000.0,-48650.0,-0.074,-979821.38,4290000.0,1196700.0,1.8201,7271009.7
-33.76596385,150.82759314999998,,Aldi,supermarket,NSW,"Item 133, Item 134",70%,0.69,Priceline Pharmacy,47176,47176,32,73,0.2,122657,0.0,False,,,3113616.0,2613531.2,500084.8,657500,0.7606,1.31,2655717.34,2179531.2,-74091.42,-0.1127,-1148378.67,4047700.8,1107049.3,1.6837,6677045.9
-32.5963599,149.58867,,Aldi,supermarket,NSW,Item 133,70%,0.33,Mudgee F.S. Pharmacy,11963,11963,5,5,0.2,31103,0.0,False,,,789558.0,891690.6,-102132.6,657500,-0.1553,999.0,-1334160.24,552690.6,-282075.33,-0.429,-2526336.81,1026425.4,74677.4,0.1136,-162739.01
-34.5461136,150.3804665,,ALDI,supermarket,NSW,Item 133,70%,0.67,Moss Vale Village Pharmacy,8874,8874,3,9,0.2,23072,0.0,False,,,585684.0,748978.8,-163294.8,657500,-0.2484,999.0,-1739378.84,409978.8,-309904.13,-0.4713,-2710711.27,761389.2,-23386.0,-0.0356,-812439.5
-33.9106127,151.1199892,,ALDI,supermarket,NSW,Item 133,70%,0.26,Priceline Pharmacy,3867632,50000,82,305,0.2,130000,0.0,False,,,3300000.0,2744000.0,556000.0,657500,0.8456,1.18,3026172.93,2310000.0,-48650.0,-0.074,-979821.38,4290000.0,1196700.0,1.8201,7271009.7
-34.29046165,146.05449275,,Coles,supermarket,NSW,Item 133,75%,0.17,Drive Thru Pharmacy,20799,20799,5,5,0.2,54077,0.0,False,,,1372734.0,1299913.8,72820.2,657500,0.1108,9.03,-175043.53,960913.8,-202471.81,-0.3079,-1998938.71,1784554.2,269685.05,0.4102,1129247.36
-34.8455352,150.5942695,,Aldi Bomaderry,supermarket,NSW,Item 133,70%,0.23,Choice Pharmacy Bomaderry,40521,40521,11,13,0.2,105354,0.0,False,,,2674386.0,2306070.2,368315.8,657500,0.5602,1.79,1782706.73,1872070.2,-134046.31,-0.2039,-1545598.5,3476701.8,895779.67,1.3624,5277318.89
-33.8945995,151.2049073,,Woolworths,supermarket,NSW,Item 133,75%,0.23,BestCare Pharmacy,231493,50000,146,297,0.2,130000,0.0,False,,,3300000.0,2744000.0,556000.0,657500,0.8456,1.18,3026172.93,2310000.0,-48650.0,-0.074,-979821.38,4290000.0,1196700.0,1.8201,7271009.7
-35.3168903,150.4368122,,Milton IGA + Liquor,supermarket,NSW,Item 133,65%,0.17,TerryWhite Chemmart Milton,8413,8413,2,5,0.3,32810,0.0,False,,,832887.0,922020.9,-89133.9,657500,-0.1356,999.0,-1248039.81,583020.9,-276160.92,-0.42,-2487152.02,1082753.1,95518.65,0.1453,-24659.26
-32.9399639,151.7088416,,ALDI,supermarket,NSW,Item 133,70%,0.11,Priceline Pharmacy Kotara,261758,50000,36,70,0.2,130000,0.0,False,,,3300000.0,2744000.0,556000.0,657500,0.8456,1.18,3026172.93,2310000.0,-48650.0,-0.074,-979821.38,4290000.0,1196700.0,1.8201,7271009.7
-33.8754484,151.2042124,,LM House,shopping_centre,NSW,Item 134,55%,0.21,Sydney Medical Centre Pharmacy,258638,50000,129,300,0.2,130000,0.0,False,,,3300000.0,2744000.0,556000.0,657500,0.8456,1.18,3026172.93,2310000.0,-48650.0,-0.074,-979821.38,4290000.0,1196700.0,1.8201,7271009.7
-28.541054,153.5483424,,IGA,supermarket,NSW,Item 133,65%,0.28,The Little Dispensary,11193,11193,5,5,0.2,29101,0.0,False,,,738738.0,856116.6,-117378.6,657500,-0.1785,999.0,-1435169.73,517116.6,-289012.26,-0.4396,-2572296.13,960359.4,50232.98,0.0764,-324690.9
-30.3547496,153.0905565,,ALDI,supermarket,NSW,Item 133,70%,0.13,Amcal Express Toormina,22169,22169,5,13,0.2,57639,0.0,False,,,1463154.0,1363207.8,99946.2,657500,0.152,6.58,4674.66,1024207.8,-190129.48,-0.2892,-1917166.93,1902100.2,313177.07,0.4763,1417395.52
-33.8891623,151.2755238,,Woolworths Metro,supermarket,NSW,Item 133,75%,0.13,Chemist Warehouse,4400481,50000,46,194,0.2,130000,0.0,False,,,3300000.0,2744000.0,556000.0,657500,0.8456,1.18,3026172.93,2310000.0,-48650.0,-0.074,-979821.38,4290000.0,1196700.0,1.8201,7271009.7
-34.4843782,150.4228097,,Southern Highlands Private Hospital,hospital,NSW,Item 135,55%,0.66,Priceline Pharmacy Bowral,1100,1100,9,12,0.2,2860,0.0,False,,,72600.0,389820.0,-317220.0,657500,-0.4825,999.0,-2759181.16,50820.0,-379940.1,-0.5779,-3174721.33,94380.0,-270179.4,-0.4109,-2447522.56
-33.3848787,148.0055915,,Woolworths,supermarket,NSW,Item 133,75%,0.18,Life Pharmacy Forbes,6837,6837,2,2,0.3,26664,0.0,False,,,676863.0,812804.1,-135941.1,657500,-0.2068,999.0,-1558152.07,473804.1,-297458.2,-0.4524,-2628253.09,879921.9,20471.1,0.0311,-521872.58
-32.9226941,151.6980773,,Newcastle Private Hospital,hospital,NSW,Item 135,40%,0.05,Epic Pharmacy Newcastle,218442,50000,41,68,0.2,130000,0.0,False,,,3300000.0,2744000.0,556000.0,657500,0.8456,1.18,3026172.93,2310000.0,-48650.0,-0.074,-979821.38,4290000.0,1196700.0,1.8201,7271009.7
-33.7597657,150.7163868,,Matilda Nepean,hospital,NSW,Item 135,40%,0.19,Kingswood Compounding Pharmacy,157079,50000,32,71,0.2,130000,0.0,False,,,3300000.0,2744000.0,556000.0,657500,0.8456,1.18,3026172.93,2310000.0,-48650.0,-0.074,-979821.38,4290000.0,1196700.0,1.8201,7271009.7
-33.1353193,148.173401,,Coles,supermarket,NSW,Item 133,75%,0.12,Ron Dunford Chemist,9832,9832,2,2,0.3,38344,0.0,False,,,973368.0,1020357.6,-46989.6,657500,-0.0715,999.0,-968820.71,681357.6,-256985.27,-0.3909,-2360107.33,1265378.4,163090.01,0.248,423022.03
-33.37549475,151.4724813,,Coles,supermarket,NSW,Item 133,75%,0.10,TerryWhite Chemmart Bateau Bay,325255,50000,13,24,0.2,130000,0.0,False,,,3300000.0,2744000.0,556000.0,657500,0.8456,1.18,3026172.93,2310000.0,-48650.0,-0.074,-979821.38,4290000.0,1196700.0,1.8201,7271009.7
-33.326793,151.4289037,,Coles,supermarket,NSW,Item 133,75%,0.11,TerryWhite Chemmart Chittaway,325255,50000,9,28,0.2,130000,0.0,False,,,3300000.0,2744000.0,556000.0,657500,0.8456,1.18,3026172.93,2310000.0,-48650.0,-0.074,-979821.38,4290000.0,1196700.0,1.8201,7271009.7
-33.8200801,151.1893068,,North Shore Private Hospital,hospital,NSW,Item 135,40%,0.16,North Shore Hospital Pharmacy,4627608,50000,64,284,0.2,130000,0.0,False,,,3300000.0,2744000.0,556000.0,657500,0.8456,1.18,3026172.93,2310000.0,-48650.0,-0.074,-979821.38,4290000.0,1196700.0,1.8201,7271009.7
-34.7454675,150.8262283,,Khan's Supa IGA,supermarket,NSW,Item 133,65%,0.11,Gerringong Pharmacy,5118,5118,1,4,0.4,26613,0.0,False,,,675576.0,811903.2,-136327.2,657500,-0.2073,999.0,-1560710.1,472903.2,-297633.88,-0.4527,-2629417.0,878248.8,19852.06,0.0302,-525973.95
-33.7543736,151.2962391,,IGA Local Grocer Dee Why Beach,supermarket,NSW,Item 133,65%,0.65,Chemist Warehouse Dee Why,39747,39747,30,61,0.2,103342,0.0,False,,,2623302.0,2270311.4,352990.6,657500,0.5369,1.86,1681172.51,1836311.4,-141019.28,-0.2145,-1591796.57,3410292.6,871208.26,1.325,5114525.7
-34.5071027,144.8435005,,Harrison's IGA,supermarket,NSW,Item 133,65%,0.27,Japp's Pharmacy,2308,2308,1,1,0.4,12001,0.0,False,,,304656.0,552259.2,-247603.2,657500,-0.3766,999.0,-2297948.21,213259.2,-348264.46,-0.5297,-2964860.34,396052.8,-158560.46,-0.2412,-1708012.39
-33.842028,150.8467704,,IGA,supermarket,NSW,Item 133,65%,4.57,Penna's Cecil Hills Pharmacy,47176,47176,2,65,0.3,183986,0.0,False,,,3600000.0,2954000.0,646000.0,657500,0.9825,1.02,3622450.92,2520000.0,-7700.0,-0.0117,-708514.89,4680000.0,1341000.0,2.0395,8227042.08
-35.358884599999996,150.47202125,,Coles,supermarket,NSW,Item 133,75%,0.15,Priceline Pharmacy Ulladulla,15994,15994,4,5,0.2,41584,0.0,False,,,1055604.0,1077922.8,-22318.8,657500,-0.0339,999.0,-805368.99,738922.8,-245760.05,-0.3738,-2285736.79,1372285.2,202645.52,0.3082,685089.62
-33.906189,151.2625303,,Woolworths Metro,supermarket,NSW,Item 133,75%,0.12,Bronte pharmacy,4423055,50000,62,209,0.2,130000,0.0,False,,,3300000.0,2744000.0,556000.0,657500,0.8456,1.18,3026172.93,2310000.0,-48650.0,-0.074,-979821.38,4290000.0,1196700.0,1.8201,7271009.7
-35.446270049999995,149.798937,,IGA,supermarket,NSW,"Item 133, Item 134",65%,0.48,Capital Chemist Braidwood,1414,1414,1,1,0.4,7352,0.0,False,,,186648.0,469653.6,-283005.6,657500,-0.4304,999.0,-2532500.12,130653.6,-364372.55,-0.5542,-3071581.46,242642.4,-215322.31,-0.3275,-2084077.29
-31.4339205,152.9073214,,Coles,supermarket,NSW,Item 133,75%,0.16,Chemist Warehouse,47893,47893,15,16,0.2,124521,0.0,False,,,3160938.0,2646656.6,514281.4,657500,0.7822,1.28,2749774.23,2212656.6,-67631.96,-0.1029,-1105582.79,4109219.4,1129811.18,1.7183,6827850.45
-33.870859,151.2684341,,Woolworths Metro,supermarket,NSW,Item 133,75%,0.11,Rose Bay Pharmacy,4623475,50000,44,217,0.2,130000,0.0,False,,,3300000.0,2744000.0,556000.0,657500,0.8456,1.18,3026172.93,2310000.0,-48650.0,-0.074,-979821.38,4290000.0,1196700.0,1.8201,7271009.7
-34.7577692,149.7165727,,Aldi,supermarket,NSW,Item 133,70%,0.15,Blooms The Chemist Goulburn Marketplace,24063,24063,7,7,0.2,62563,0.0,False,,,1588158.0,1545710.6,42447.4,657500,0.0646,15.49,-376272.77,1111710.6,-173066.43,-0.2632,-1804118.95,2064605.4,373304.0,0.5678,1815755.09
-33.8743612,151.2261153,,Saint Luke's Private Hospital,hospital,NSW,Item 135,40%,0.15,Blakes Pharmacy,258638,50000,144,278,0.2,130000,0.0,False,,,3300000.0,2744000.0,556000.0,657500,0.8456,1.18,3026172.93,2310000.0,-48650.0,-0.074,-979821.38,4290000.0,1196700.0,1.8201,7271009.7
-37.0638556,149.9046139,,Coles,supermarket,NSW,Item 133,75%,0.18,Eden Pharmacy,3227,3227,1,1,0.4,16780,0.0,False,,,425964.0,637174.8,-211210.8,657500,-0.3212,999.0,-2056837.24,298174.8,-331705.91,-0.5045,-2855154.85,553753.2,-100211.32,-0.1524,-1321431.14
-34.225175300000004,150.5919927,,ALDI,supermarket,NSW,"Item 133, Item 134",70%,0.16,Pharmacy 4 Less,9232,9232,4,7,0.2,24003,0.0,False,,,609312.0,765518.4,-156206.4,657500,-0.2376,999.0,-1692415.98,426518.4,-306678.91,-0.4664,-2689343.17,792105.6,-12020.93,-0.0183,-737142.39
-32.8341861,151.3515144,,ALDI,supermarket,NSW,Item 133,70%,0.12,Cessnock Day Night Pharmacy,25365,25365,5,7,0.2,65949,0.0,False,,,1674090.0,1605863.0,68227.0,657500,0.1038,9.64,-205474.91,1171863.0,-161336.72,-0.2454,-1726405.92,2176317.0,414637.29,0.6306,2089601.01
-30.5118543,151.6619591,,Woolworths,supermarket,NSW,Item 133,75%,0.16,TerryWhite Chemmart Armidale,21312,21312,7,7,0.2,55411,0.0,False,,,1406592.0,1323614.4,82977.6,657500,0.1262,7.92,-107747.59,984614.4,-197850.19,-0.3009,-1968319.06,1828569.6,285970.75,0.4349,1237145.17
-33.8982656,151.1787524,,ALDI Corner Store,supermarket,NSW,Item 133,70%,0.17,Bob's Chemist Newtown,215832,50000,131,328,0.2,130000,0.0,False,,,3300000.0,2744000.0,556000.0,657500,0.8456,1.18,3026172.93,2310000.0,-48650.0,-0.074,-979821.38,4290000.0,1196700.0,1.8201,7271009.7
-34.2030108,150.5710082,,Thirlmere IGA,supermarket,NSW,Item 133,65%,0.16,Thirlmere Pharmacy,12103,12103,4,6,0.2,31467,0.0,False,,,798798.0,898158.6,-99360.6,657500,-0.1511,999.0,-1315794.88,559158.6,-280814.07,-0.4271,-2517980.57,1038437.4,79121.84,0.1203,-133293.21
-28.8211675,153.3270115,,Aldi,supermarket,NSW,Item 133,70%,0.18,Goonellabah Pharmacy,28516,28516,8,13,0.2,74141,0.0,False,,,1882056.0,1751439.2,130616.8,657500,0.1987,5.03,207876.92,1317439.2,-132949.36,-0.2022,-1538330.83,2446672.8,514668.94,0.7828,2752341.77
-31.4354439,152.9014552,,Hastings Co-op IGA,supermarket,NSW,Item 133,65%,0.15,Plunketts TerryWhite Chemmart Port Macquarie,47893,47893,15,16,0.2,124521,0.0,False,,,3160938.0,2646656.6,514281.4,657500,0.7822,1.28,2749774.23,2212656.6,-67631.96,-0.1029,-1105582.79,4109219.4,1129811.18,1.7183,6827850.45
-33.7976629,151.1857327,,Chatswood Private Hospital,hospital,NSW,Item 135,40%,0.12,Pharmacy 4 Less,4149728,50000,47,235,0.2,130000,0.0,False,,,3300000.0,2744000.0,556000.0,657500,0.8456,1.18,3026172.93,2310000.0,-48650.0,-0.074,-979821.38,4290000.0,1196700.0,1.8201,7271009.7
-33.8785274,151.243768,,Woolworths,supermarket,NSW,Item 133,75%,0.13,Chemist Warehouse,244891,50000,123,255,0.2,130000,0.0,False,,,3300000.0,2744000.0,556000.0,657500,0.8456,1.18,3026172.93,2310000.0,-48650.0,-0.074,-979821.38,4290000.0,1196700.0,1.8201,7271009.7
-31.4419076,152.909282,,Port Macquarie Private Hospital,hospital,NSW,Item 135,40%,0.15,Lake Road Pharmacy,47893,47893,15,16,0.2,124521,0.0,False,,,3160938.0,2646656.6,514281.4,657500,0.7822,1.28,2749774.23,2212656.6,-67631.96,-0.1029,-1105582.79,4109219.4,1129811.18,1.7183,6827850.45
-33.8931329,151.2482153,,Aldi,supermarket,NSW,Item 133,70%,0.12,Bondi Junction Pharmacy,217566,50000,113,231,0.2,130000,0.0,False,,,3300000.0,2744000.0,556000.0,657500,0.8456,1.18,3026172.93,2310000.0,-48650.0,-0.074,-979821.38,4290000.0,1196700.0,1.8201,7271009.7
-31.9095234,152.4610345,,Coles,supermarket,NSW,Item 133,75%,0.21,Your Discount Chemist Taree,19410,19410,7,10,0.2,50466,0.0,False,,,1281060.0,1235742.0,45318.0,657500,0.0689,14.51,-357254.16,896742.0,-214985.31,-0.327,-2081844.54,1665378.0,225589.86,0.3431,837102.99
-32.7585536,151.7456363,,Aldi,supermarket,NSW,Item 133,70%,0.31,Blooms The Chemist Raymond Terrace,14181,14181,4,6,0.2,36870,0.0,False,,,935946.0,994162.2,-58216.2,657500,-0.0885,999.0,-1043200.43,655162.2,-262093.37,-0.3986,-2393950.1,1216729.8,145090.03,0.2207,303766.55
-32.232359,148.2390976,,Coles,supermarket,NSW,Item 133,75%,0.15,Narromine Pharmacy,3507,3507,1,1,0.4,18236,0.0,False,,,462924.0,663046.8,-200122.8,657500,-0.3044,999.0,-1983375.79,324046.8,-326660.87,-0.4968,-2821729.89,601801.2,-82433.56,-0.1254,-1203647.95
-32.5544293,148.9430548,,Coles,supermarket,NSW,Item 133,75%,0.18,Keirle's Pharmacy,5081,5081,2,2,0.3,19815,0.0,False,,,503019.0,691113.3,-188094.3,657500,-0.2861,999.0,-1903683.24,352113.3,-321187.91,-0.4885,-2785469.78,653924.7,-63147.86,-0.096,-1075874.22
-33.8777311,151.2128935,,IGA,supermarket,NSW,Item 133,65%,0.14,Chemist Warehouse,258638,50000,134,292,0.2,130000,0.0,False,,,3300000.0,2744000.0,556000.0,657500,0.8456,1.18,3026172.93,2310000.0,-48650.0,-0.074,-979821.38,4290000.0,1196700.0,1.8201,7271009.7
-33.0892178,147.1500133,,IGA Condobolin,supermarket,NSW,Item 133,65%,0.20,Shortis & Timmins Pharmacy,2579,2579,1,1,0.4,13410,0.0,False,,,340428.0,577299.6,-236871.6,657500,-0.3603,999.0,-2226848.02,238299.6,-343381.58,-0.5223,-2932509.75,442556.4,-141354.13,-0.215,-1594015.09
-35.7198484,147.3165145,,IGA plus Liquor,supermarket,NSW,Item 133,65%,0.41,The Holbrook Pharmacy,1251,1251,1,1,0.4,6505,0.0,False,,,165132.0,454592.4,-289460.4,657500,-0.4402,999.0,-2575265.18,115592.4,-367309.48,-0.5586,-3091039.56,214671.6,-225671.51,-0.3432,-2152643.93
-32.5656019,151.1648281,,Coles,supermarket,NSW,Item 133,75%,0.12,Priceline Pharmacy Singleton,14729,14729,4,4,0.2,38295,0.0,False,,,972114.0,1019479.8,-47365.8,657500,-0.072,999.0,-971313.16,680479.8,-257156.44,-0.3911,-2361241.39,1263748.2,162486.83,0.2471,419025.81
-33.85721,151.1031659,,Coles,supermarket,NSW,Item 133,75%,0.14,Friendly Pharmacy Concord,3775213,50000,58,290,0.2,130000,0.0,False,,,3300000.0,2744000.0,556000.0,657500,0.8456,1.18,3026172.93,2310000.0,-48650.0,-0.074,-979821.38,4290000.0,1196700.0,1.8201,7271009.7
-33.7545651,150.706153,,ALDI,supermarket,NSW,Item 133,70%,0.14,TerryWhite Chemmart Penrith Medical,157079,50000,34,67,0.2,130000,0.0,False,,,3300000.0,2744000.0,556000.0,657500,0.8456,1.18,3026172.93,2310000.0,-48650.0,-0.074,-979821.38,4290000.0,1196700.0,1.8201,7271009.7
-33.8533828,151.1564228,,Harris Farm,supermarket,NSW,Item 133,70%,0.15,TerryWhite Chemmart Drummoyne,4737501,50000,86,316,0.2,130000,0.0,False,,,3300000.0,2744000.0,556000.0,657500,0.8456,1.18,3026172.93,2310000.0,-48650.0,-0.074,-979821.38,4290000.0,1196700.0,1.8201,7271009.7
-34.2903232,150.5791482,,Khan's SupaIGA,supermarket,NSW,Item 133,65%,0.11,Caremore Bargo Pharmacy,4016,4016,1,5,0.4,20883,0.0,False,,,530112.0,710078.4,-179966.4,657500,-0.2737,999.0,-1849833.37,371078.4,-317489.71,-0.4829,-2760968.09,689145.6,-50116.13,-0.0762,-989534.94
-33.890982550000004,151.13697539999998,,SUPA IGA Summer Hill,supermarket,NSW,Item 133,65%,0.15,Centre Pharmacy Soul Pattinson Chemist,4316385,50000,85,328,0.2,130000,0.0,False,,,3300000.0,2744000.0,556000.0,657500,0.8456,1.18,3026172.93,2310000.0,-48650.0,-0.074,-979821.38,4290000.0,1196700.0,1.8201,7271009.7
-36.8862187,149.9098265,,Aldi,supermarket,NSW,Item 133,70%,0.14,Direct Chemist Outlet Merimbula,9392,9392,3,4,0.2,24419,0.0,False,,,619872.0,772910.4,-153038.4,657500,-0.2328,999.0,-1671427.0,433910.4,-305237.47,-0.4642,-2679793.19,805833.6,-6941.57,-0.0106,-703490.05
-33.2986569,146.370548,,Foodworks,supermarket,NSW,Item 133,55%,0.41,St Mary Lake Cargelligo Pharmacy,1169,1169,1,1,0.4,6078,0.0,False,,,154308.0,447015.6,-292707.6,657500,-0.4452,999.0,-2596778.89,108015.6,-368786.96,-0.5609,-3100828.3,200600.4,-230877.85,-0.3511,-2187137.58
-28.8597452,153.5609415,,Coles,supermarket,NSW,Item 133,75%,0.15,Direct Chemist Outlet Ballina Central,21143,21143,6,8,0.2,54971,0.0,False,,,1395438.0,1315806.6,79631.4,657500,0.1211,8.26,-129917.21,976806.6,-199372.71,-0.3032,-1978406.23,1814069.4,280605.68,0.4268,1201599.89
-33.9299232,151.1525331,,ALDI,supermarket,NSW,Item 133,70%,0.14,Discover Pharmacy,4039283,50000,78,315,0.2,130000,0.0,False,,,3300000.0,2744000.0,556000.0,657500,0.8456,1.18,3026172.93,2310000.0,-48650.0,-0.074,-979821.38,4290000.0,1196700.0,1.8201,7271009.7
-33.8796334,151.2031238,,Thai Kee IGA,supermarket,NSW,Item 133,65%,0.13,TerryWhite Chemmart Haymarket,258638,50000,133,302,0.2,130000,0.0,False,,,3300000.0,2744000.0,556000.0,657500,0.8456,1.18,3026172.93,2310000.0,-48650.0,-0.074,-979821.38,4290000.0,1196700.0,1.8201,7271009.7
-33.8929814,151.250827,,Coles,supermarket,NSW,Item 133,75%,0.10,Chemist Warehouse,215704,50000,103,230,0.2,130000,0.0,False,,,3300000.0,2744000.0,556000.0,657500,0.8456,1.18,3026172.93,2310000.0,-48650.0,-0.074,-979821.38,4290000.0,1196700.0,1.8201,7271009.7
-32.4009361,151.7580818,,Supa IGA,supermarket,NSW,Item 133,65%,0.17,Williams Valley Pharmacy,2669,2669,1,1,0.4,13878,0.0,False,,,352308.0,585615.6,-233307.6,657500,-0.3548,999.0,-2203235.41,246615.6,-341759.96,-0.5198,-2921766.02,458000.4,-135639.85,-0.2063,-1556156.21
-33.4883981,150.1529823,,ALDI,supermarket,NSW,Item 133,70%,0.15,Priceline Pharmacy,11297,11297,4,4,0.2,29372,0.0,False,,,745602.0,860921.4,-115319.4,657500,-0.1754,999.0,-1421526.89,521921.4,-288075.33,-0.4381,-2566088.64,969282.6,53534.56,0.0814,-302816.88
-28.8625278,153.0503758,,Coles,supermarket,NSW,Item 133,75%,0.15,Bill Williams Chemist,10168,10168,4,4,0.2,26436,0.0,False,,,671088.0,808761.6,-137673.6,657500,-0.2094,999.0,-1569630.42,469761.6,-298246.49,-0.4536,-2633475.74,872414.4,17693.33,0.0269,-540276.2
-33.98564435,150.8917415,,ALDI,supermarket,NSW,"Item 133, Item 134",70%,1.01,Cincotta Chemist Macquarie Fields,24095,24095,9,48,0.2,62647,0.0,False,,,1590270.0,1547189.0,43081.0,657500,0.0655,15.26,-372074.98,1113189.0,-172778.14,-0.2628,-1802208.95,2067351.0,374319.87,0.5693,1822485.56
-32.0082801,151.9583018,,IGA,supermarket,NSW,Item 133,65%,0.18,Gloucester Pharmacy,2469,2469,1,1,0.4,12838,0.0,False,,,325908.0,567135.6,-241227.6,657500,-0.3669,999.0,-2255707.88,228135.6,-345363.56,-0.5253,-2945640.99,423680.4,-148338.25,-0.2256,-1640287.06
-33.7918705,151.0638784,,Allowah Presbyterian Children's Hospital,hospital,NSW,Item 135,55%,1.47,Eastwood Pharmacy,10555,10555,45,179,0.2,27443,0.0,False,,,696630.0,826641.0,-130011.0,657500,-0.1977,999.0,-1518863.31,487641.0,-294760.0,-0.4483,-2610376.71,905619.0,29979.03,0.0456,-458879.6
-33.8685486,151.2074143,,Locali by Romeo's IGA,supermarket,NSW,Item 133,65%,0.12,Chemist Warehouse Sydney - George Street,258638,50000,134,300,0.2,130000,0.0,False,,,3300000.0,2744000.0,556000.0,657500,0.8456,1.18,3026172.93,2310000.0,-48650.0,-0.074,-979821.38,4290000.0,1196700.0,1.8201,7271009.7
-32.6724518,152.177132,,IGA Hawks Nest,supermarket,NSW,Item 133,65%,0.12,Myall Pharmacy - Hawks Nest,10342,10342,2,8,0.3,40333,0.0,False,,,1023858.0,1055700.6,-31842.6,657500,-0.0484,999.0,-868467.13,716700.6,-250093.38,-0.3804,-2314446.45,1331015.4,187375.7,0.285,583922.28
-33.8923919,151.2457277,,Bondi Junction Private Hospital,hospital,NSW,Item 135,40%,0.10,Axcess Healthcare Sydney,220721,50000,119,234,0.2,130000,0.0,False,,,3300000.0,2744000.0,556000.0,657500,0.8456,1.18,3026172.93,2310000.0,-48650.0,-0.074,-979821.38,4290000.0,1196700.0,1.8201,7271009.7
-29.4050865,153.3495721,,IGA Iluka plus liquor,supermarket,NSW,Item 133,65%,0.14,Iluka Pharmacy,8506,8506,3,4,0.2,22115,0.0,False,,,561396.0,731977.2,-170581.2,657500,-0.2594,999.0,-1787653.5,392977.2,-313219.45,-0.4764,-2732676.25,729814.8,-35068.52,-0.0533,-889839.88
-36.9290178,149.8748611,,Foodworks,supermarket,NSW,Item 133,55%,0.10,Pambula Pharmacy,8764,8764,1,4,0.4,45572,0.0,False,,,1156848.0,1148793.6,8054.4,657500,0.0123,81.63,-604137.09,809793.6,-231940.25,-0.3528,-2194176.28,1503902.4,165843.89,0.2522,441267.34
-30.0900144,145.9342345,,Khan's Supa IGA Plus Liquor,supermarket,NSW,Item 133,65%,0.21,The Towers Drug Co Pharmacy,2035,2035,1,1,0.4,10582,0.0,False,,,268620.0,527034.0,-258414.0,657500,-0.393,999.0,-2369573.12,188034.0,-353183.37,-0.5372,-2997449.67,349206.0,-175893.78,-0.2675,-1822851.0
-33.86823735,150.92311310000002,,Coles,supermarket,NSW,Item 133,75%,1.10,Wakeley Pharmacy,16197,16197,45,129,0.2,42112,0.0,False,,,1069002.0,1087301.4,-18299.4,657500,-0.0278,999.0,-778739.22,748301.4,-243931.23,-0.371,-2273620.25,1389702.6,209089.96,0.318,727786.03
-35.6427763,145.5768562,,IGA Finley + Liquor,supermarket,NSW,Item 133,65%,0.22,Finley Pharmacy,1864,1864,1,1,0.4,9692,0.0,False,,,246048.0,511233.6,-265185.6,657500,-0.4033,999.0,-2414437.08,172233.6,-356264.45,-0.5418,-3017862.77,319862.4,-186750.91,-0.284,-1894782.88
-33.908082,151.1720376,,Coles,supermarket,NSW,Item 133,75%,0.12,Priceline Pharmacy,4619809,50000,105,333,0.2,130000,0.0,False,,,3300000.0,2744000.0,556000.0,657500,0.8456,1.18,3026172.93,2310000.0,-48650.0,-0.074,-979821.38,4290000.0,1196700.0,1.8201,7271009.7
-31.498982,145.8390591,,Burgess IGA,supermarket,NSW,Item 133,65%,0.12,The John Mitchell Pharmacy,3369,3369,1,1,0.4,17518,0.0,False,,,444708.0,650295.6,-205587.6,657500,-0.3127,999.0,-2019581.79,311295.6,-329147.36,-0.5006,-2838203.62,578120.4,-91195.45,-0.1387,-1261698.23
-33.7699808,150.7714345,,Aldi,supermarket,NSW,Item 133,70%,0.14,Astley Pharmacy,96706,50000,34,77,0.2,130000,0.0,False,,,3300000.0,2744000.0,556000.0,657500,0.8456,1.18,3026172.93,2310000.0,-48650.0,-0.074,-979821.38,4290000.0,1196700.0,1.8201,7271009.7
-33.8391714,151.2085187,,ALDI,supermarket,NSW,Item 133,70%,0.10,Priceline Pharmacy North Sydney,276424,50000,107,294,0.2,130000,0.0,False,,,3300000.0,2744000.0,556000.0,657500,0.8456,1.18,3026172.93,2310000.0,-48650.0,-0.074,-979821.38,4290000.0,1196700.0,1.8201,7271009.7
-29.4609716,149.8408792,,Coles,supermarket,NSW,Item 133,75%,0.11,Moree Amcal Pharmacy,7070,7070,2,2,0.3,27573,0.0,False,,,699930.0,828951.0,-129021.0,657500,-0.1962,999.0,-1512304.25,489951.0,-294309.55,-0.4476,-2607392.34,909909.0,31566.33,0.048,-448363.25
-31.4562572,152.7330169,,Super IGA,supermarket,NSW,Item 133,65%,0.16,The Wauchope Pharmacy,8482,8482,3,4,0.2,22053,0.0,False,,,559812.0,730868.4,-171056.4,657500,-0.2602,999.0,-1790801.85,391868.4,-313435.66,-0.4767,-2734108.75,727755.6,-35830.43,-0.0545,-894887.73
-33.7578989,150.6925299,,Coles,supermarket,NSW,Item 133,75%,0.10,Blooms The Chemist Nepean,157179,50000,36,60,0.2,130000,0.0,False,,,3300000.0,2744000.0,556000.0,657500,0.8456,1.18,3026172.93,2310000.0,-48650.0,-0.074,-979821.38,4290000.0,1196700.0,1.8201,7271009.7
-32.2820268,150.8971184,,ALDI,supermarket,NSW,Item 133,70%,0.10,Chemist Warehouse Muswellbrook,11001,11001,3,3,0.2,28602,0.0,False,,,726066.0,847246.2,-121180.2,657500,-0.1843,999.0,-1460356.51,508246.2,-290741.99,-0.4422,-2583756.12,943885.8,44137.75,0.0671,-365073.71
-33.5298405,149.2573253,,Bernardi's Supa IGA,supermarket,NSW,Item 133,65%,0.12,Blayney Pharmacy,2997,2997,1,1,0.4,15584,0.0,False,,,395604.0,615922.8,-220318.8,657500,-0.3351,999.0,-2117180.57,276922.8,-335850.05,-0.5108,-2882611.06,514285.2,-114814.48,-0.1746,-1418181.61
-33.7576926,150.7131875,,Nepean Private Hospital,hospital,NSW,Item 135,40%,0.10,Octa Medical Centre Pharmacy,157079,50000,33,72,0.2,130000,0.0,False,,,3300000.0,2744000.0,556000.0,657500,0.8456,1.18,3026172.93,2310000.0,-48650.0,-0.074,-979821.38,4290000.0,1196700.0,1.8201,7271009.7
-29.427775,153.3269682,,Coles,supermarket,NSW,Item 133,75%,0.13,Priceline Pharmacy Yamba,8506,8506,3,4,0.2,22115,0.0,False,,,561396.0,731977.2,-170581.2,657500,-0.2594,999.0,-1787653.5,392977.2,-313219.45,-0.4764,-2732676.25,729814.8,-35068.52,-0.0533,-889839.88
-32.8585803,149.9760332,,Ahmedi’s IGA Kandos,supermarket,NSW,Item 133,65%,0.18,Kandos-Rylstone Pharmacy,1308,1308,1,1,0.4,6801,0.0,False,,,172656.0,459859.2,-287203.2,657500,-0.4368,999.0,-2560310.53,120859.2,-366282.46,-0.5571,-3084235.19,224452.8,-222052.46,-0.3377,-2128666.64
-34.4821018,150.4157839,,ALDI,supermarket,NSW,Item 133,70%,0.32,Amcal Express Bowral,1100,1100,9,12,0.2,2860,0.0,False,,,72600.0,389820.0,-317220.0,657500,-0.4825,999.0,-2759181.16,50820.0,-379940.1,-0.5779,-3174721.33,94380.0,-270179.4,-0.4109,-2447522.56
-28.3269159,153.396137,,IGA Murwillumbah,supermarket,NSW,Item 133,65%,0.10,Varela and Swift Pharmacy,11712,11712,4,4,0.2,30451,0.0,False,,,772992.0,880094.4,-107102.4,657500,-0.1629,999.0,-1367086.71,541094.4,-284336.59,-0.4325,-2541318.36,1004889.6,66709.15,0.1015,-215531.12
-33.8747396,151.1069987,,Coles,supermarket,NSW,Item 133,75%,0.10,Priceline Pharmacy Burwood,3859769,50000,63,304,0.2,130000,0.0,False,,,3300000.0,2744000.0,556000.0,657500,0.8456,1.18,3026172.93,2310000.0,-48650.0,-0.074,-979821.38,4290000.0,1196700.0,1.8201,7271009.7
-34.0334089,151.0569428,,Coles,supermarket,NSW,Item 133,75%,0.15,Sutherland Community Pharmacy,194017,50000,31,104,0.2,130000,0.0,False,,,3300000.0,2744000.0,556000.0,657500,0.8456,1.18,3026172.93,2310000.0,-48650.0,-0.074,-979821.38,4290000.0,1196700.0,1.8201,7271009.7
-31.0967255,150.9361061,,Woolworths,supermarket,NSW,Item 133,75%,0.10,East Tamworth Pharmacy,35515,35515,13,13,0.2,92339,0.0,False,,,2343990.0,2074793.0,269197.0,657500,0.4094,2.44,1126013.85,1640793.0,-179145.36,-0.2725,-1844393.76,3047187.0,736859.19,1.1207,4224421.31
-36.6750823,149.8451997,,Coles,supermarket,NSW,Item 133,75%,0.25,Plevey's Pharmacy,4668,4668,4,4,0.2,12136,0.0,False,,,308088.0,554661.6,-246573.6,657500,-0.375,999.0,-2291126.79,215661.6,-347795.99,-0.529,-2961756.59,400514.4,-156909.67,-0.2386,-1697075.38
-30.6423505,151.4995817,,Foodworks,supermarket,NSW,Item 133,55%,0.12,Uralla Pharmacy,2585,2585,1,1,0.4,13442,0.0,False,,,341220.0,577854.0,-236634.0,657500,-0.3599,999.0,-2225273.85,238854.0,-343273.47,-0.5221,-2931793.5,443586.0,-140973.18,-0.2144,-1591491.16
-31.5641078,147.1975231,,Khans Super IGA,supermarket,NSW,Item 133,65%,0.17,Nyngan Pharmacy,1761,1761,1,1,0.4,9157,0.0,False,,,232452.0,501716.4,-269264.4,657500,-0.4095,999.0,-2441460.4,162716.4,-358120.3,-0.5447,-3030158.38,302187.6,-193290.59,-0.294,-1938110.26
-33.95494505,150.94403655000002,,Coles,supermarket,NSW,"Item 133, Item 134",75%,1.19,Chen's Pharmacy,24095,24095,18,109,0.2,62647,0.0,False,,,1590270.0,1547189.0,43081.0,657500,0.0655,15.26,-372074.98,1113189.0,-172778.14,-0.2628,-1802208.95,2067351.0,374319.87,0.5693,1822485.56
-33.5935059,150.7010217,,St John Of God Hospital,hospital,NSW,Item 135,55%,2.24,TerryWhite Chemmart North Richmond,844,844,4,8,0.2,2194,0.0,False,,,55704.0,377992.8,-322288.8,657500,-0.4902,999.0,-2792763.54,38992.8,-382246.4,-0.5814,-3190001.31,72415.2,-278306.38,-0.4233,-2501366.3
-28.8199344,153.2880536,,St Vincent's Private Hospital Lismore,hospital,NSW,Item 135,40%,0.10,Epic Pharmacy Lismore,28516,28516,10,12,0.2,74141,0.0,False,,,1882056.0,1751439.2,130616.8,657500,0.1987,5.03,207876.92,1317439.2,-132949.36,-0.2022,-1538330.83,2446672.8,514668.94,0.7828,2752341.77
-34.5506637,146.3981986,,Woolworths,supermarket,NSW,Item 133,75%,0.12,Leeton Discount Chemist,7437,7437,4,4,0.2,19336,0.0,False,,,490842.0,682589.4,-191747.4,657500,-0.2916,999.0,-1927886.16,343589.4,-322850.07,-0.491,-2796482.11,638094.6,-69005.0,-0.105,-1114679.57
-34.5811,150.8682,"Darley Street, Shellharbour, Shellharbour City Council, New South Wales, 2529, Australia",Shellharbour Medical Centre,medical_centre,NSW,Item 136,95%,0.31,Shellharbour Village Pharmacy,3135,3135,13,19,0.2,8151,6.4,False,,,206910.0,483837.0,-276927.0,657500,-0.4212,999.0,-2492227.5,144837.0,-361606.78,-0.55,-3053257.42,268983.0,-205576.29,-0.3127,-2019506.86
-33.7567928,151.0031234,,Mint Fresh IGA,supermarket,NSW,Item 133,65%,0.99,TerryWhite Chemmart Baulkham Hills (Transitioning),9037,9037,33,139,0.2,23496,0.0,False,,,596442.0,756509.4,-160067.4,657500,-0.2434,999.0,-1717996.31,417509.4,-308435.67,-0.4691,-2700982.22,775374.6,-18211.4,-0.0277,-778156.18
-35.9982109,146.3922514,,Waldron's Fresh on River IGA Corowa,supermarket,NSW,Item 133,65%,0.15,TerryWhite Chemmart,5444,5444,3,4,0.2,14154,0.0,False,,,359304.0,590512.8,-231208.8,657500,-0.3516,999.0,-2189330.21,251512.8,-340805.0,-0.5183,-2915439.15,467095.2,-132274.78,-0.2012,-1533861.53
-33.9539986,150.8968658,,Woolworths,supermarket,NSW,Item 133,75%,0.71,Priceline Pharmacy Casula,24095,24095,25,72,0.2,62647,0.0,False,,,1590270.0,1547189.0,43081.0,657500,0.0655,15.26,-372074.98,1113189.0,-172778.14,-0.2628,-1802208.95,2067351.0,374319.87,0.5693,1822485.56
-34.74293,146.5535808,,Narrandera IGA and Liquor,supermarket,NSW,Item 133,65%,0.12,TerryWhite Chemmart Pharmacy Narrandera,3883,3883,2,2,0.3,15143,0.0,False,,,384417.0,608091.9,-223674.9,657500,-0.3402,999.0,-2139415.78,269091.9,-337377.08,-0.5131,-2892728.08,499742.1,-120195.42,-0.1828,-1453832.06
-33.565884,148.6605093,,IGA,supermarket,NSW,Item 133,65%,0.16,Canowindra Pharmacy,1451,1451,1,1,0.4,7545,0.0,False,,,191532.0,473072.4,-281540.4,657500,-0.4282,999.0,-2522792.71,134072.4,-363705.88,-0.5532,-3067164.59,248991.6,-212973.11,-0.3239,-2068513.08
-33.8861919,151.0116493,,Sefton IGA,supermarket,NSW,Item 133,65%,0.92,Chester Hill Chemist Discount Centre,19745,19745,43,204,0.2,51337,0.0,False,,,1303170.0,1251219.0,51951.0,657500,0.079,12.66,-313308.47,912219.0,-211967.29,-0.3224,-2061849.26,1694121.0,236224.77,0.3593,907562.57
-34.4812682,150.4179674,,Woolworths,supermarket,NSW,Item 133,75%,0.21,Priceline Pharmacy Bowral,1100,1100,9,12,0.2,2860,0.0,False,,,72600.0,389820.0,-317220.0,657500,-0.4825,999.0,-2759181.16,50820.0,-379940.1,-0.5779,-3174721.33,94380.0,-270179.4,-0.4109,-2447522.56
-33.8462715,150.9789263,,Holroyd Private Hospital,hospital,NSW,Item 135,55%,0.81,West End Pharmacy - Guildford,19745,19745,58,169,0.2,51337,0.0,False,,,1303170.0,1251219.0,51951.0,657500,0.079,12.66,-313308.47,912219.0,-211967.29,-0.3224,-2061849.26,1694121.0,236224.77,0.3593,907562.57
-33.7661197,150.8210589,,Coles,supermarket,NSW,Item 133,75%,0.14,Priceline Pharmacy,384,384,37,72,0.2,998,0.0,False,,,25344.0,356740.8,-331396.8,657500,-0.504,999.0,-2853106.87,17740.8,-386390.54,-0.5877,-3217457.53,32947.2,-292909.54,-0.4455,-2598116.78
-33.4844355,145.5337073,,Rose's IGA & Liquor,supermarket,NSW,Item 133,65%,0.18,Hillston Pharmacy,1149,1149,1,1,0.4,5974,0.0,False,,,151668.0,445167.6,-293499.6,657500,-0.4464,999.0,-2602026.13,106167.6,-369147.32,-0.5614,-3103215.79,197168.4,-232147.69,-0.3531,-2195550.66
-32.3624606,149.5340248,,Ahmedi's IGA plus Liquor,supermarket,NSW,Item 133,65%,0.10,Gulgong Dispensary,2057,2057,1,1,0.4,10696,0.0,False,,,271524.0,529066.8,-257542.8,657500,-0.3917,999.0,-2363801.15,190066.8,-352786.97,-0.5366,-2994823.43,352981.2,-174496.96,-0.2654,-1813596.61
-30.3401737,152.7109896,,Dorrigo IGA,supermarket,NSW,Item 133,65%,0.15,Dorrigo Plateau Pharmacy,1346,1346,1,1,0.4,6999,0.0,False,,,177672.0,463370.4,-285698.4,657500,-0.4345,999.0,-2550340.76,124370.4,-365597.77,-0.556,-3079698.95,230973.6,-219639.77,-0.3341,-2112681.78
-32.389022,150.68553880000002,,McLaren's IGA,supermarket,NSW,Item 133,65%,0.12,Denman Pharmacy,1647,1647,1,1,0.4,8564,0.0,False,,,217404.0,491182.8,-273778.8,657500,-0.4164,999.0,-2471369.7,152182.8,-360174.35,-0.5478,-3043767.12,282625.2,-200528.68,-0.305,-1986064.85
-33.9236399,150.9616841,,Governor Macquarie Shopping Centre,shopping_centre,NSW,Item 134,55%,0.94,Little Tree Pharmacy Chipping Norton,24095,24095,37,132,0.2,62647,0.0,False,,,1590270.0,1547189.0,43081.0,657500,0.0655,15.26,-372074.98,1113189.0,-172778.14,-0.2628,-1802208.95,2067351.0,374319.87,0.5693,1822485.56
-33.7173548,150.8407332,,ALDI,supermarket,NSW,Item 133,70%,0.29,Medicines R Us Chemist - Marsden Park,384,384,16,76,0.2,998,0.0,False,,,25344.0,356740.8,-331396.8,657500,-0.504,999.0,-2853106.87,17740.8,-386390.54,-0.5877,-3217457.53,32947.2,-292909.54,-0.4455,-2598116.78
-33.7439375,150.9827212,,The Hills Private Hospital,hospital,NSW,Item 135,55%,0.80,Crestwood Centre Pharmacy,19745,19745,31,126,0.2,51337,0.0,False,,,1303170.0,1251219.0,51951.0,657500,0.079,12.66,-313308.47,912219.0,-211967.29,-0.3224,-2061849.26,1694121.0,236224.77,0.3593,907562.57
-29.8690768,150.5721456,,Bingara IGA & Hardware,supermarket,NSW,Item 133,65%,0.16,The Bingara Pharmacy,1028,1028,1,1,0.4,5345,0.0,False,,,135696.0,433987.2,-298291.2,657500,-0.4537,999.0,-2633771.97,94987.2,-371327.5,-0.5648,-3117660.15,176404.8,-239830.22,-0.3648,-2246449.83
-31.273237,149.2786457,,Carlo's IGA and Liquor,supermarket,NSW,Item 133,65%,0.12,Coonabarabran Pharmacy,2387,2387,2,2,0.3,9309,0.0,False,,,236313.0,504419.1,-268106.1,657500,-0.4078,999.0,-2433786.3,165419.1,-357593.28,-0.5439,-3026666.67,307206.9,-191433.45,-0.2912,-1925806.13
-34.6379968,143.5614503,,Foodworks,supermarket,NSW,Item 133,55%,0.15,Balranald Pharmacy,1063,1063,1,1,0.4,5527,0.0,False,,,140316.0,437221.2,-296905.2,657500,-0.4516,999.0,-2624589.29,98221.2,-370696.87,-0.5638,-3113482.03,182410.8,-237608.0,-0.3614,-2231726.93
-33.9543732,150.8582646,,ALDI,supermarket,NSW,Item 133,70%,0.37,Pharmacy 4 Less,24095,24095,23,65,0.2,62647,0.0,False,,,1590270.0,1547189.0,43081.0,657500,0.0655,15.26,-372074.98,1113189.0,-172778.14,-0.2628,-1802208.95,2067351.0,374319.87,0.5693,1822485.56
-34.0853256,150.8009167,,Aldi,supermarket,NSW,Item 133,70%,1.09,Bradbury Village Pharmacy,1990,1990,11,25,0.2,5174,0.0,False,YES,NSW Growth Area - Greater Macarthur,131340.0,430938.0,-299598.0,657500,-0.4557,999.0,-2642429.93,91938.0,-371922.09,-0.5657,-3121599.52,170742.0,-241925.46,-0.3679,-2260331.42
-29.5418941,150.5745098,,Carlo's IGA + Liquor,supermarket,NSW,Item 133,65%,0.13,Warialda Pharmacy,1130,1130,1,1,0.4,5876,0.0,False,,,149160.0,443412.0,-294252.0,657500,-0.4475,999.0,-2607011.02,104412.0,-369489.66,-0.562,-3105483.92,193908.0,-233354.04,-0.3549,-2203543.09
-35.0703788,150.6744601,,Coles,supermarket,NSW,Item 133,75%,0.10,Hopes Pharmacy,4030,4030,4,7,0.2,10478,0.0,False,,,265980.0,525186.0,-259206.0,657500,-0.3942,999.0,-2374820.37,186186.0,-353543.73,-0.5377,-2999837.17,345774.0,-177163.62,-0.2695,-1831264.08
-33.8126989,151.0420988,,Aldi,supermarket,NSW,Item 133,70%,1.21,Springfield Pharmacy,19745,19745,55,174,0.2,51337,0.0,False,,,1303170.0,1251219.0,51951.0,657500,0.079,12.66,-313308.47,912219.0,-211967.29,-0.3224,-2061849.26,1694121.0,236224.77,0.3593,907562.57
-33.9324554,150.8128102,,IGA Austral,supermarket,NSW,Item 133,65%,0.30,Austral Pharmacy,24095,24095,12,41,0.2,62647,0.0,False,,,1590270.0,1547189.0,43081.0,657500,0.0655,15.26,-372074.98,1113189.0,-172778.14,-0.2628,-1802208.95,2067351.0,374319.87,0.5693,1822485.56
-33.8197618,151.0203386,,Woolworths,supermarket,NSW,Item 133,75%,1.07,Cincotta Discount Chemist Harris Park,19745,19745,55,174,0.2,51337,0.0,False,,,1303170.0,1251219.0,51951.0,657500,0.079,12.66,-313308.47,912219.0,-211967.29,-0.3224,-2061849.26,1694121.0,236224.77,0.3593,907562.57
-35.6304026,144.1277499,,Barham IGA,supermarket,NSW,Item 133,65%,0.12,TerryWhite Chemmart Pharmacy Barham,1134,1134,1,1,0.4,5896,0.0,False,,,149688.0,443781.6,-294093.6,657500,-0.4473,999.0,-2605961.57,104781.6,-369417.59,-0.5619,-3105006.42,194594.4,-233100.07,-0.3545,-2201860.48
-34.0326914,151.0739521,,ALDI,supermarket,NSW,Item 133,70%,0.11,Priceline Pharmacy,98973,50000,38,107,0.2,130000,0.0,False,,,3300000.0,2744000.0,556000.0,657500,0.8456,1.18,3026172.93,2310000.0,-48650.0,-0.074,-979821.38,4290000.0,1196700.0,1.8201,7271009.7
-33.765396,150.9085673,,Summit,shopping_centre,NSW,Item 134,55%,0.24,SuperChem Blacktown,30518,30518,32,104,0.2,79346,0.0,False,,,2014188.0,1843931.6,170256.4,657500,0.2589,3.86,470501.6,1409931.6,-114913.34,-0.1748,-1418836.6,2618444.4,578224.43,0.8794,3173416.67
-35.3402,149.1031,"4, Gilmore Crescent, Garran, District of Woden Valley, Australian Capital Territory, 2605, Australia",Garran Medical Centre,medical_centre,NSW,Item 136,95%,0.48,Capital Chemist Garran,37511,37511,24,58,0.2,97528,6.4,False,,,2475726.0,2167008.2,308717.8,657500,0.4695,2.13,1387851.44,1733008.2,-161163.4,-0.2451,-1725257.66,3218443.8,800224.21,1.2171,4644234.25
-33.612475599999996,151.13748520000001,,Coles,supermarket,NSW,"Item 133, Item 134",75%,0.11,Berowra Village Pharmacy,799,799,3,8,0.2,2077,0.0,False,,,52734.0,375913.8,-323179.8,657500,-0.4915,999.0,-2798666.69,36913.8,-382651.81,-0.582,-3192687.25,68554.2,-279734.95,-0.4255,-2510831.02
-31.0567798,151.0543237,,Summers IGA Rite-Way,supermarket,NSW,Item 133,65%,0.15,The Centre Pharmacy Kootingal,200,200,1,1,0.4,1040,0.0,False,,,26400.0,357480.0,-331080.0,657500,-0.5035,999.0,-2851007.97,18480.0,-386246.4,-0.5874,-3216502.53,34320.0,-292401.6,-0.4447,-2594751.54
-34.5708912,150.8005735,,ALDI,supermarket,NSW,Item 133,70%,1.07,Albion Park Rail Pharmacy,700,700,11,23,0.2,1820,0.0,False,,,46200.0,371340.0,-325140.0,657500,-0.4945,999.0,-2811653.62,32340.0,-383543.7,-0.5833,-3198596.3,60060.0,-282877.8,-0.4302,-2531653.41
-35.9124516,145.6892192,,Barooga IGA Local Grocer + Liquor,supermarket,NSW,Item 133,65%,0.15,Unknown Pharmacy,1752,1752,3,3,0.2,4555,0.0,False,,,115632.0,419942.4,-304310.4,657500,-0.4628,999.0,-2673651.05,80942.4,-374066.23,-0.5689,-3135805.13,150321.6,-249481.01,-0.3794,-2310389.27
-33.9172651,150.9283216,,Sydney Southwest Private Hospital,hospital,NSW,Item 135,55%,0.39,Chemist Warehouse Liverpool Westfield,24095,24095,39,113,0.2,62647,0.0,False,,,1590270.0,1547189.0,43081.0,657500,0.0655,15.26,-372074.98,1113189.0,-172778.14,-0.2628,-1802208.95,2067351.0,374319.87,0.5693,1822485.56
-33.9390557,150.8446601,,Aldi,supermarket,NSW,Item 133,70%,0.19,Priceline Pharmacy Carnes Hill,24095,24095,20,64,0.2,62647,0.0,False,,,1590270.0,1547189.0,43081.0,657500,0.0655,15.26,-372074.98,1113189.0,-172778.14,-0.2628,-1802208.95,2067351.0,374319.87,0.5693,1822485.56
-33.9137362,151.0340227,,ALDI,supermarket,NSW,Item 133,70%,0.39,Rickard Road Chemist,24095,24095,55,200,0.2,62647,0.0,False,,,1590270.0,1547189.0,43081.0,657500,0.0655,15.26,-372074.98,1113189.0,-172778.14,-0.2628,-1802208.95,2067351.0,374319.87,0.5693,1822485.56
-33.9946629,150.7245064,,Aldi,supermarket,NSW,Item 133,70%,1.58,Oran Park Discount Chemist,500,500,5,25,0.2,1300,0.0,False,,,33000.0,362100.0,-329100.0,657500,-0.5005,999.0,-2837889.86,23100.0,-385345.5,-0.5861,-3210533.79,42900.0,-289227.0,-0.4399,-2573718.83
-35.2210709,146.7142148,,Lockhart IGA,supermarket,NSW,Item 133,65%,0.15,TerryWhite Chemmart Lockhart,830,830,2,2,0.3,3237,0.0,False,,,82170.0,396519.0,-314349.0,657500,-0.4781,999.0,-2740159.89,57519.0,-378633.79,-0.5759,-3166066.65,106821.0,-265576.23,-0.4039,-2417025.12
-31.969309,152.5838868,,Coles,supermarket,NSW,"Item 130, Item 133",80%,2.46,Old Bar Pharmacy,100,100,1,1,0.4,520,0.0,False,,,13200.0,348240.0,-335040.0,657500,-0.5096,999.0,-2877244.2,9240.0,-388048.2,-0.5902,-3228440.02,17160.0,-298750.8,-0.4544,-2636816.97
-34.0571349,150.6936141,,Coles,supermarket,NSW,Item 133,75%,0.26,Camden Day and Night Pharmacy,2662,2662,10,18,0.2,6921,0.0,False,,,175692.0,461984.4,-286292.4,657500,-0.4354,999.0,-2554276.19,122984.4,-365868.04,-0.5565,-3081489.57,228399.6,-220592.15,-0.3355,-2118991.59
-33.7301922,151.1577059,,Coles,supermarket,NSW,Item 133,75%,0.10,O'Loughlin's Medical Pharmacy St Ives,11626,11626,22,104,0.2,30227,0.0,False,,,767316.0,876121.2,-108805.2,657500,-0.1655,999.0,-1378368.29,537121.2,-285111.37,-0.4336,-2546451.47,997510.8,63979.0,0.0973,-233619.25
-33.9186845,150.8550807,,Aldi,supermarket,NSW,Item 133,70%,0.14,TerryWhite Chemmart Landmark,7964,7964,20,76,0.2,20706,0.0,False,,,525624.0,706936.8,-181312.8,657500,-0.2758,999.0,-1858753.69,367936.8,-318102.32,-0.4838,-2765026.83,683311.2,-52274.86,-0.0795,-1003837.18
-34.050054700000004,150.75613486666666,,Coles,supermarket,NSW,"Item 133, Item 134",75%,0.41,Pharmacy Focus Mount Annan,2238,2238,12,33,0.2,5818,0.0,False,,,147708.0,442395.6,-294687.6,657500,-0.4482,999.0,-2609897.0,103395.6,-369687.86,-0.5623,-3106797.04,192020.4,-234052.45,-0.356,-2208170.29
-34.4474514,150.439815,,ALDI,supermarket,NSW,Item 133,70%,0.18,Priceline Pharmacy Mittagong Marketplace,1000,1000,9,9,0.2,2600,0.0,False,,,66000.0,385200.0,-319200.0,657500,-0.4855,999.0,-2772299.28,46200.0,-380841.0,-0.5792,-3180690.07,85800.0,-273354.0,-0.4157,-2468555.27
-34.0235851,150.7707977,,The George Centre,hospital,NSW,Item 135,55%,0.73,Cincotta Discount Chemist Gregory Hills,2238,2238,16,39,0.2,5818,0.0,False,,,147708.0,442395.6,-294687.6,657500,-0.4482,999.0,-2609897.0,103395.6,-369687.86,-0.5623,-3106797.04,192020.4,-234052.45,-0.356,-2208170.29
-33.718077,151.1164002,,IGA Local Grocer Wahroonga Fresh,supermarket,NSW,Item 133,65%,0.13,Chemist On Redleaf,22168,22168,35,89,0.2,57636,0.0,False,,,1463088.0,1363161.6,99926.4,657500,0.152,6.58,4543.48,1024161.6,-190138.49,-0.2892,-1917226.62,1902014.4,313145.33,0.4763,1417185.19
-33.8162,151.008,,Westfield Parramatta,shopping_centre,NSW,Item 132,85%,0.42,Shopsmart Wholesale Pharmacy,19745,19745,55,167,0.2,51337,0.0,False,,,1303170.0,1251219.0,51951.0,657500,0.079,12.66,-313308.47,912219.0,-211967.29,-0.3224,-2061849.26,1694121.0,236224.77,0.3593,907562.57
-34.0755523,150.8049466,,Campbelltown Private Hospital,hospital,NSW,Item 135,55%,0.36,Chemist Warehouse,1990,1990,12,26,0.2,5174,0.0,False,YES,NSW Growth Area - Greater Macarthur,131340.0,430938.0,-299598.0,657500,-0.4557,999.0,-2642429.93,91938.0,-371922.09,-0.5657,-3121599.52,170742.0,-241925.46,-0.3679,-2260331.42
-33.79231575,150.99887605,,Woolworths,supermarket,NSW,"Item 133, Item 134",75%,0.34,Michael Tolar Soul Pattinson Chemist,19745,19745,50,169,0.2,51337,0.0,False,,,1303170.0,1251219.0,51951.0,657500,0.079,12.66,-313308.47,912219.0,-211967.29,-0.3224,-2061849.26,1694121.0,236224.77,0.3593,907562.57
-33.970356,150.8583333,,Coles,supermarket,NSW,Item 133,75%,0.10,Chemistworks Edmondson Park,24095,24095,18,55,0.2,62647,0.0,False,,,1590270.0,1547189.0,43081.0,657500,0.0655,15.26,-372074.98,1113189.0,-172778.14,-0.2628,-1802208.95,2067351.0,374319.87,0.5693,1822485.56
-33.7689648,151.0299572,,ALDI,supermarket,NSW,Item 133,70%,0.15,Priceline Pharmacy North Rocks,14977,14977,36,169,0.2,38940,0.0,False,,,988482.0,1030937.4,-42455.4,657500,-0.0646,999.0,-938780.23,691937.4,-254922.21,-0.3877,-2346438.91,1285026.6,170359.84,0.2591,471186.94
-36.5040414,148.3065789,,Foodworks,supermarket,NSW,Item 133,55%,0.12,Capital Chemist Thredbo,500,500,1,1,0.4,2600,0.0,False,,,66000.0,385200.0,-319200.0,657500,-0.4855,999.0,-2772299.28,46200.0,-380841.0,-0.5792,-3180690.07,85800.0,-273354.0,-0.4157,-2468555.27
-33.8642366,150.9388534,,Woolworths,supermarket,NSW,Item 133,75%,0.12,Lucas Pharmacy,10242,10242,46,149,0.2,26629,0.0,False,,,675972.0,812180.4,-136208.4,657500,-0.2072,999.0,-1559923.01,473180.4,-297579.82,-0.4526,-2629058.87,878763.6,20042.53,0.0305,-524711.99
-33.7452152,150.9539318,,Norwest Private Hospital,hospital,NSW,Item 135,55%,0.22,Optimal Pharmacy Plus Bella Vista,47176,47176,37,121,0.2,122657,0.0,False,,,3113616.0,2613531.2,500084.8,657500,0.7606,1.31,2655717.34,2179531.2,-74091.42,-0.1127,-1148378.67,4047700.8,1107049.3,1.6837,6677045.9
-33.8028936,150.9825115,,Westmead Private Hospital,hospital,NSW,Item 135,55%,0.30,Darcy Road Pharmacy,19745,19745,51,167,0.2,51337,0.0,False,,,1303170.0,1251219.0,51951.0,657500,0.079,12.66,-313308.47,912219.0,-211967.29,-0.3224,-2061849.26,1694121.0,236224.77,0.3593,907562.57
-33.8962276,150.9372996,,Cabramatta Day Surgery,hospital,NSW,Item 135,40%,0.13,Local Care Pharmacy Cabramatta,24095,24095,51,133,0.2,62647,0.0,False,,,1590270.0,1547189.0,43081.0,657500,0.0655,15.26,-372074.98,1113189.0,-172778.14,-0.2628,-1802208.95,2067351.0,374319.87,0.5693,1822485.56
-33.5804968,150.7197634,,Aldi,supermarket,NSW,Item 133,70%,0.19,TerryWhite Chemmart North Richmond,1069,1069,5,11,0.2,2779,0.0,False,,,70554.0,388387.8,-317833.8,657500,-0.4834,999.0,-2763247.78,49387.8,-380219.38,-0.5783,-3176571.64,91720.2,-271163.53,-0.4124,-2454042.7
-33.8933408,150.8900713,,Aldi,supermarket,NSW,Item 133,70%,0.13,Bonnyrigg Pharmacy,24095,24095,48,91,0.2,62647,0.0,False,,,1590270.0,1547189.0,43081.0,657500,0.0655,15.26,-372074.98,1113189.0,-172778.14,-0.2628,-1802208.95,2067351.0,374319.87,0.5693,1822485.56
-34.0412488,150.7346059,,Aldi,supermarket,NSW,Item 133,70%,0.24,Narellan Chemist,2238,2238,16,32,0.2,5818,0.0,False,,,147708.0,442395.6,-294687.6,657500,-0.4482,999.0,-2609897.0,103395.6,-369687.86,-0.5623,-3106797.04,192020.4,-234052.45,-0.356,-2208170.29
-33.6929978,151.0186481,,Aldi,supermarket,NSW,Item 133,70%,0.11,Friendly Pharmacy Dural,22168,22168,16,76,0.2,57636,0.0,False,,,1463088.0,1363161.6,99926.4,657500,0.152,6.58,4543.48,1024161.6,-190138.49,-0.2892,-1917226.62,1902014.4,313145.33,0.4763,1417185.19
-28.737205,152.6215277,,Foodworks,supermarket,NSW,Item 133,55%,0.11,Bonalbo Pharmacy,278,278,1,1,0.4,1445,0.0,False,,,36696.0,364687.2,-327991.2,657500,-0.4988,999.0,-2830543.71,25687.2,-384841.0,-0.5853,-3207191.29,47704.8,-287449.22,-0.4372,-2561940.51
-33.8079059,150.9881241,,Westmead Shopping Village,shopping_centre,NSW,Item 134,55%,0.21,Priceline Pharmacy,19745,19745,48,170,0.2,51337,0.0,False,,,1303170.0,1251219.0,51951.0,657500,0.079,12.66,-313308.47,912219.0,-211967.29,-0.3224,-2061849.26,1694121.0,236224.77,0.3593,907562.57
-33.7728999,150.971111,,Coles,supermarket,NSW,Item 133,75%,0.16,TerryWhite Chemmart Winston Hills,16439,16439,38,134,0.2,42741,0.0,False,,,1084974.0,1098481.8,-13507.8,657500,-0.0205,999.0,-746993.38,759481.8,-241751.05,-0.3677,-2259175.89,1410466.2,216772.49,0.3297,778685.19
-33.5987603,150.7544025,,Aldi,supermarket,NSW,Item 133,70%,0.25,Blooms The Chemist Richmond,100,100,5,15,0.2,260,0.0,False,,,6600.0,343620.0,-337020.0,657500,-0.5126,999.0,-2890362.32,4620.0,-388949.1,-0.5916,-3234408.76,8580.0,-301925.4,-0.4592,-2657849.68
-33.9532004,151.014525,,Coles,supermarket,NSW,Item 133,75%,0.13,Pharmacy 4 Less Revesby,24095,24095,33,143,0.2,62647,0.0,False,,,1590270.0,1547189.0,43081.0,657500,0.0655,15.26,-372074.98,1113189.0,-172778.14,-0.2628,-1802208.95,2067351.0,374319.87,0.5693,1822485.56
-33.8175801,151.0044795,,Woolworths metro,supermarket,NSW,Item 133,75%,0.14,Chemist Warehouse,19745,19745,55,167,0.2,51337,0.0,False,,,1303170.0,1251219.0,51951.0,657500,0.079,12.66,-313308.47,912219.0,-211967.29,-0.3224,-2061849.26,1694121.0,236224.77,0.3593,907562.57
-33.816051,150.9697549,,Aldi,supermarket,NSW,Item 133,70%,0.10,On's Pharmacy,19745,19745,50,166,0.2,51337,0.0,False,,,1303170.0,1251219.0,51951.0,657500,0.079,12.66,-313308.47,912219.0,-211967.29,-0.3224,-2061849.26,1694121.0,236224.77,0.3593,907562.57
-33.7138357,150.9729918,,Aldi,supermarket,NSW,Item 133,70%,0.11,National Pharmacies,47176,47176,29,92,0.2,122657,0.0,False,,,3113616.0,2613531.2,500084.8,657500,0.7606,1.31,2655717.34,2179531.2,-74091.42,-0.1127,-1148378.67,4047700.8,1107049.3,1.6837,6677045.9
-34.0683674,150.8111495,,Coles,supermarket,NSW,Item 133,75%,0.10,Shopsmart Wholesale Pharmacy Campbelltown,1990,1990,13,30,0.2,5174,0.0,False,YES,NSW Growth Area - Greater Macarthur,131340.0,430938.0,-299598.0,657500,-0.4557,999.0,-2642429.93,91938.0,-371922.09,-0.5657,-3121599.52,170742.0,-241925.46,-0.3679,-2260331.42
-33.0153634,151.5933954,,Toronto Private Hospital,hospital,NSW,Item 135,55%,0.25,Priceline Pharmacy Toronto,1000,1000,6,23,0.2,2600,0.0,False,,,66000.0,385200.0,-319200.0,657500,-0.4855,999.0,-2772299.28,46200.0,-380841.0,-0.5792,-3180690.07,85800.0,-273354.0,-0.4157,-2468555.27
-33.9762791,150.8123905,,Coles,supermarket,NSW,Item 133,75%,0.13,TerryWhite Chemmart Willowdale Compounding,24095,24095,8,44,0.2,62647,0.0,False,,,1590270.0,1547189.0,43081.0,657500,0.0655,15.26,-372074.98,1113189.0,-172778.14,-0.2628,-1802208.95,2067351.0,374319.87,0.5693,1822485.56
-33.2648843,151.5390692,,Coles,supermarket,NSW,Item 133,75%,0.11,Cincotta Discount Chemist Toukley,500,500,13,24,0.2,1300,0.0,False,,,33000.0,362100.0,-329100.0,657500,-0.5005,999.0,-2837889.86,23100.0,-385345.5,-0.5861,-3210533.79,42900.0,-289227.0,-0.4399,-2573718.83
-33.623517,150.8364678,,ALDI,supermarket,NSW,Item 133,70%,0.47,Good Price Pharmacy Warehouse McGraths Hill,100,100,6,21,0.2,260,0.0,False,,,6600.0,343620.0,-337020.0,657500,-0.5126,999.0,-2890362.32,4620.0,-388949.1,-0.5916,-3234408.76,8580.0,-301925.4,-0.4592,-2657849.68
-34.0538968,151.1524304,,Woolworths Metro,supermarket,NSW,Item 133,75%,0.13,Blooms The Chemist Cronulla,100,100,17,56,0.2,260,0.0,False,,,6600.0,343620.0,-337020.0,657500,-0.5126,999.0,-2890362.32,4620.0,-388949.1,-0.5916,-3234408.76,8580.0,-301925.4,-0.4592,-2657849.68
-34.0518247,151.1526635,,Lloyds Supa IGA,supermarket,NSW,Item 133,65%,0.10,Blooms The Chemist Cronulla,100,100,21,59,0.2,260,0.0,False,,,6600.0,343620.0,-337020.0,657500,-0.5126,999.0,-2890362.32,4620.0,-388949.1,-0.5916,-3234408.76,8580.0,-301925.4,-0.4592,-2657849.68
-37.7474,144.816,"49, Novara Parade, St Albans South, St Albans, Melbourne, City of Brimbank, Victoria, 3021, Australia",Sunshine Hospital Medical Centre,medical_centre,NSW,Item 136,95%,1.32,Thao Nguyen Pharmacy - St Albans,1000,1000,31,128,0.2,2600,12.0,False,,,82500.0,396750.0,-314250.0,657500,-0.4779,999.0,-2739503.99,57750.0,-378588.75,-0.5758,-3165768.22,107250.0,-265417.5,-0.4037,-2415973.49
-37.8978,144.6629,"18-20, Glen Street, Werribee, Melbourne, City of Wyndham, Victoria, 3030, Australia",Werribee Medical Centre,medical_centre,NSW,Item 136,95%,0.32,Minh Ha Pharmacist Advice,1000,1000,18,41,0.2,2600,8.0,False,,,82500.0,396750.0,-314250.0,657500,-0.4779,999.0,-2739503.99,57750.0,-378588.75,-0.5758,-3165768.22,107250.0,-265417.5,-0.4037,-2415973.49
