[
  {
    "name": "Rockbank - Mount Cottrell",
    "state": "VIC",
    "growth": 4145,
    "growth_pct": 15.2,
    "lat": -37.75,
    "lon": 144.65,
    "nearest_dist": 3.5,
    "nearest_name": "Woodlea Pharmacy",
    "pharm_1km": 0,
    "pharm_3km": 0,
    "pharm_5km": 3,
    "gp_count": 0,
    "score": 100,
    "notes": "Melbourne outer west"
  },
  {
    "name": "Ripley",
    "state": "QLD",
    "growth": 2700,
    "growth_pct": 15.0,
    "lat": -27.71,
    "lon": 152.83,
    "nearest_dist": 4.2,
    "nearest_name": "Pharmacy 4 Less Ripley",
    "pharm_1km": 0,
    "pharm_3km": 0,
    "pharm_5km": 1,
    "gp_count": 0,
    "score": 85,
    "notes": "Ipswich"
  },
  {
    "name": "Fraser Rise - Plumpton",
    "state": "VIC",
    "growth": 4316,
    "growth_pct": 26.3,
    "lat": -37.68,
    "lon": 144.72,
    "nearest_dist": 1.8,
    "nearest_name": "Hillside Pharmacy",
    "pharm_1km": 0,
    "pharm_3km": 1,
    "pharm_5km": 5,
    "gp_count": 1,
    "score": 80,
    "notes": "Melbourne outer west"
  },
  {
    "name": "Box Hill - Nelson",
    "state": "NSW",
    "growth": 4042,
    "growth_pct": 22.0,
    "lat": -33.64,
    "lon": 150.86,
    "nearest_dist": 2.4,
    "nearest_name": "Good Price Pharmacy Warehouse McGraths Hill",
    "pharm_1km": 0,
    "pharm_3km": 2,
    "pharm_5km": 4,
    "gp_count": 0,
    "score": 80,
    "notes": "Sydney outer NW"
  },
  {
    "name": "Clyde North - South",
    "state": "VIC",
    "growth": 3932,
    "growth_pct": 19.0,
    "lat": -38.12,
    "lon": 145.35,
    "nearest_dist": 2.7,
    "nearest_name": "TerryWhite Chemmart Clyde",
    "pharm_1km": 0,
    "pharm_3km": 2,
    "pharm_5km": 4,
    "gp_count": 1,
    "score": 80,
    "notes": "Melbourne outer SE"
  },
  {
    "name": "Chambers Flat - Logan Reserve",
    "state": "QLD",
    "growth": 2400,
    "growth_pct": 19.0,
    "lat": -27.78,
    "lon": 153.1,
    "nearest_dist": 1.5,
    "nearest_name": "Logan Village Pharmacy",
    "pharm_1km": 0,
    "pharm_3km": 3,
    "pharm_5km": 3,
    "gp_count": 2,
    "score": 80,
    "notes": "Logan"
  },
  {
    "name": "Virginia - Waterloo Corner",
    "state": "SA",
    "growth": 900,
    "growth_pct": 14.0,
    "lat": -34.72,
    "lon": 138.57,
    "nearest_dist": 3.9,
    "nearest_name": "Chemist King Springbank",
    "pharm_1km": 0,
    "pharm_3km": 0,
    "pharm_5km": 2,
    "gp_count": 0,
    "score": 70,
    "notes": "Adelaide outer N"
  },
  {
    "name": "Caloundra West - Baringa",
    "state": "QLD",
    "growth": 2500,
    "growth_pct": 12.5,
    "lat": -26.81,
    "lon": 153.1,
    "nearest_dist": 1.6,
    "nearest_name": "Ace Pharmacy Baringa",
    "pharm_1km": 0,
    "pharm_3km": 9,
    "pharm_5km": 17,
    "gp_count": 2,
    "score": 65,
    "notes": "Sunshine Coast"
  },
  {
    "name": "Alkimos - Eglinton",
    "state": "WA",
    "growth": 2100,
    "growth_pct": 9.5,
    "lat": -31.63,
    "lon": 115.66,
    "nearest_dist": 1.8,
    "nearest_name": "Alkimos Beach Pharmacy",
    "pharm_1km": 0,
    "pharm_3km": 1,
    "pharm_5km": 7,
    "gp_count": 0,
    "score": 65,
    "notes": "Perth outer NW"
  },
  {
    "name": "Munno Para West - Angle Vale",
    "state": "SA",
    "growth": 2100,
    "growth_pct": 11.0,
    "lat": -34.66,
    "lon": 138.65,
    "nearest_dist": 1.6,
    "nearest_name": "Terrywhite Chemmart Angle Vale",
    "pharm_1km": 0,
    "pharm_3km": 1,
    "pharm_5km": 6,
    "gp_count": 1,
    "score": 65,
    "notes": "Adelaide outer N"
  },
  {
    "name": "Googong",
    "state": "NSW",
    "growth": 800,
    "growth_pct": 16.0,
    "lat": -35.44,
    "lon": 149.22,
    "nearest_dist": 2.2,
    "nearest_name": "Googong Discount Pharmacy",
    "pharm_1km": 0,
    "pharm_3km": 2,
    "pharm_5km": 2,
    "gp_count": 1,
    "score": 65,
    "notes": "Outside ACT"
  },
  {
    "name": "Brabham - Henley Brook",
    "state": "WA",
    "growth": 1500,
    "growth_pct": 10.0,
    "lat": -31.81,
    "lon": 115.98,
    "nearest_dist": 2.1,
    "nearest_name": "Pharmacy 777 Aveley",
    "pharm_1km": 0,
    "pharm_3km": 3,
    "pharm_5km": 8,
    "gp_count": 3,
    "score": 50,
    "notes": "Perth outer NE"
  },
  {
    "name": "Baldivis - North",
    "state": "WA",
    "growth": 1500,
    "growth_pct": 8.0,
    "lat": -32.33,
    "lon": 115.79,
    "nearest_dist": 2.3,
    "nearest_name": "Clinicare Compounding Pharmacy Baldivis",
    "pharm_1km": 0,
    "pharm_3km": 3,
    "pharm_5km": 13,
    "gp_count": 1,
    "score": 50,
    "notes": "Perth outer S"
  },
  {
    "name": "Greenbank - North Maclean",
    "state": "QLD",
    "growth": 1500,
    "growth_pct": 13.0,
    "lat": -27.72,
    "lon": 153.0,
    "nearest_dist": 2.5,
    "nearest_name": "Greenbank Pharmacy",
    "pharm_1km": 0,
    "pharm_3km": 1,
    "pharm_5km": 3,
    "gp_count": 0,
    "score": 50,
    "notes": "Logan"
  },
  {
    "name": "Mickleham - Yuroke",
    "state": "VIC",
    "growth": 1800,
    "growth_pct": 11.0,
    "lat": -37.53,
    "lon": 144.89,
    "nearest_dist": 2.8,
    "nearest_name": "Chemist Warehouse Merrifield City Shopping Centre Mickleham",
    "pharm_1km": 0,
    "pharm_3km": 0,
    "pharm_5km": 2,
    "gp_count": 0,
    "score": 50,
    "notes": "Melbourne outer N"
  },
  {
    "name": "Schofields - East",
    "state": "NSW",
    "growth": 2700,
    "growth_pct": 14.0,
    "lat": -33.7,
    "lon": 150.89,
    "nearest_dist": 1.4,
    "nearest_name": "TerryWhite Chemmart Schofields",
    "pharm_1km": 0,
    "pharm_3km": 3,
    "pharm_5km": 15,
    "gp_count": 6,
    "score": 35,
    "notes": "Sydney outer NW"
  },
  {
    "name": "Tarneit - North",
    "state": "VIC",
    "growth": 2300,
    "growth_pct": 20.3,
    "lat": -37.83,
    "lon": 144.65,
    "nearest_dist": 0.5,
    "nearest_name": "Direct Chemist Outlet Riverdale",
    "pharm_1km": 1,
    "pharm_3km": 3,
    "pharm_5km": 7,
    "gp_count": 1,
    "score": 30,
    "notes": "Melbourne outer W"
  },
  {
    "name": "Marsden Park - Shanes Park",
    "state": "NSW",
    "growth": 3497,
    "growth_pct": 14.7,
    "lat": -33.7,
    "lon": 150.83,
    "nearest_dist": 1.0,
    "nearest_name": "Priceline Pharmacy Marsden Park",
    "pharm_1km": 1,
    "pharm_3km": 2,
    "pharm_5km": 8,
    "gp_count": 3,
    "score": 15,
    "notes": "Sydney outer NW"
  },
  {
    "name": "Taylor",
    "state": "ACT",
    "growth": 1050,
    "growth_pct": 28.7,
    "lat": -35.19,
    "lon": 149.07,
    "nearest_dist": 0.9,
    "nearest_name": "Spence Pharmacy",
    "pharm_1km": 2,
    "pharm_3km": 4,
    "pharm_5km": 9,
    "gp_count": 1,
    "score": 15,
    "notes": "Canberra outer N"
  },
  {
    "name": "Austral - Greendale",
    "state": "NSW",
    "growth": 1800,
    "growth_pct": 16.0,
    "lat": -33.93,
    "lon": 150.81,
    "nearest_dist": 0.4,
    "nearest_name": "Austral Pharmacist Advice",
    "pharm_1km": 2,
    "pharm_3km": 2,
    "pharm_5km": 7,
    "gp_count": 0,
    "score": 15,
    "notes": "Sydney outer SW"
  },
  {
    "name": "Mount Barker",
    "state": "SA",
    "growth": 1100,
    "growth_pct": 3.0,
    "lat": -35.07,
    "lon": 138.86,
    "nearest_dist": 0.3,
    "nearest_name": "TerryWhite Chemmart Mt Barker Village",
    "pharm_1km": 4,
    "pharm_3km": 7,
    "pharm_5km": 9,
    "gp_count": 3,
    "score": 0,
    "notes": "Adelaide Hills"
  }
]