[
  {
    "index": 1,
    "state": "TAS",
    "lat": -42.871,
    "lng": 147.345,
    "rules": "Item 136",
    "confidence": 95,
    "poi_name": "Ochre Health Medical Centre Clarence",
    "nearest_km": 1.65,
    "nearest_name": "HPS Pharmacies Hobart",
    "search_radius_km": 0.5,
    "db_pharmacies_in_radius": 0,
    "db_pharmacies_in_2x_radius": 0,
    "google_pharmacies_found": 0,
    "new_pharmacies": 0,
    "status": "db_confirmed",
    "db_nearby_names": ""
  },
  {
    "index": 59,
    "state": "VIC",
    "lat": -37.7474,
    "lng": 144.816,
    "rules": "Item 136",
    "confidence": 95,
    "poi_name": "Sunshine Hospital Medical Centre",
    "nearest_km": 1.32,
    "nearest_name": "Thao Nguyen Pharmacy - St Albans",
    "search_radius_km": 0.5,
    "db_pharmacies_in_radius": 0,
    "db_pharmacies_in_2x_radius": 0,
    "google_pharmacies_found": 0,
    "new_pharmacies": 0,
    "status": "db_confirmed",
    "db_nearby_names": ""
  },
  {
    "index": 60,
    "state": "VIC",
    "lat": -35.2341,
    "lng": 149.0178,
    "rules": "Item 136",
    "confidence": 95,
    "poi_name": "Kippax Medical Centre",
    "nearest_km": 0.89,
    "nearest_name": "TerryWhite Chemmart",
    "search_radius_km": 0.5,
    "db_pharmacies_in_radius": 0,
    "db_pharmacies_in_2x_radius": 1,
    "google_pharmacies_found": 0,
    "new_pharmacies": 0,
    "status": "db_confirmed",
    "db_nearby_names": ""
  },
  {
    "index": 61,
    "state": "VIC",
    "lat": -37.7446,
    "lng": 145.0073,
    "rules": "Item 136",
    "confidence": 95,
    "poi_name": "Preston Medical Centre",
    "nearest_km": 0.68,
    "nearest_name": "Direct Chemist Outlet Preston",
    "search_radius_km": 0.5,
    "db_pharmacies_in_radius": 0,
    "db_pharmacies_in_2x_radius": 5,
    "google_pharmacies_found": 0,
    "new_pharmacies": 0,
    "status": "db_confirmed",
    "db_nearby_names": ""
  },
  {
    "index": 62,
    "state": "VIC",
    "lat": -37.8913,
    "lng": 144.7471,
    "rules": "Item 136",
    "confidence": 95,
    "poi_name": "Point Cook Medical Centre",
    "nearest_km": 0.66,
    "nearest_name": "Priceline Pharmacy Sanctuary Lakes",
    "search_radius_km": 0.5,
    "db_pharmacies_in_radius": 0,
    "db_pharmacies_in_2x_radius": 2,
    "google_pharmacies_found": 0,
    "new_pharmacies": 0,
    "status": "db_confirmed",
    "db_nearby_names": ""
  },
  {
    "index": 63,
    "state": "VIC",
    "lat": -37.849,
    "lng": 144.6958,
    "rules": "Item 136",
    "confidence": 95,
    "poi_name": "Tarneit Medical Centre",
    "nearest_km": 0.62,
    "nearest_name": "Tarneit Pharmacy",
    "search_radius_km": 0.5,
    "db_pharmacies_in_radius": 0,
    "db_pharmacies_in_2x_radius": 3,
    "google_pharmacies_found": 0,
    "new_pharmacies": 0,
    "status": "db_confirmed",
    "db_nearby_names": ""
  },
  {
    "index": 64,
    "state": "VIC",
    "lat": -38.035,
    "lng": 145.3513,
    "rules": "Item 136",
    "confidence": 95,
    "poi_name": "Berwick Medical Centre",
    "nearest_km": 0.61,
    "nearest_name": "Berwick Pharmacy",
    "search_radius_km": 0.5,
    "db_pharmacies_in_radius": 0,
    "db_pharmacies_in_2x_radius": 3,
    "google_pharmacies_found": 0,
    "new_pharmacies": 0,
    "status": "db_confirmed",
    "db_nearby_names": ""
  },
  {
    "index": 65,
    "state": "VIC",
    "lat": -37.6492,
    "lng": 145.0259,
    "rules": "Item 136",
    "confidence": 95,
    "poi_name": "IPN Medical Centre Epping",
    "nearest_km": 0.57,
    "nearest_name": "Chemist Warehouse Epping Homelife Centre",
    "search_radius_km": 0.5,
    "db_pharmacies_in_radius": 0,
    "db_pharmacies_in_2x_radius": 8,
    "google_pharmacies_found": 0,
    "new_pharmacies": 0,
    "status": "db_confirmed",
    "db_nearby_names": ""
  },
  {
    "index": 66,
    "state": "VIC",
    "lat": -37.6006,
    "lng": 144.9464,
    "rules": "Item 136",
    "confidence": 95,
    "poi_name": "Craigieburn Medical Centre",
    "nearest_km": 0.54,
    "nearest_name": "Priceline Pharmacy Craigieburn",
    "search_radius_km": 0.5,
    "db_pharmacies_in_radius": 0,
    "db_pharmacies_in_2x_radius": 2,
    "google_pharmacies_found": 0,
    "new_pharmacies": 0,
    "status": "db_confirmed",
    "db_nearby_names": ""
  },
  {
    "index": 73,
    "state": "VIC",
    "lat": -38.7020259,
    "lng": 145.8204444,
    "rules": "Item 131",
    "confidence": 85,
    "poi_name": "Venus Bay General Store",
    "nearest_km": 25.66,
    "nearest_name": "TerryWhite Chemmart Inverloch",
    "search_radius_km": 1.0,
    "db_pharmacies_in_radius": 0,
    "db_pharmacies_in_2x_radius": 0,
    "google_pharmacies_found": 0,
    "new_pharmacies": 0,
    "status": "db_confirmed",
    "db_nearby_names": ""
  },
  {
    "index": 74,
    "state": "VIC",
    "lat": -38.7004152,
    "lng": 145.8680277,
    "rules": "Item 131, Item 133",
    "confidence": 85,
    "poi_name": "IGA",
    "nearest_km": 20.86,
    "nearest_name": "TerryWhite Chemmart Inverloch",
    "search_radius_km": 0.5,
    "db_pharmacies_in_radius": 0,
    "db_pharmacies_in_2x_radius": 0,
    "google_pharmacies_found": 0,
    "new_pharmacies": 0,
    "status": "db_confirmed",
    "db_nearby_names": ""
  },
  {
    "index": 75,
    "state": "VIC",
    "lat": -38.5777296,
    "lng": 146.0137354,
    "rules": "Item 131, Item 133",
    "confidence": 85,
    "poi_name": "IGA Local Grocer and Liquor",
    "nearest_km": 15.95,
    "nearest_name": "TerryWhite Chemmart Leongatha",
    "search_radius_km": 0.5,
    "db_pharmacies_in_radius": 0,
    "db_pharmacies_in_2x_radius": 0,
    "google_pharmacies_found": 0,
    "new_pharmacies": 0,
    "status": "db_confirmed",
    "db_nearby_names": ""
  },
  {
    "index": 76,
    "state": "VIC",
    "lat": -36.6366404,
    "lng": 142.63177845,
    "rules": "Item 131",
    "confidence": 85,
    "poi_name": "Rupanyup Doctors Surgery",
    "nearest_km": 15.93,
    "nearest_name": "Murtoa Community Pharmacy",
    "search_radius_km": 1.0,
    "db_pharmacies_in_radius": 0,
    "db_pharmacies_in_2x_radius": 0,
    "google_pharmacies_found": 0,
    "new_pharmacies": 0,
    "status": "db_confirmed",
    "db_nearby_names": ""
  },
  {
    "index": 77,
    "state": "VIC",
    "lat": -38.3098264,
    "lng": 142.6416732,
    "rules": "Item 131",
    "confidence": 85,
    "poi_name": "Kirrae Health Service",
    "nearest_km": 15.72,
    "nearest_name": "Chemist Warehouse",
    "search_radius_km": 1.0,
    "db_pharmacies_in_radius": 0,
    "db_pharmacies_in_2x_radius": 0,
    "google_pharmacies_found": 0,
    "new_pharmacies": 0,
    "status": "db_confirmed",
    "db_nearby_names": ""
  },
  {
    "index": 78,
    "state": "VIC",
    "lat": -38.2420198,
    "lng": 144.1748634,
    "rules": "Item 131",
    "confidence": 85,
    "poi_name": "Moriac Medical Centre",
    "nearest_km": 15.68,
    "nearest_name": "Slade Pharmacy Waurn Ponds",
    "search_radius_km": 1.0,
    "db_pharmacies_in_radius": 0,
    "db_pharmacies_in_2x_radius": 0,
    "google_pharmacies_found": 0,
    "new_pharmacies": 0,
    "status": "db_confirmed",
    "db_nearby_names": ""
  },
  {
    "index": 79,
    "state": "VIC",
    "lat": -36.6307452,
    "lng": 142.6307295,
    "rules": "Item 131",
    "confidence": 85,
    "poi_name": "Rupanyup Supermarket",
    "nearest_km": 15.04,
    "nearest_name": "Murtoa Community Pharmacy",
    "search_radius_km": 1.0,
    "db_pharmacies_in_radius": 0,
    "db_pharmacies_in_2x_radius": 0,
    "google_pharmacies_found": 0,
    "new_pharmacies": 0,
    "status": "db_confirmed",
    "db_nearby_names": ""
  },
  {
    "index": 2,
    "state": "TAS",
    "lat": -42.8704,
    "lng": 147.3579,
    "rules": "Item 132",
    "confidence": 85,
    "poi_name": "Eastlands Shopping Centre",
    "nearest_km": 0.92,
    "nearest_name": "Bellerive Quay Pharmacy",
    "search_radius_km": 0.5,
    "db_pharmacies_in_radius": 0,
    "db_pharmacies_in_2x_radius": 2,
    "google_pharmacies_found": 0,
    "new_pharmacies": 0,
    "status": "db_confirmed",
    "db_nearby_names": ""
  },
  {
    "index": 4,
    "state": "TAS",
    "lat": -42.126071525,
    "lng": 148.290322925,
    "rules": "Item 130, Item 131, Item 133, Item 134",
    "confidence": 80,
    "poi_name": "Coles Bay Convenience",
    "nearest_km": 17.79,
    "nearest_name": "Swansea Pharmacy",
    "search_radius_km": 1.5,
    "db_pharmacies_in_radius": 0,
    "db_pharmacies_in_2x_radius": 0,
    "google_pharmacies_found": 0,
    "new_pharmacies": 0,
    "status": "db_confirmed",
    "db_nearby_names": ""
  },
  {
    "index": 83,
    "state": "VIC",
    "lat": -38.3954714,
    "lng": 142.628306,
    "rules": "Item 131",
    "confidence": 75,
    "poi_name": "Allansford Cheese World",
    "nearest_km": 10.95,
    "nearest_name": "Chemist Warehouse Warrnambool",
    "search_radius_km": 1.0,
    "db_pharmacies_in_radius": 0,
    "db_pharmacies_in_2x_radius": 0,
    "google_pharmacies_found": 0,
    "new_pharmacies": 0,
    "status": "db_confirmed",
    "db_nearby_names": ""
  },
  {
    "index": 84,
    "state": "VIC",
    "lat": -38.6657911,
    "lng": 146.4369242,
    "rules": "Item 131",
    "confidence": 75,
    "poi_name": "Welshpool Supermarket",
    "nearest_km": 10.7,
    "nearest_name": "Toora Pharmacy",
    "search_radius_km": 1.0,
    "db_pharmacies_in_radius": 0,
    "db_pharmacies_in_2x_radius": 0,
    "google_pharmacies_found": 0,
    "new_pharmacies": 0,
    "status": "db_confirmed",
    "db_nearby_names": ""
  },
  {
    "index": 85,
    "state": "VIC",
    "lat": -37.965617,
    "lng": 144.7066647,
    "rules": "Item 131",
    "confidence": 75,
    "poi_name": "Wyndham Harbour Mini Mart",
    "nearest_km": 10.28,
    "nearest_name": "Direct Chemist Outlet Featherbrook",
    "search_radius_km": 1.0,
    "db_pharmacies_in_radius": 0,
    "db_pharmacies_in_2x_radius": 0,
    "google_pharmacies_found": 0,
    "new_pharmacies": 0,
    "status": "db_confirmed",
    "db_nearby_names": ""
  },
  {
    "index": 86,
    "state": "VIC",
    "lat": -37.42274336666667,
    "lng": 144.56392013333334,
    "rules": "Item 130, Item 133",
    "confidence": 75,
    "poi_name": "Macedon IGA plus Liquor",
    "nearest_km": 7.26,
    "nearest_name": "UFS Dispensaries - Neal Street",
    "search_radius_km": 1.5,
    "db_pharmacies_in_radius": 0,
    "db_pharmacies_in_2x_radius": 0,
    "google_pharmacies_found": 0,
    "new_pharmacies": 0,
    "status": "db_confirmed",
    "db_nearby_names": ""
  },
  {
    "index": 5,
    "state": "TAS",
    "lat": -41.456382,
    "lng": 147.17792,
    "rules": "Item 130",
    "confidence": 75,
    "poi_name": "Norwood Medical Centre",
    "nearest_km": 1.87,
    "nearest_name": "Pharmacy and Co Kings Meadows",
    "search_radius_km": 1.5,
    "db_pharmacies_in_radius": 0,
    "db_pharmacies_in_2x_radius": 4,
    "google_pharmacies_found": 0,
    "new_pharmacies": 0,
    "status": "db_confirmed",
    "db_nearby_names": ""
  },
  {
    "index": 6,
    "state": "TAS",
    "lat": -41.4547332,
    "lng": 147.1761331,
    "rules": "Item 130, Item 133",
    "confidence": 75,
    "poi_name": "Norwood IGA",
    "nearest_km": 1.86,
    "nearest_name": "Slade Pharmacy Kings Meadows",
    "search_radius_km": 1.5,
    "db_pharmacies_in_radius": 0,
    "db_pharmacies_in_2x_radius": 4,
    "google_pharmacies_found": 0,
    "new_pharmacies": 0,
    "status": "db_confirmed",
    "db_nearby_names": ""
  },
  {
    "index": 87,
    "state": "VIC",
    "lat": -37.85772795,
    "lng": 144.88246005,
    "rules": "Item 133, Item 134",
    "confidence": 75,
    "poi_name": "Woolworths",
    "nearest_km": 1.3,
    "nearest_name": "Priceline Pharmacy Williamstown",
    "search_radius_km": 0.5,
    "db_pharmacies_in_radius": 0,
    "db_pharmacies_in_2x_radius": 0,
    "google_pharmacies_found": 0,
    "new_pharmacies": 0,
    "status": "db_confirmed",
    "db_nearby_names": ""
  },
  {
    "index": 88,
    "state": "VIC",
    "lat": -37.7976134,
    "lng": 144.8061424,
    "rules": "Item 133",
    "confidence": 75,
    "poi_name": "Coles",
    "nearest_km": 1.29,
    "nearest_name": "Glengala Road Pharmacy",
    "search_radius_km": 0.5,
    "db_pharmacies_in_radius": 0,
    "db_pharmacies_in_2x_radius": 0,
    "google_pharmacies_found": 0,
    "new_pharmacies": 0,
    "status": "db_confirmed",
    "db_nearby_names": ""
  },
  {
    "index": 89,
    "state": "VIC",
    "lat": -37.6278019,
    "lng": 145.0274063,
    "rules": "Item 133",
    "confidence": 75,
    "poi_name": "Woolworths",
    "nearest_km": 1.21,
    "nearest_name": "Priceline Epping Plaza (Near Kmart)",
    "search_radius_km": 0.5,
    "db_pharmacies_in_radius": 0,
    "db_pharmacies_in_2x_radius": 0,
    "google_pharmacies_found": 0,
    "new_pharmacies": 0,
    "status": "db_confirmed",
    "db_nearby_names": ""
  },
  {
    "index": 90,
    "state": "VIC",
    "lat": -37.8311018,
    "lng": 144.9307435,
    "rules": "Item 133",
    "confidence": 75,
    "poi_name": "Woolworths",
    "nearest_km": 1.13,
    "nearest_name": "Beacon Cove Pharmacy",
    "search_radius_km": 0.5,
    "db_pharmacies_in_radius": 0,
    "db_pharmacies_in_2x_radius": 0,
    "google_pharmacies_found": 0,
    "new_pharmacies": 0,
    "status": "db_confirmed",
    "db_nearby_names": ""
  },
  {
    "index": 91,
    "state": "VIC",
    "lat": -37.80008875,
    "lng": 144.9953537,
    "rules": "Item 133",
    "confidence": 75,
    "poi_name": "Woolworths Metro",
    "nearest_km": 0.95,
    "nearest_name": "Newton & Leung Pharmacy",
    "search_radius_km": 0.5,
    "db_pharmacies_in_radius": 0,
    "db_pharmacies_in_2x_radius": 1,
    "google_pharmacies_found": 0,
    "new_pharmacies": 0,
    "status": "db_confirmed",
    "db_nearby_names": ""
  },
  {
    "index": 92,
    "state": "VIC",
    "lat": -37.5997464,
    "lng": 143.8398507,
    "rules": "Item 133, Item 134",
    "confidence": 75,
    "poi_name": "Coles Sebastopol",
    "nearest_km": 0.93,
    "nearest_name": "Chemist Warehouse Sebastopol",
    "search_radius_km": 0.5,
    "db_pharmacies_in_radius": 0,
    "db_pharmacies_in_2x_radius": 1,
    "google_pharmacies_found": 0,
    "new_pharmacies": 0,
    "status": "db_confirmed",
    "db_nearby_names": ""
  },
  {
    "index": 93,
    "state": "VIC",
    "lat": -36.3591735,
    "lng": 146.3169075,
    "rules": "Item 133",
    "confidence": 75,
    "poi_name": "Coles",
    "nearest_km": 0.87,
    "nearest_name": "Ramsay Pharmacy",
    "search_radius_km": 0.5,
    "db_pharmacies_in_radius": 0,
    "db_pharmacies_in_2x_radius": 3,
    "google_pharmacies_found": 0,
    "new_pharmacies": 0,
    "status": "db_confirmed",
    "db_nearby_names": ""
  },
  {
    "index": 94,
    "state": "VIC",
    "lat": -36.7576168,
    "lng": 144.2962722,
    "rules": "Item 133",
    "confidence": 75,
    "poi_name": "Coles",
    "nearest_km": 0.81,
    "nearest_name": "Emily Roberts Pharmacy 777",
    "search_radius_km": 0.5,
    "db_pharmacies_in_radius": 0,
    "db_pharmacies_in_2x_radius": 1,
    "google_pharmacies_found": 0,
    "new_pharmacies": 0,
    "status": "db_confirmed",
    "db_nearby_names": ""
  },
  {
    "index": 95,
    "state": "VIC",
    "lat": -38.1092936,
    "lng": 145.1265883,
    "rules": "Item 133",
    "confidence": 75,
    "poi_name": "Woolworths",
    "nearest_km": 0.75,
    "nearest_name": "PharmaSave",
    "search_radius_km": 0.5,
    "db_pharmacies_in_radius": 0,
    "db_pharmacies_in_2x_radius": 1,
    "google_pharmacies_found": 0,
    "new_pharmacies": 0,
    "status": "db_confirmed",
    "db_nearby_names": ""
  },
  {
    "index": 96,
    "state": "VIC",
    "lat": -37.6296479,
    "lng": 145.0794343,
    "rules": "Item 133",
    "confidence": 75,
    "poi_name": "Coles",
    "nearest_km": 0.72,
    "nearest_name": "Lakes Boulevard Medical Pharmacy",
    "search_radius_km": 0.5,
    "db_pharmacies_in_radius": 0,
    "db_pharmacies_in_2x_radius": 1,
    "google_pharmacies_found": 0,
    "new_pharmacies": 0,
    "status": "db_confirmed",
    "db_nearby_names": ""
  },
  {
    "index": 97,
    "state": "VIC",
    "lat": -37.9276332,
    "lng": 145.4452677,
    "rules": "Item 133",
    "confidence": 75,
    "poi_name": "Woolworths",
    "nearest_km": 0.63,
    "nearest_name": "Emerald Wellness Pharmacy",
    "search_radius_km": 0.5,
    "db_pharmacies_in_radius": 0,
    "db_pharmacies_in_2x_radius": 2,
    "google_pharmacies_found": 0,
    "new_pharmacies": 0,
    "status": "db_confirmed",
    "db_nearby_names": ""
  },
  {
    "index": 98,
    "state": "VIC",
    "lat": -37.8323252,
    "lng": 144.9708404,
    "rules": "Item 133",
    "confidence": 75,
    "poi_name": "Woolworths Metro",
    "nearest_km": 0.59,
    "nearest_name": "Melbourne Boulevard Pharmacy & Health Foods",
    "search_radius_km": 0.5,
    "db_pharmacies_in_radius": 0,
    "db_pharmacies_in_2x_radius": 4,
    "google_pharmacies_found": 0,
    "new_pharmacies": 0,
    "status": "db_confirmed",
    "db_nearby_names": ""
  },
  {
    "index": 99,
    "state": "VIC",
    "lat": -36.7669138,
    "lng": 144.2651965,
    "rules": "Item 133",
    "confidence": 75,
    "poi_name": "Woolworths",
    "nearest_km": 0.56,
    "nearest_name": "Golden Square's Pharmacy",
    "search_radius_km": 0.5,
    "db_pharmacies_in_radius": 0,
    "db_pharmacies_in_2x_radius": 2,
    "google_pharmacies_found": 0,
    "new_pharmacies": 0,
    "status": "db_confirmed",
    "db_nearby_names": ""
  },
  {
    "index": 188,
    "state": "VIC",
    "lat": -37.5636617,
    "lng": 149.151655,
    "rules": "Item 131",
    "confidence": 70,
    "poi_name": "Cann Valley Bush Nursing Centre",
    "nearest_km": 63.35,
    "nearest_name": "Orbost Pharmacy",
    "search_radius_km": 1.0,
    "db_pharmacies_in_radius": 0,
    "db_pharmacies_in_2x_radius": 0,
    "google_pharmacies_found": 0,
    "new_pharmacies": 0,
    "status": "db_confirmed",
    "db_nearby_names": ""
  },
  {
    "index": 189,
    "state": "VIC",
    "lat": -37.5663456,
    "lng": 149.1514288,
    "rules": "Item 131",
    "confidence": 70,
    "poi_name": "Cann River Friendly Grocer",
    "nearest_km": 63.26,
    "nearest_name": "Orbost Pharmacy",
    "search_radius_km": 1.0,
    "db_pharmacies_in_radius": 0,
    "db_pharmacies_in_2x_radius": 0,
    "google_pharmacies_found": 0,
    "new_pharmacies": 0,
    "status": "db_confirmed",
    "db_nearby_names": ""
  },
  {
    "index": 190,
    "state": "VIC",
    "lat": -37.558366,
    "lng": 149.7534583,
    "rules": "Item 131",
    "confidence": 70,
    "poi_name": "Mallacoota Medical Centre",
    "nearest_km": 56.47,
    "nearest_name": "Eden Pharmacy",
    "search_radius_km": 1.0,
    "db_pharmacies_in_radius": 0,
    "db_pharmacies_in_2x_radius": 0,
    "google_pharmacies_found": 0,
    "new_pharmacies": 0,
    "status": "db_confirmed",
    "db_nearby_names": ""
  },
  {
    "index": 191,
    "state": "VIC",
    "lat": -37.4614389,
    "lng": 147.2508422,
    "rules": "Item 131",
    "confidence": 70,
    "poi_name": "Dargo General Store",
    "nearest_km": 50.2,
    "nearest_name": "Omeo Pharmacy",
    "search_radius_km": 1.0,
    "db_pharmacies_in_radius": 0,
    "db_pharmacies_in_2x_radius": 0,
    "google_pharmacies_found": 0,
    "new_pharmacies": 0,
    "status": "db_confirmed",
    "db_nearby_names": ""
  },
  {
    "index": 192,
    "state": "VIC",
    "lat": -37.248503799999995,
    "lng": 141.8410323,
    "rules": "Item 131",
    "confidence": 70,
    "poi_name": "Balmoral Community Store",
    "nearest_km": 41.2,
    "nearest_name": "Coleraine Pharmacy",
    "search_radius_km": 1.0,
    "db_pharmacies_in_radius": 0,
    "db_pharmacies_in_2x_radius": 0,
    "google_pharmacies_found": 0,
    "new_pharmacies": 0,
    "status": "db_confirmed",
    "db_nearby_names": ""
  },
  {
    "index": 193,
    "state": "VIC",
    "lat": -37.7123253,
    "lng": 142.8392691,
    "rules": "Item 131",
    "confidence": 70,
    "poi_name": "Lake Bolac Licensed Supermarket",
    "nearest_km": 41.06,
    "nearest_name": "Mortlake Caremore Pharmacy",
    "search_radius_km": 1.0,
    "db_pharmacies_in_radius": 0,
    "db_pharmacies_in_2x_radius": 0,
    "google_pharmacies_found": 0,
    "new_pharmacies": 0,
    "status": "db_confirmed",
    "db_nearby_names": ""
  },
  {
    "index": 194,
    "state": "VIC",
    "lat": -37.9242465,
    "lng": 141.2754502,
    "rules": "Item 131",
    "confidence": 70,
    "poi_name": "Dartmoor & District Bush Nursing Centre",
    "nearest_km": 38.64,
    "nearest_name": "Heywood Pharmacy",
    "search_radius_km": 1.0,
    "db_pharmacies_in_radius": 0,
    "db_pharmacies_in_2x_radius": 0,
    "google_pharmacies_found": 0,
    "new_pharmacies": 0,
    "status": "db_confirmed",
    "db_nearby_names": ""
  },
  {
    "index": 195,
    "state": "VIC",
    "lat": -36.381404,
    "lng": 141.2460378,
    "rules": "Item 131",
    "confidence": 70,
    "poi_name": "Kaniava Hospital",
    "nearest_km": 36.56,
    "nearest_name": "Nhill Pharmacy",
    "search_radius_km": 1.0,
    "db_pharmacies_in_radius": 0,
    "db_pharmacies_in_2x_radius": 0,
    "google_pharmacies_found": 0,
    "new_pharmacies": 0,
    "status": "db_confirmed",
    "db_nearby_names": ""
  },
  {
    "index": 196,
    "state": "VIC",
    "lat": -36.6095617,
    "lng": 143.2468538,
    "rules": "Item 131",
    "confidence": 70,
    "poi_name": "East Wimmera Health Service St Arnaud Campus",
    "nearest_km": 35.62,
    "nearest_name": "Caremore Pharmacy Donald",
    "search_radius_km": 1.0,
    "db_pharmacies_in_radius": 0,
    "db_pharmacies_in_2x_radius": 0,
    "google_pharmacies_found": 0,
    "new_pharmacies": 0,
    "status": "db_confirmed",
    "db_nearby_names": ""
  },
  {
    "index": 197,
    "state": "VIC",
    "lat": -36.670831,
    "lng": 142.8698477,
    "rules": "Item 131",
    "confidence": 70,
    "poi_name": "Marnoo General Store",
    "nearest_km": 34.45,
    "nearest_name": "Minyip Medical Supplies Depot",
    "search_radius_km": 1.0,
    "db_pharmacies_in_radius": 0,
    "db_pharmacies_in_2x_radius": 0,
    "google_pharmacies_found": 0,
    "new_pharmacies": 0,
    "status": "db_confirmed",
    "db_nearby_names": ""
  },
  {
    "index": 198,
    "state": "VIC",
    "lat": -37.5479311,
    "lng": 142.7398878,
    "rules": "Item 131",
    "confidence": 70,
    "poi_name": "Willaura Supermarket",
    "nearest_km": 33.8,
    "nearest_name": "Priceline Pharmacy Ararat",
    "search_radius_km": 1.0,
    "db_pharmacies_in_radius": 0,
    "db_pharmacies_in_2x_radius": 0,
    "google_pharmacies_found": 0,
    "new_pharmacies": 0,
    "status": "db_confirmed",
    "db_nearby_names": ""
  },
  {
    "index": 199,
    "state": "VIC",
    "lat": -37.1461904,
    "lng": 146.4489816,
    "rules": "Item 131",
    "confidence": 70,
    "poi_name": "Village Grocer",
    "nearest_km": 33.47,
    "nearest_name": "Mansfield Pharmacy",
    "search_radius_km": 1.0,
    "db_pharmacies_in_radius": 0,
    "db_pharmacies_in_2x_radius": 0,
    "google_pharmacies_found": 0,
    "new_pharmacies": 0,
    "status": "db_confirmed",
    "db_nearby_names": ""
  },
  {
    "index": 200,
    "state": "VIC",
    "lat": -37.1460735,
    "lng": 146.4453481,
    "rules": "Item 131",
    "confidence": 70,
    "poi_name": "Mt Buller Medical Centre",
    "nearest_km": 33.16,
    "nearest_name": "Mansfield Pharmacy",
    "search_radius_km": 1.0,
    "db_pharmacies_in_radius": 0,
    "db_pharmacies_in_2x_radius": 0,
    "google_pharmacies_found": 0,
    "new_pharmacies": 0,
    "status": "db_confirmed",
    "db_nearby_names": ""
  },
  {
    "index": 20,
    "state": "TAS",
    "lat": -42.48649965,
    "lng": 146.7170984,
    "rules": "Item 131",
    "confidence": 70,
    "poi_name": "Central Highlands General Practice",
    "nearest_km": 26.34,
    "nearest_name": "Central Highlands Pharmacy",
    "search_radius_km": 1.0,
    "db_pharmacies_in_radius": 0,
    "db_pharmacies_in_2x_radius": 0,
    "google_pharmacies_found": 0,
    "new_pharmacies": 0,
    "status": "db_confirmed",
    "db_nearby_names": ""
  },
  {
    "index": 21,
    "state": "TAS",
    "lat": -40.048726,
    "lng": 144.0576882,
    "rules": "Item 131",
    "confidence": 70,
    "poi_name": "Grassy Supermarket",
    "nearest_km": 21.94,
    "nearest_name": "King Island Pharmacy",
    "search_radius_km": 1.0,
    "db_pharmacies_in_radius": 0,
    "db_pharmacies_in_2x_radius": 0,
    "google_pharmacies_found": 0,
    "new_pharmacies": 0,
    "status": "db_confirmed",
    "db_nearby_names": ""
  },
  {
    "index": 22,
    "state": "TAS",
    "lat": -42.1224456,
    "lng": 148.2845945,
    "rules": "Item 131",
    "confidence": 70,
    "poi_name": "Supermarket",
    "nearest_km": 17.31,
    "nearest_name": "Swansea Pharmacy",
    "search_radius_km": 1.0,
    "db_pharmacies_in_radius": 0,
    "db_pharmacies_in_2x_radius": 0,
    "google_pharmacies_found": 0,
    "new_pharmacies": 0,
    "status": "db_confirmed",
    "db_nearby_names": ""
  },
  {
    "index": 23,
    "state": "TAS",
    "lat": -40.7625163,
    "lng": 145.2950685,
    "rules": "Item 131, Item 133",
    "confidence": 70,
    "poi_name": "Stanley IGA",
    "nearest_km": 16.69,
    "nearest_name": "Smithton Pharmacy",
    "search_radius_km": 0.5,
    "db_pharmacies_in_radius": 0,
    "db_pharmacies_in_2x_radius": 0,
    "google_pharmacies_found": 0,
    "new_pharmacies": 0,
    "status": "db_confirmed",
    "db_nearby_names": ""
  },
  {
    "index": 24,
    "state": "TAS",
    "lat": -42.781,
    "lng": 147.2487,
    "rules": "Item 134",
    "confidence": 70,
    "poi_name": "Claremont Village Shopping Centre",
    "nearest_km": 1.22,
    "nearest_name": "Claremont Pharmacy",
    "search_radius_km": 0.5,
    "db_pharmacies_in_radius": 0,
    "db_pharmacies_in_2x_radius": 0,
    "google_pharmacies_found": 0,
    "new_pharmacies": 0,
    "status": "db_confirmed",
    "db_nearby_names": ""
  },
  {
    "index": 25,
    "state": "TAS",
    "lat": -42.743,
    "lng": 147.2309,
    "rules": "Item 136",
    "confidence": 70,
    "poi_name": "Bridgewater Medical Centre",
    "nearest_km": 1.09,
    "nearest_name": "Priceline Pharmacy Bridgewater",
    "search_radius_km": 0.5,
    "db_pharmacies_in_radius": 0,
    "db_pharmacies_in_2x_radius": 0,
    "google_pharmacies_found": 0,
    "new_pharmacies": 0,
    "status": "db_confirmed",
    "db_nearby_names": ""
  },
  {
    "index": 26,
    "state": "TAS",
    "lat": -42.8463,
    "lng": 147.3082,
    "rules": "Item 136",
    "confidence": 70,
    "poi_name": "Moonah Medical Centre",
    "nearest_km": 1.01,
    "nearest_name": "Friendly Care Advantage Moonah",
    "search_radius_km": 0.5,
    "db_pharmacies_in_radius": 0,
    "db_pharmacies_in_2x_radius": 0,
    "google_pharmacies_found": 0,
    "new_pharmacies": 0,
    "status": "db_confirmed",
    "db_nearby_names": ""
  },
  {
    "index": 27,
    "state": "TAS",
    "lat": -42.871,
    "lng": 147.362,
    "rules": "Item 136",
    "confidence": 70,
    "poi_name": "Rosny Park Family Medical Centre",
    "nearest_km": 0.61,
    "nearest_name": "Bellerive Quay Pharmacy",
    "search_radius_km": 0.5,
    "db_pharmacies_in_radius": 0,
    "db_pharmacies_in_2x_radius": 4,
    "google_pharmacies_found": 0,
    "new_pharmacies": 0,
    "status": "db_confirmed",
    "db_nearby_names": ""
  },
  {
    "index": 32,
    "state": "TAS",
    "lat": -42.5593001,
    "lng": 147.872333,
    "rules": "Item 133",
    "confidence": 65,
    "poi_name": "Orford Festival IGA Supermarket",
    "nearest_km": 6.63,
    "nearest_name": "Triabunna Pharmacy",
    "search_radius_km": 0.5,
    "db_pharmacies_in_radius": 0,
    "db_pharmacies_in_2x_radius": 0,
    "google_pharmacies_found": 0,
    "new_pharmacies": 0,
    "status": "db_confirmed",
    "db_nearby_names": ""
  },
  {
    "index": 33,
    "state": "TAS",
    "lat": -41.2189569,
    "lng": 146.344958,
    "rules": "Item 133",
    "confidence": 65,
    "poi_name": "IGA",
    "nearest_km": 3.57,
    "nearest_name": "Complete Care Pharmacy Devonport",
    "search_radius_km": 0.5,
    "db_pharmacies_in_radius": 0,
    "db_pharmacies_in_2x_radius": 0,
    "google_pharmacies_found": 0,
    "new_pharmacies": 0,
    "status": "db_confirmed",
    "db_nearby_names": ""
  },
  {
    "index": 34,
    "state": "TAS",
    "lat": -41.4695436,
    "lng": 147.0899735,
    "rules": "Item 133",
    "confidence": 65,
    "poi_name": "Baxter's IGA",
    "nearest_km": 3.14,
    "nearest_name": "TerryWhite Chemmart Prospect Vale",
    "search_radius_km": 0.5,
    "db_pharmacies_in_radius": 0,
    "db_pharmacies_in_2x_radius": 0,
    "google_pharmacies_found": 0,
    "new_pharmacies": 0,
    "status": "db_confirmed",
    "db_nearby_names": ""
  },
  {
    "index": 35,
    "state": "TAS",
    "lat": -42.7484982,
    "lng": 147.2659412,
    "rules": "Item 133",
    "confidence": 65,
    "poi_name": "IGA",
    "nearest_km": 1.96,
    "nearest_name": "Priceline Pharmacy Bridgewater",
    "search_radius_km": 0.5,
    "db_pharmacies_in_radius": 0,
    "db_pharmacies_in_2x_radius": 0,
    "google_pharmacies_found": 0,
    "new_pharmacies": 0,
    "status": "db_confirmed",
    "db_nearby_names": ""
  },
  {
    "index": 36,
    "state": "TAS",
    "lat": -42.8966766,
    "lng": 147.4320085,
    "rules": "Item 133",
    "confidence": 65,
    "poi_name": "Rokeby IGA",
    "nearest_km": 1.05,
    "nearest_name": "Priceline Pharmacy Glebe Hill Village",
    "search_radius_km": 0.5,
    "db_pharmacies_in_radius": 0,
    "db_pharmacies_in_2x_radius": 0,
    "google_pharmacies_found": 0,
    "new_pharmacies": 0,
    "status": "db_confirmed",
    "db_nearby_names": ""
  },
  {
    "index": 37,
    "state": "TAS",
    "lat": -41.525328,
    "lng": 146.8449712,
    "rules": "Item 133, Item 134",
    "confidence": 65,
    "poi_name": "IGA",
    "nearest_km": 0.87,
    "nearest_name": "Westbury Pharmacy",
    "search_radius_km": 0.5,
    "db_pharmacies_in_radius": 0,
    "db_pharmacies_in_2x_radius": 1,
    "google_pharmacies_found": 0,
    "new_pharmacies": 0,
    "status": "db_confirmed",
    "db_nearby_names": ""
  },
  {
    "index": 38,
    "state": "TAS",
    "lat": -41.0980218,
    "lng": 146.8232761,
    "rules": "Item 133",
    "confidence": 65,
    "poi_name": "IGA George Town",
    "nearest_km": 0.84,
    "nearest_name": "Amcal Pharmacy George Town",
    "search_radius_km": 0.5,
    "db_pharmacies_in_radius": 0,
    "db_pharmacies_in_2x_radius": 2,
    "google_pharmacies_found": 0,
    "new_pharmacies": 0,
    "status": "db_confirmed",
    "db_nearby_names": ""
  },
  {
    "index": 49,
    "state": "TAS",
    "lat": -42.9046784,
    "lng": 147.4354685,
    "rules": "Item 135",
    "confidence": 55,
    "poi_name": "The Hobart Clinic",
    "nearest_km": 1.02,
    "nearest_name": "Rokeby Discount Drug Store",
    "search_radius_km": 0.5,
    "db_pharmacies_in_radius": 0,
    "db_pharmacies_in_2x_radius": 0,
    "google_pharmacies_found": 0,
    "new_pharmacies": 0,
    "status": "db_confirmed",
    "db_nearby_names": ""
  },
  {
    "index": 50,
    "state": "TAS",
    "lat": -41.4584509,
    "lng": 147.153164,
    "rules": "Item 134",
    "confidence": 55,
    "poi_name": "DongSheng",
    "nearest_km": 0.88,
    "nearest_name": "Slade Pharmacy Kings Meadows",
    "search_radius_km": 0.5,
    "db_pharmacies_in_radius": 0,
    "db_pharmacies_in_2x_radius": 1,
    "google_pharmacies_found": 0,
    "new_pharmacies": 0,
    "status": "db_confirmed",
    "db_nearby_names": ""
  },
  {
    "index": 51,
    "state": "TAS",
    "lat": -42.8957201,
    "lng": 147.3060276,
    "rules": "Item 135",
    "confidence": 55,
    "poi_name": "Calvary Healthcare Tasmania - St John's Campus",
    "nearest_km": 0.85,
    "nearest_name": "Complete Care Pharmacy South Hobart",
    "search_radius_km": 0.5,
    "db_pharmacies_in_radius": 0,
    "db_pharmacies_in_2x_radius": 1,
    "google_pharmacies_found": 0,
    "new_pharmacies": 0,
    "status": "db_confirmed",
    "db_nearby_names": ""
  },
  {
    "index": 52,
    "state": "TAS",
    "lat": -41.43,
    "lng": 147.1295,
    "rules": "Item 134",
    "confidence": 55,
    "poi_name": "Meadow Mews Shopping Centre",
    "nearest_km": 0.72,
    "nearest_name": "Invermay Discount Drug Store",
    "search_radius_km": 0.5,
    "db_pharmacies_in_radius": 0,
    "db_pharmacies_in_2x_radius": 2,
    "google_pharmacies_found": 0,
    "new_pharmacies": 0,
    "status": "db_confirmed",
    "db_nearby_names": ""
  }
]