[
  {
    "index": 1,
    "url": "https://www.google.com/maps/search/pharmacy/@-42.871,147.345,16z",
    "lat": -42.871,
    "lng": 147.345,
    "state": "TAS",
    "rules": "Item 136",
    "poi_name": "Ochre Health Medical Centre Clarence",
    "search_radius_km": 0.5,
    "confidence": 95
  },
  {
    "index": 59,
    "url": "https://www.google.com/maps/search/pharmacy/@-37.7474,144.816,16z",
    "lat": -37.7474,
    "lng": 144.816,
    "state": "VIC",
    "rules": "Item 136",
    "poi_name": "Sunshine Hospital Medical Centre",
    "search_radius_km": 0.5,
    "confidence": 95
  },
  {
    "index": 60,
    "url": "https://www.google.com/maps/search/pharmacy/@-35.2341,149.0178,16z",
    "lat": -35.2341,
    "lng": 149.0178,
    "state": "VIC",
    "rules": "Item 136",
    "poi_name": "Kippax Medical Centre",
    "search_radius_km": 0.5,
    "confidence": 95
  },
  {
    "index": 61,
    "url": "https://www.google.com/maps/search/pharmacy/@-37.7446,145.0073,16z",
    "lat": -37.7446,
    "lng": 145.0073,
    "state": "VIC",
    "rules": "Item 136",
    "poi_name": "Preston Medical Centre",
    "search_radius_km": 0.5,
    "confidence": 95
  },
  {
    "index": 62,
    "url": "https://www.google.com/maps/search/pharmacy/@-37.8913,144.7471,16z",
    "lat": -37.8913,
    "lng": 144.7471,
    "state": "VIC",
    "rules": "Item 136",
    "poi_name": "Point Cook Medical Centre",
    "search_radius_km": 0.5,
    "confidence": 95
  },
  {
    "index": 63,
    "url": "https://www.google.com/maps/search/pharmacy/@-37.849,144.6958,16z",
    "lat": -37.849,
    "lng": 144.6958,
    "state": "VIC",
    "rules": "Item 136",
    "poi_name": "Tarneit Medical Centre",
    "search_radius_km": 0.5,
    "confidence": 95
  },
  {
    "index": 64,
    "url": "https://www.google.com/maps/search/pharmacy/@-38.035,145.3513,16z",
    "lat": -38.035,
    "lng": 145.3513,
    "state": "VIC",
    "rules": "Item 136",
    "poi_name": "Berwick Medical Centre",
    "search_radius_km": 0.5,
    "confidence": 95
  },
  {
    "index": 65,
    "url": "https://www.google.com/maps/search/pharmacy/@-37.6492,145.0259,16z",
    "lat": -37.6492,
    "lng": 145.0259,
    "state": "VIC",
    "rules": "Item 136",
    "poi_name": "IPN Medical Centre Epping",
    "search_radius_km": 0.5,
    "confidence": 95
  },
  {
    "index": 66,
    "url": "https://www.google.com/maps/search/pharmacy/@-37.6006,144.9464,16z",
    "lat": -37.6006,
    "lng": 144.9464,
    "state": "VIC",
    "rules": "Item 136",
    "poi_name": "Craigieburn Medical Centre",
    "search_radius_km": 0.5,
    "confidence": 95
  },
  {
    "index": 73,
    "url": "https://www.google.com/maps/search/pharmacy/@-38.7020259,145.8204444,15z",
    "lat": -38.7020259,
    "lng": 145.8204444,
    "state": "VIC",
    "rules": "Item 131",
    "poi_name": "Venus Bay General Store",
    "search_radius_km": 1.0,
    "confidence": 85
  },
  {
    "index": 74,
    "url": "https://www.google.com/maps/search/pharmacy/@-38.7004152,145.8680277,16z",
    "lat": -38.7004152,
    "lng": 145.8680277,
    "state": "VIC",
    "rules": "Item 131, Item 133",
    "poi_name": "IGA",
    "search_radius_km": 0.5,
    "confidence": 85
  },
  {
    "index": 75,
    "url": "https://www.google.com/maps/search/pharmacy/@-38.5777296,146.0137354,16z",
    "lat": -38.5777296,
    "lng": 146.0137354,
    "state": "VIC",
    "rules": "Item 131, Item 133",
    "poi_name": "IGA Local Grocer and Liquor",
    "search_radius_km": 0.5,
    "confidence": 85
  },
  {
    "index": 76,
    "url": "https://www.google.com/maps/search/pharmacy/@-36.6366404,142.63177845,15z",
    "lat": -36.6366404,
    "lng": 142.63177845,
    "state": "VIC",
    "rules": "Item 131",
    "poi_name": "Rupanyup Doctors Surgery",
    "search_radius_km": 1.0,
    "confidence": 85
  },
  {
    "index": 77,
    "url": "https://www.google.com/maps/search/pharmacy/@-38.3098264,142.6416732,15z",
    "lat": -38.3098264,
    "lng": 142.6416732,
    "state": "VIC",
    "rules": "Item 131",
    "poi_name": "Kirrae Health Service",
    "search_radius_km": 1.0,
    "confidence": 85
  },
  {
    "index": 78,
    "url": "https://www.google.com/maps/search/pharmacy/@-38.2420198,144.1748634,15z",
    "lat": -38.2420198,
    "lng": 144.1748634,
    "state": "VIC",
    "rules": "Item 131",
    "poi_name": "Moriac Medical Centre",
    "search_radius_km": 1.0,
    "confidence": 85
  },
  {
    "index": 79,
    "url": "https://www.google.com/maps/search/pharmacy/@-36.6307452,142.6307295,15z",
    "lat": -36.6307452,
    "lng": 142.6307295,
    "state": "VIC",
    "rules": "Item 131",
    "poi_name": "Rupanyup Supermarket",
    "search_radius_km": 1.0,
    "confidence": 85
  },
  {
    "index": 2,
    "url": "https://www.google.com/maps/search/pharmacy/@-42.8704,147.3579,16z",
    "lat": -42.8704,
    "lng": 147.3579,
    "state": "TAS",
    "rules": "Item 132",
    "poi_name": "Eastlands Shopping Centre",
    "search_radius_km": 0.5,
    "confidence": 85
  },
  {
    "index": 4,
    "url": "https://www.google.com/maps/search/pharmacy/@-42.126071525,148.290322925,15z",
    "lat": -42.126071525,
    "lng": 148.290322925,
    "state": "TAS",
    "rules": "Item 130, Item 131, Item 133, Item 134",
    "poi_name": "Coles Bay Convenience",
    "search_radius_km": 1.5,
    "confidence": 80
  },
  {
    "index": 83,
    "url": "https://www.google.com/maps/search/pharmacy/@-38.3954714,142.628306,15z",
    "lat": -38.3954714,
    "lng": 142.628306,
    "state": "VIC",
    "rules": "Item 131",
    "poi_name": "Allansford Cheese World",
    "search_radius_km": 1.0,
    "confidence": 75
  },
  {
    "index": 84,
    "url": "https://www.google.com/maps/search/pharmacy/@-38.6657911,146.4369242,15z",
    "lat": -38.6657911,
    "lng": 146.4369242,
    "state": "VIC",
    "rules": "Item 131",
    "poi_name": "Welshpool Supermarket",
    "search_radius_km": 1.0,
    "confidence": 75
  },
  {
    "index": 85,
    "url": "https://www.google.com/maps/search/pharmacy/@-37.965617,144.7066647,15z",
    "lat": -37.965617,
    "lng": 144.7066647,
    "state": "VIC",
    "rules": "Item 131",
    "poi_name": "Wyndham Harbour Mini Mart",
    "search_radius_km": 1.0,
    "confidence": 75
  },
  {
    "index": 86,
    "url": "https://www.google.com/maps/search/pharmacy/@-37.42274336666667,144.56392013333334,15z",
    "lat": -37.42274336666667,
    "lng": 144.56392013333334,
    "state": "VIC",
    "rules": "Item 130, Item 133",
    "poi_name": "Macedon IGA plus Liquor",
    "search_radius_km": 1.5,
    "confidence": 75
  },
  {
    "index": 5,
    "url": "https://www.google.com/maps/search/pharmacy/@-41.456382,147.17792,15z",
    "lat": -41.456382,
    "lng": 147.17792,
    "state": "TAS",
    "rules": "Item 130",
    "poi_name": "Norwood Medical Centre",
    "search_radius_km": 1.5,
    "confidence": 75
  },
  {
    "index": 6,
    "url": "https://www.google.com/maps/search/pharmacy/@-41.4547332,147.1761331,15z",
    "lat": -41.4547332,
    "lng": 147.1761331,
    "state": "TAS",
    "rules": "Item 130, Item 133",
    "poi_name": "Norwood IGA",
    "search_radius_km": 1.5,
    "confidence": 75
  },
  {
    "index": 87,
    "url": "https://www.google.com/maps/search/pharmacy/@-37.85772795,144.88246005,16z",
    "lat": -37.85772795,
    "lng": 144.88246005,
    "state": "VIC",
    "rules": "Item 133, Item 134",
    "poi_name": "Woolworths",
    "search_radius_km": 0.5,
    "confidence": 75
  },
  {
    "index": 88,
    "url": "https://www.google.com/maps/search/pharmacy/@-37.7976134,144.8061424,16z",
    "lat": -37.7976134,
    "lng": 144.8061424,
    "state": "VIC",
    "rules": "Item 133",
    "poi_name": "Coles",
    "search_radius_km": 0.5,
    "confidence": 75
  },
  {
    "index": 89,
    "url": "https://www.google.com/maps/search/pharmacy/@-37.6278019,145.0274063,16z",
    "lat": -37.6278019,
    "lng": 145.0274063,
    "state": "VIC",
    "rules": "Item 133",
    "poi_name": "Woolworths",
    "search_radius_km": 0.5,
    "confidence": 75
  },
  {
    "index": 90,
    "url": "https://www.google.com/maps/search/pharmacy/@-37.8311018,144.9307435,16z",
    "lat": -37.8311018,
    "lng": 144.9307435,
    "state": "VIC",
    "rules": "Item 133",
    "poi_name": "Woolworths",
    "search_radius_km": 0.5,
    "confidence": 75
  },
  {
    "index": 91,
    "url": "https://www.google.com/maps/search/pharmacy/@-37.80008875,144.9953537,16z",
    "lat": -37.80008875,
    "lng": 144.9953537,
    "state": "VIC",
    "rules": "Item 133",
    "poi_name": "Woolworths Metro",
    "search_radius_km": 0.5,
    "confidence": 75
  },
  {
    "index": 92,
    "url": "https://www.google.com/maps/search/pharmacy/@-37.5997464,143.8398507,16z",
    "lat": -37.5997464,
    "lng": 143.8398507,
    "state": "VIC",
    "rules": "Item 133, Item 134",
    "poi_name": "Coles Sebastopol",
    "search_radius_km": 0.5,
    "confidence": 75
  },
  {
    "index": 93,
    "url": "https://www.google.com/maps/search/pharmacy/@-36.3591735,146.3169075,16z",
    "lat": -36.3591735,
    "lng": 146.3169075,
    "state": "VIC",
    "rules": "Item 133",
    "poi_name": "Coles",
    "search_radius_km": 0.5,
    "confidence": 75
  },
  {
    "index": 94,
    "url": "https://www.google.com/maps/search/pharmacy/@-36.7576168,144.2962722,16z",
    "lat": -36.7576168,
    "lng": 144.2962722,
    "state": "VIC",
    "rules": "Item 133",
    "poi_name": "Coles",
    "search_radius_km": 0.5,
    "confidence": 75
  },
  {
    "index": 95,
    "url": "https://www.google.com/maps/search/pharmacy/@-38.1092936,145.1265883,16z",
    "lat": -38.1092936,
    "lng": 145.1265883,
    "state": "VIC",
    "rules": "Item 133",
    "poi_name": "Woolworths",
    "search_radius_km": 0.5,
    "confidence": 75
  },
  {
    "index": 96,
    "url": "https://www.google.com/maps/search/pharmacy/@-37.6296479,145.0794343,16z",
    "lat": -37.6296479,
    "lng": 145.0794343,
    "state": "VIC",
    "rules": "Item 133",
    "poi_name": "Coles",
    "search_radius_km": 0.5,
    "confidence": 75
  },
  {
    "index": 97,
    "url": "https://www.google.com/maps/search/pharmacy/@-37.9276332,145.4452677,16z",
    "lat": -37.9276332,
    "lng": 145.4452677,
    "state": "VIC",
    "rules": "Item 133",
    "poi_name": "Woolworths",
    "search_radius_km": 0.5,
    "confidence": 75
  },
  {
    "index": 98,
    "url": "https://www.google.com/maps/search/pharmacy/@-37.8323252,144.9708404,16z",
    "lat": -37.8323252,
    "lng": 144.9708404,
    "state": "VIC",
    "rules": "Item 133",
    "poi_name": "Woolworths Metro",
    "search_radius_km": 0.5,
    "confidence": 75
  },
  {
    "index": 99,
    "url": "https://www.google.com/maps/search/pharmacy/@-36.7669138,144.2651965,16z",
    "lat": -36.7669138,
    "lng": 144.2651965,
    "state": "VIC",
    "rules": "Item 133",
    "poi_name": "Woolworths",
    "search_radius_km": 0.5,
    "confidence": 75
  },
  {
    "index": 188,
    "url": "https://www.google.com/maps/search/pharmacy/@-37.5636617,149.151655,15z",
    "lat": -37.5636617,
    "lng": 149.151655,
    "state": "VIC",
    "rules": "Item 131",
    "poi_name": "Cann Valley Bush Nursing Centre",
    "search_radius_km": 1.0,
    "confidence": 70
  },
  {
    "index": 189,
    "url": "https://www.google.com/maps/search/pharmacy/@-37.5663456,149.1514288,15z",
    "lat": -37.5663456,
    "lng": 149.1514288,
    "state": "VIC",
    "rules": "Item 131",
    "poi_name": "Cann River Friendly Grocer",
    "search_radius_km": 1.0,
    "confidence": 70
  },
  {
    "index": 190,
    "url": "https://www.google.com/maps/search/pharmacy/@-37.558366,149.7534583,15z",
    "lat": -37.558366,
    "lng": 149.7534583,
    "state": "VIC",
    "rules": "Item 131",
    "poi_name": "Mallacoota Medical Centre",
    "search_radius_km": 1.0,
    "confidence": 70
  },
  {
    "index": 191,
    "url": "https://www.google.com/maps/search/pharmacy/@-37.4614389,147.2508422,15z",
    "lat": -37.4614389,
    "lng": 147.2508422,
    "state": "VIC",
    "rules": "Item 131",
    "poi_name": "Dargo General Store",
    "search_radius_km": 1.0,
    "confidence": 70
  },
  {
    "index": 192,
    "url": "https://www.google.com/maps/search/pharmacy/@-37.248503799999995,141.8410323,15z",
    "lat": -37.248503799999995,
    "lng": 141.8410323,
    "state": "VIC",
    "rules": "Item 131",
    "poi_name": "Balmoral Community Store",
    "search_radius_km": 1.0,
    "confidence": 70
  },
  {
    "index": 193,
    "url": "https://www.google.com/maps/search/pharmacy/@-37.7123253,142.8392691,15z",
    "lat": -37.7123253,
    "lng": 142.8392691,
    "state": "VIC",
    "rules": "Item 131",
    "poi_name": "Lake Bolac Licensed Supermarket",
    "search_radius_km": 1.0,
    "confidence": 70
  },
  {
    "index": 194,
    "url": "https://www.google.com/maps/search/pharmacy/@-37.9242465,141.2754502,15z",
    "lat": -37.9242465,
    "lng": 141.2754502,
    "state": "VIC",
    "rules": "Item 131",
    "poi_name": "Dartmoor & District Bush Nursing Centre",
    "search_radius_km": 1.0,
    "confidence": 70
  },
  {
    "index": 195,
    "url": "https://www.google.com/maps/search/pharmacy/@-36.381404,141.2460378,15z",
    "lat": -36.381404,
    "lng": 141.2460378,
    "state": "VIC",
    "rules": "Item 131",
    "poi_name": "Kaniava Hospital",
    "search_radius_km": 1.0,
    "confidence": 70
  },
  {
    "index": 196,
    "url": "https://www.google.com/maps/search/pharmacy/@-36.6095617,143.2468538,15z",
    "lat": -36.6095617,
    "lng": 143.2468538,
    "state": "VIC",
    "rules": "Item 131",
    "poi_name": "East Wimmera Health Service St Arnaud Campus",
    "search_radius_km": 1.0,
    "confidence": 70
  },
  {
    "index": 197,
    "url": "https://www.google.com/maps/search/pharmacy/@-36.670831,142.8698477,15z",
    "lat": -36.670831,
    "lng": 142.8698477,
    "state": "VIC",
    "rules": "Item 131",
    "poi_name": "Marnoo General Store",
    "search_radius_km": 1.0,
    "confidence": 70
  },
  {
    "index": 198,
    "url": "https://www.google.com/maps/search/pharmacy/@-37.5479311,142.7398878,15z",
    "lat": -37.5479311,
    "lng": 142.7398878,
    "state": "VIC",
    "rules": "Item 131",
    "poi_name": "Willaura Supermarket",
    "search_radius_km": 1.0,
    "confidence": 70
  },
  {
    "index": 199,
    "url": "https://www.google.com/maps/search/pharmacy/@-37.1461904,146.4489816,15z",
    "lat": -37.1461904,
    "lng": 146.4489816,
    "state": "VIC",
    "rules": "Item 131",
    "poi_name": "Village Grocer",
    "search_radius_km": 1.0,
    "confidence": 70
  },
  {
    "index": 200,
    "url": "https://www.google.com/maps/search/pharmacy/@-37.1460735,146.4453481,15z",
    "lat": -37.1460735,
    "lng": 146.4453481,
    "state": "VIC",
    "rules": "Item 131",
    "poi_name": "Mt Buller Medical Centre",
    "search_radius_km": 1.0,
    "confidence": 70
  },
  {
    "index": 20,
    "url": "https://www.google.com/maps/search/pharmacy/@-42.48649965,146.7170984,15z",
    "lat": -42.48649965,
    "lng": 146.7170984,
    "state": "TAS",
    "rules": "Item 131",
    "poi_name": "Central Highlands General Practice",
    "search_radius_km": 1.0,
    "confidence": 70
  },
  {
    "index": 21,
    "url": "https://www.google.com/maps/search/pharmacy/@-40.048726,144.0576882,15z",
    "lat": -40.048726,
    "lng": 144.0576882,
    "state": "TAS",
    "rules": "Item 131",
    "poi_name": "Grassy Supermarket",
    "search_radius_km": 1.0,
    "confidence": 70
  },
  {
    "index": 22,
    "url": "https://www.google.com/maps/search/pharmacy/@-42.1224456,148.2845945,15z",
    "lat": -42.1224456,
    "lng": 148.2845945,
    "state": "TAS",
    "rules": "Item 131",
    "poi_name": "Supermarket",
    "search_radius_km": 1.0,
    "confidence": 70
  },
  {
    "index": 23,
    "url": "https://www.google.com/maps/search/pharmacy/@-40.7625163,145.2950685,16z",
    "lat": -40.7625163,
    "lng": 145.2950685,
    "state": "TAS",
    "rules": "Item 131, Item 133",
    "poi_name": "Stanley IGA",
    "search_radius_km": 0.5,
    "confidence": 70
  },
  {
    "index": 24,
    "url": "https://www.google.com/maps/search/pharmacy/@-42.781,147.2487,16z",
    "lat": -42.781,
    "lng": 147.2487,
    "state": "TAS",
    "rules": "Item 134",
    "poi_name": "Claremont Village Shopping Centre",
    "search_radius_km": 0.5,
    "confidence": 70
  },
  {
    "index": 25,
    "url": "https://www.google.com/maps/search/pharmacy/@-42.743,147.2309,16z",
    "lat": -42.743,
    "lng": 147.2309,
    "state": "TAS",
    "rules": "Item 136",
    "poi_name": "Bridgewater Medical Centre",
    "search_radius_km": 0.5,
    "confidence": 70
  },
  {
    "index": 26,
    "url": "https://www.google.com/maps/search/pharmacy/@-42.8463,147.3082,16z",
    "lat": -42.8463,
    "lng": 147.3082,
    "state": "TAS",
    "rules": "Item 136",
    "poi_name": "Moonah Medical Centre",
    "search_radius_km": 0.5,
    "confidence": 70
  },
  {
    "index": 27,
    "url": "https://www.google.com/maps/search/pharmacy/@-42.871,147.362,16z",
    "lat": -42.871,
    "lng": 147.362,
    "state": "TAS",
    "rules": "Item 136",
    "poi_name": "Rosny Park Family Medical Centre",
    "search_radius_km": 0.5,
    "confidence": 70
  },
  {
    "index": 32,
    "url": "https://www.google.com/maps/search/pharmacy/@-42.5593001,147.872333,16z",
    "lat": -42.5593001,
    "lng": 147.872333,
    "state": "TAS",
    "rules": "Item 133",
    "poi_name": "Orford Festival IGA Supermarket",
    "search_radius_km": 0.5,
    "confidence": 65
  },
  {
    "index": 33,
    "url": "https://www.google.com/maps/search/pharmacy/@-41.2189569,146.344958,16z",
    "lat": -41.2189569,
    "lng": 146.344958,
    "state": "TAS",
    "rules": "Item 133",
    "poi_name": "IGA",
    "search_radius_km": 0.5,
    "confidence": 65
  },
  {
    "index": 34,
    "url": "https://www.google.com/maps/search/pharmacy/@-41.4695436,147.0899735,16z",
    "lat": -41.4695436,
    "lng": 147.0899735,
    "state": "TAS",
    "rules": "Item 133",
    "poi_name": "Baxter's IGA",
    "search_radius_km": 0.5,
    "confidence": 65
  },
  {
    "index": 35,
    "url": "https://www.google.com/maps/search/pharmacy/@-42.7484982,147.2659412,16z",
    "lat": -42.7484982,
    "lng": 147.2659412,
    "state": "TAS",
    "rules": "Item 133",
    "poi_name": "IGA",
    "search_radius_km": 0.5,
    "confidence": 65
  },
  {
    "index": 36,
    "url": "https://www.google.com/maps/search/pharmacy/@-42.8966766,147.4320085,16z",
    "lat": -42.8966766,
    "lng": 147.4320085,
    "state": "TAS",
    "rules": "Item 133",
    "poi_name": "Rokeby IGA",
    "search_radius_km": 0.5,
    "confidence": 65
  },
  {
    "index": 37,
    "url": "https://www.google.com/maps/search/pharmacy/@-41.525328,146.8449712,16z",
    "lat": -41.525328,
    "lng": 146.8449712,
    "state": "TAS",
    "rules": "Item 133, Item 134",
    "poi_name": "IGA",
    "search_radius_km": 0.5,
    "confidence": 65
  },
  {
    "index": 38,
    "url": "https://www.google.com/maps/search/pharmacy/@-41.0980218,146.8232761,16z",
    "lat": -41.0980218,
    "lng": 146.8232761,
    "state": "TAS",
    "rules": "Item 133",
    "poi_name": "IGA George Town",
    "search_radius_km": 0.5,
    "confidence": 65
  },
  {
    "index": 49,
    "url": "https://www.google.com/maps/search/pharmacy/@-42.9046784,147.4354685,16z",
    "lat": -42.9046784,
    "lng": 147.4354685,
    "state": "TAS",
    "rules": "Item 135",
    "poi_name": "The Hobart Clinic",
    "search_radius_km": 0.5,
    "confidence": 55
  },
  {
    "index": 50,
    "url": "https://www.google.com/maps/search/pharmacy/@-41.4584509,147.153164,16z",
    "lat": -41.4584509,
    "lng": 147.153164,
    "state": "TAS",
    "rules": "Item 134",
    "poi_name": "DongSheng",
    "search_radius_km": 0.5,
    "confidence": 55
  },
  {
    "index": 51,
    "url": "https://www.google.com/maps/search/pharmacy/@-42.8957201,147.3060276,16z",
    "lat": -42.8957201,
    "lng": 147.3060276,
    "state": "TAS",
    "rules": "Item 135",
    "poi_name": "Calvary Healthcare Tasmania - St John's Campus",
    "search_radius_km": 0.5,
    "confidence": 55
  },
  {
    "index": 52,
    "url": "https://www.google.com/maps/search/pharmacy/@-41.43,147.1295,16z",
    "lat": -41.43,
    "lng": 147.1295,
    "state": "TAS",
    "rules": "Item 134",
    "poi_name": "Meadow Mews Shopping Centre",
    "search_radius_km": 0.5,
    "confidence": 55
  }
]