[
  {
    "id": 6037,
    "name": "Coromandel Valley Pharmacy",
    "address": "401, Main Road, SA, 5051",
    "latitude": -35.041375,
    "longitude": 138.6262392,
    "source": "OpenStreetMap-verify",
    "suburb": "",
    "state": "SA",
    "postcode": "5051"
  },
  {
    "id": 6048,
    "name": "Chemmart",
    "address": "Memford Way, SA, 5159",
    "latitude": -35.0527798,
    "longitude": 138.5900368,
    "source": "OpenStreetMap-verify",
    "suburb": "",
    "state": "SA",
    "postcode": "5159"
  },
  {
    "id": 6073,
    "name": "Edenhope Pharmacy",
    "address": "69, Elizabeth Street, NSW, 3318",
    "latitude": -37.0363789,
    "longitude": 141.2958783,
    "source": "OpenStreetMap-verify",
    "suburb": "",
    "state": "NSW",
    "postcode": "3318"
  },
  {
    "id": 6079,
    "name": "Kanahooka Pharmacy",
    "address": "56, Lakeside Drive, NSW, 2530",
    "latitude": -34.5002643,
    "longitude": 150.8168158,
    "source": "OpenStreetMap-verify",
    "suburb": "",
    "state": "NSW",
    "postcode": "2530"
  },
  {
    "id": 6115,
    "name": "Rosedale Pharmacy",
    "address": "9, Prince Street, VIC",
    "latitude": -38.1517824,
    "longitude": 146.7886522,
    "source": "OpenStreetMap-verify",
    "suburb": "",
    "state": "VIC",
    "postcode": ""
  },
  {
    "id": 6122,
    "name": "My Chemist",
    "address": "11, Narelle Drive, Aspendale Gardens, VIC, 3195",
    "latitude": -38.0219768,
    "longitude": 145.1177044,
    "source": "OpenStreetMap-verify",
    "suburb": "Aspendale Gardens",
    "state": "VIC",
    "postcode": "3195"
  },
  {
    "id": 6124,
    "name": "Aspendale Pharmacy",
    "address": "141, Station Street, Aspendale, VIC, 3195",
    "latitude": -38.0271477,
    "longitude": 145.1025398,
    "source": "OpenStreetMap-verify",
    "suburb": "Aspendale",
    "state": "VIC",
    "postcode": "3195"
  },
  {
    "id": 6127,
    "name": "Wandin North Pharmacy",
    "address": "362, Warburton Highway, Wandin North, VIC, 3139",
    "latitude": -37.7796915,
    "longitude": 145.4274898,
    "source": "OpenStreetMap-verify",
    "suburb": "Wandin North",
    "state": "VIC",
    "postcode": "3139"
  },
  {
    "id": 6136,
    "name": "Queenstown Medical Union Pharmacy",
    "address": "16, Orr Street, Queenstown, TAS, 7467",
    "latitude": -42.0797568,
    "longitude": 145.5554531,
    "source": "OpenStreetMap-verify",
    "suburb": "Queenstown",
    "state": "TAS",
    "postcode": "7467"
  },
  {
    "id": 6140,
    "name": "Wentworth Pharmacy",
    "address": "Sandwych Street, Wentworth, NSW, 2648",
    "latitude": -34.1069158,
    "longitude": 141.9182262,
    "source": "OpenStreetMap-verify",
    "suburb": "Wentworth",
    "state": "NSW",
    "postcode": "2648"
  },
  {
    "id": 6149,
    "name": "Cunnamulla Pharmacy",
    "address": "14, Stockyard Street, Cunnamulla, QLD, 4490",
    "latitude": -28.068594,
    "longitude": 145.6828168,
    "source": "OpenStreetMap-verify",
    "suburb": "Cunnamulla",
    "state": "QLD",
    "postcode": "4490"
  },
  {
    "id": 6153,
    "name": "Amcal Chemist Metung Depot",
    "address": "59, Metung Road, VIC",
    "latitude": -37.892397,
    "longitude": 147.8534112,
    "source": "OpenStreetMap-verify",
    "suburb": "",
    "state": "VIC",
    "postcode": ""
  },
  {
    "id": 6176,
    "name": "Priceline Pharmacy",
    "address": "117, Remembrance Driveway, NSW",
    "latitude": -34.2227832,
    "longitude": 150.592267,
    "source": "OpenStreetMap-verify",
    "suburb": "",
    "state": "NSW",
    "postcode": ""
  },
  {
    "id": 6197,
    "name": "Aberdeen Pharmacy",
    "address": "1, Segenhoe Street, NSW",
    "latitude": -32.1623794,
    "longitude": 150.8898475,
    "source": "OpenStreetMap-verify",
    "suburb": "",
    "state": "NSW",
    "postcode": ""
  },
  {
    "id": 6218,
    "name": "St Mary Pharmacy",
    "address": "47, Bathurst Street, Brewarrina, NSW, 2839",
    "latitude": -29.960851,
    "longitude": 146.8569799,
    "source": "OpenStreetMap-verify",
    "suburb": "Brewarrina",
    "state": "NSW",
    "postcode": "2839"
  },
  {
    "id": 6268,
    "name": "Capital Chemist Palmwoods",
    "address": "2-4, Margaret Street, Palmwoods, QLD, 4555",
    "latitude": -26.6855807,
    "longitude": 152.9592032,
    "source": "OpenStreetMap-verify",
    "suburb": "Palmwoods",
    "state": "QLD",
    "postcode": "4555"
  },
  {
    "id": 6279,
    "name": "UFS",
    "address": "6, Coltman Plaza, VIC",
    "latitude": -37.5438681,
    "longitude": 143.7863013,
    "source": "OpenStreetMap-verify",
    "suburb": "",
    "state": "VIC",
    "postcode": ""
  },
  {
    "id": 6289,
    "name": "Rainbow Community Pharmacy",
    "address": "6, Federal Street, Rainbow, NSW, 3424",
    "latitude": -35.8981788,
    "longitude": 141.9938386,
    "source": "OpenStreetMap-verify",
    "suburb": "Rainbow",
    "state": "NSW",
    "postcode": "3424"
  },
  {
    "id": 6291,
    "name": "River Heads Pharmacy",
    "address": "52-54, Ariadne Street, River Heads, QLD, 4655",
    "latitude": -25.4227061,
    "longitude": 152.9172463,
    "source": "OpenStreetMap-verify",
    "suburb": "River Heads",
    "state": "QLD",
    "postcode": "4655"
  },
  {
    "id": 6328,
    "name": "Mermaid Beach Chempro",
    "address": "2506, Gold Coast Highway, Mermaid Beach, NSW, 4218",
    "latitude": -28.0531522,
    "longitude": 153.4229256,
    "source": "OpenStreetMap-verify",
    "suburb": "Mermaid Beach",
    "state": "NSW",
    "postcode": "4218"
  },
  {
    "id": 6429,
    "name": "TerryWhite Chemmart",
    "address": "Schofields, NSW",
    "latitude": -33.7041506,
    "longitude": 150.8756796,
    "source": "OpenStreetMap-verify",
    "suburb": "Schofields",
    "state": "NSW",
    "postcode": ""
  },
  {
    "id": 6439,
    "name": "Chemist Warehouse",
    "address": "5, Emerald Hills Boulevard, NSW",
    "latitude": -33.9954753,
    "longitude": 150.7908894,
    "source": "OpenStreetMap-verify",
    "suburb": "",
    "state": "NSW",
    "postcode": ""
  },
  {
    "id": 6465,
    "name": "Kurrajong Compounding Pharmacy",
    "address": "74c, Old Bells Line of Road, NSW",
    "latitude": -33.5536382,
    "longitude": 150.6665187,
    "source": "OpenStreetMap-verify",
    "suburb": "",
    "state": "NSW",
    "postcode": ""
  },
  {
    "id": 6507,
    "name": "Foster Pharmacy",
    "address": "2, Station Road, VIC",
    "latitude": -38.6528509,
    "longitude": 146.2011701,
    "source": "OpenStreetMap-verify",
    "suburb": "",
    "state": "VIC",
    "postcode": ""
  },
  {
    "id": 6518,
    "name": "Revive Pharmacy Mitchell",
    "address": "88, Cambridge Street, Mitchell, QLD, 4465",
    "latitude": -26.4879299,
    "longitude": 147.9742027,
    "source": "OpenStreetMap-verify",
    "suburb": "Mitchell",
    "state": "QLD",
    "postcode": "4465"
  },
  {
    "id": 6526,
    "name": "Alpha Pharmacy",
    "address": "51, Shakespeare Street, Alpha, QLD, 4724",
    "latitude": -23.6487128,
    "longitude": 146.6409639,
    "source": "OpenStreetMap-verify",
    "suburb": "Alpha",
    "state": "QLD",
    "postcode": "4724"
  },
  {
    "id": 6536,
    "name": "Dirranbandi Community Pharmacy",
    "address": "50, Railway Street, Dirranbandi, QLD, 4486",
    "latitude": -28.585627,
    "longitude": 148.227554,
    "source": "OpenStreetMap-verify",
    "suburb": "Dirranbandi",
    "state": "QLD",
    "postcode": "4486"
  },
  {
    "id": 6538,
    "name": "Chemist Warehouse",
    "address": "154, Raglan Parade, Warrnambool, VIC, 3280",
    "latitude": -38.38057,
    "longitude": 142.5204488,
    "source": "OpenStreetMap-verify",
    "suburb": "Warrnambool",
    "state": "VIC",
    "postcode": "3280"
  },
  {
    "id": 6543,
    "name": "Mungindi Pharmacy",
    "address": "174, St George Street, Mungindi, NSW, 2406",
    "latitude": -28.9769082,
    "longitude": 148.9889135,
    "source": "OpenStreetMap-verify",
    "suburb": "Mungindi",
    "state": "NSW",
    "postcode": "2406"
  },
  {
    "id": 6571,
    "name": "Tingha Pharmacy",
    "address": "21, Ruby Street, Tingha, NSW, 2369",
    "latitude": -29.954978,
    "longitude": 151.2118227,
    "source": "OpenStreetMap-verify",
    "suburb": "Tingha",
    "state": "NSW",
    "postcode": "2369"
  },
  {
    "id": 6579,
    "name": "Stellar Pharmacy",
    "address": "Sturt Highway, Buronga, NSW, 2739",
    "latitude": -34.1710734,
    "longitude": 142.1854464,
    "source": "OpenStreetMap-verify",
    "suburb": "Buronga",
    "state": "NSW",
    "postcode": "2739"
  },
  {
    "id": 6580,
    "name": "Gloucester Pharmacy",
    "address": "43, Church Street, NSW",
    "latitude": -32.0066661,
    "longitude": 151.9583547,
    "source": "OpenStreetMap-verify",
    "suburb": "",
    "state": "NSW",
    "postcode": ""
  },
  {
    "id": 6597,
    "name": "Brooklyn Pharmacy",
    "address": "5, Bridge Street, Brooklyn, NSW",
    "latitude": -33.5480833,
    "longitude": 151.2263234,
    "source": "OpenStreetMap-verify",
    "suburb": "Brooklyn",
    "state": "NSW",
    "postcode": ""
  },
  {
    "id": 6599,
    "name": "Trundle Pharmacy",
    "address": "61, Forbes Street, Trundle, NSW, 2875",
    "latitude": -32.9224834,
    "longitude": 147.7101883,
    "source": "OpenStreetMap-verify",
    "suburb": "Trundle",
    "state": "NSW",
    "postcode": "2875"
  },
  {
    "id": 6612,
    "name": "Tallangatta Pharmacy",
    "address": "29, Towong Street, NSW",
    "latitude": -36.2163801,
    "longitude": 147.1788926,
    "source": "OpenStreetMap-verify",
    "suburb": "",
    "state": "NSW",
    "postcode": ""
  },
  {
    "id": 6634,
    "name": "Gladstone Pharmacy",
    "address": "4, Ashton Street, NSW",
    "latitude": -31.0216121,
    "longitude": 152.9487763,
    "source": "OpenStreetMap-verify",
    "suburb": "",
    "state": "NSW",
    "postcode": ""
  },
  {
    "id": 6635,
    "name": "Montrose Pharmacy",
    "address": "1, Mount Dandenong Tourist Road, Montrose, VIC, 3765",
    "latitude": -37.8100171,
    "longitude": 145.343187,
    "source": "OpenStreetMap-verify",
    "suburb": "Montrose",
    "state": "VIC",
    "postcode": "3765"
  },
  {
    "id": 6640,
    "name": "Coldstream Pharmacy",
    "address": "670-672, Maroondah Highway, Coldstream, VIC, 3770",
    "latitude": -37.725238,
    "longitude": 145.379564,
    "source": "OpenStreetMap-verify",
    "suburb": "Coldstream",
    "state": "VIC",
    "postcode": "3770"
  },
  {
    "id": 6648,
    "name": "Chemist Warehouse",
    "address": "16, Weippin Street, Cleveland, QLD, 4163",
    "latitude": -27.5419158,
    "longitude": 153.2503913,
    "source": "OpenStreetMap-verify",
    "suburb": "Cleveland",
    "state": "QLD",
    "postcode": "4163"
  },
  {
    "id": 6649,
    "name": "Chemist Warehouse",
    "address": "101, Valley Way, Mount Cotton, QLD, 4165",
    "latitude": -27.638904,
    "longitude": 153.2488688,
    "source": "OpenStreetMap-verify",
    "suburb": "Mount Cotton",
    "state": "QLD",
    "postcode": "4165"
  },
  {
    "id": 6654,
    "name": "Chemist Warehouse",
    "address": "799, Ballina Road, NSW",
    "latitude": -28.8125966,
    "longitude": 153.3479318,
    "source": "OpenStreetMap-verify",
    "suburb": "",
    "state": "NSW",
    "postcode": ""
  },
  {
    "id": 6669,
    "name": "Chemist Warehouse",
    "address": "459, Pumicestone Road, Caboolture, QLD, 4510",
    "latitude": -27.042248,
    "longitude": 152.9746233,
    "source": "OpenStreetMap-verify",
    "suburb": "Caboolture",
    "state": "QLD",
    "postcode": "4510"
  },
  {
    "id": 6696,
    "name": "Caroline Springs Pharmacy",
    "address": "29-35, Lake Street, Caroline Springs, VIC, 3023",
    "latitude": -37.7324848,
    "longitude": 144.7431768,
    "source": "OpenStreetMap-verify",
    "suburb": "Caroline Springs",
    "state": "VIC",
    "postcode": "3023"
  },
  {
    "id": 6698,
    "name": "Priceline Pharmacy",
    "address": "29-35, Lake Street, Caroline Springs, VIC, 3023",
    "latitude": -37.7301237,
    "longitude": 144.7435512,
    "source": "OpenStreetMap-verify",
    "suburb": "Caroline Springs",
    "state": "VIC",
    "postcode": "3023"
  },
  {
    "id": 6717,
    "name": "Simply Pharmacy West Wallsend",
    "address": "Cnr Carington and Withers Street, West Wallsend, NSW, 2286",
    "latitude": -32.9030335,
    "longitude": 151.5809265,
    "source": "OpenStreetMap-verify",
    "suburb": "West Wallsend",
    "state": "NSW",
    "postcode": "2286"
  },
  {
    "id": 6746,
    "name": "Spring Ridge Pharmacy",
    "address": "76, Darby Road, Spring Ridge, NSW, 2343",
    "latitude": -31.3945573,
    "longitude": 150.2489108,
    "source": "OpenStreetMap-verify",
    "suburb": "Spring Ridge",
    "state": "NSW",
    "postcode": "2343"
  },
  {
    "id": 6749,
    "name": "St Mary Lake Cargelligo Pharmacy",
    "address": "17, Foster Street, Lake Cargelligo, NSW, 2672",
    "latitude": -33.2980888,
    "longitude": 146.3748673,
    "source": "OpenStreetMap-verify",
    "suburb": "Lake Cargelligo",
    "state": "NSW",
    "postcode": "2672"
  },
  {
    "id": 6754,
    "name": "Amcal",
    "address": "485, Heysen Boulevard, Mount Barker, SA, 5251",
    "latitude": -35.0872097,
    "longitude": 138.8903342,
    "source": "OpenStreetMap-verify",
    "suburb": "Mount Barker",
    "state": "SA",
    "postcode": "5251"
  },
  {
    "id": 6763,
    "name": "Wilberforce Everyday Chemist",
    "address": "15, King Road, NSW, 2756",
    "latitude": -33.560596,
    "longitude": 150.8392212,
    "source": "OpenStreetMap-verify",
    "suburb": "",
    "state": "NSW",
    "postcode": "2756"
  },
  {
    "id": 6789,
    "name": "Advantage Pharmacy",
    "address": "54, Simpson Avenue, Wollongbar, NSW, 2477",
    "latitude": -28.8281209,
    "longitude": 153.4199799,
    "source": "OpenStreetMap-verify",
    "suburb": "Wollongbar",
    "state": "NSW",
    "postcode": "2477"
  },
  {
    "id": 6791,
    "name": "Leyburn Pharmacy",
    "address": "5808, Toowoomba - Karara Road, Leyburn, QLD, 4365",
    "latitude": -28.009947,
    "longitude": 151.5855482,
    "source": "OpenStreetMap-verify",
    "suburb": "Leyburn",
    "state": "QLD",
    "postcode": "4365"
  },
  {
    "id": 6796,
    "name": "Blooms The Chemist",
    "address": "329, Gardner Road, Rochedale, QLD, 4123",
    "latitude": -27.5775269,
    "longitude": 153.1129714,
    "source": "OpenStreetMap-verify",
    "suburb": "Rochedale",
    "state": "QLD",
    "postcode": "4123"
  },
  {
    "id": 6798,
    "name": "Springsure Pharmacy",
    "address": "44, Eclipse Street, Springsure, QLD, 4722",
    "latitude": -24.1152249,
    "longitude": 148.0889494,
    "source": "OpenStreetMap-verify",
    "suburb": "Springsure",
    "state": "QLD",
    "postcode": "4722"
  },
  {
    "id": 6800,
    "name": "Radiance Injune Pharmacy",
    "address": "8, Second Avenue, Injune, QLD, 4454",
    "latitude": -25.8430907,
    "longitude": 148.5667844,
    "source": "OpenStreetMap-verify",
    "suburb": "Injune",
    "state": "QLD",
    "postcode": "4454"
  },
  {
    "id": 6806,
    "name": "Augathella Phamarcy",
    "address": "98, Main Street, Augathella, QLD, 4477",
    "latitude": -25.7963317,
    "longitude": 146.581591,
    "source": "OpenStreetMap-verify",
    "suburb": "Augathella",
    "state": "QLD",
    "postcode": "4477"
  },
  {
    "id": 6819,
    "name": "Turnbulls Pharmacy",
    "address": "57, Main Street, Sheffield, TAS, 7306",
    "latitude": -41.3820745,
    "longitude": 146.3250747,
    "source": "OpenStreetMap-verify",
    "suburb": "Sheffield",
    "state": "TAS",
    "postcode": "7306"
  },
  {
    "id": 6824,
    "name": "Robinvale Pharmacy",
    "address": "21, Perrin Street, Robinvale, VIC, 3549",
    "latitude": -34.5843645,
    "longitude": 142.7713477,
    "source": "OpenStreetMap-verify",
    "suburb": "Robinvale",
    "state": "VIC",
    "postcode": "3549"
  },
  {
    "id": 6825,
    "name": "Pyramid Hill Prescription Depot",
    "address": "15, Kelly Street, Pyramid Hill, VIC, 3575",
    "latitude": -36.0542691,
    "longitude": 144.1146184,
    "source": "OpenStreetMap-verify",
    "suburb": "Pyramid Hill",
    "state": "VIC",
    "postcode": "3575"
  },
  {
    "id": 6841,
    "name": "Fairwater Compounding Pharmacy",
    "address": "1-5, Hinkler Street, Tullamore, NSW, 2874",
    "latitude": -32.6351523,
    "longitude": 147.5684544,
    "source": "OpenStreetMap-verify",
    "suburb": "Tullamore",
    "state": "NSW",
    "postcode": "2874"
  },
  {
    "id": 6842,
    "name": "Dareton Pharmacy",
    "address": "28, Tapio Street, Dareton, NSW, 2717",
    "latitude": -34.0955016,
    "longitude": 142.0426952,
    "source": "OpenStreetMap-verify",
    "suburb": "Dareton",
    "state": "NSW",
    "postcode": "2717"
  },
  {
    "id": 6868,
    "name": "Muchea Pharmacy",
    "address": "29, Edwards Place, Muchea, WA, 6501",
    "latitude": -31.5800048,
    "longitude": 115.9784501,
    "source": "OpenStreetMap-verify",
    "suburb": "Muchea",
    "state": "WA",
    "postcode": "6501"
  },
  {
    "id": 6897,
    "name": "Red Hill Pharmacy",
    "address": "137 Red Hill Road, VIC",
    "latitude": -38.3824232,
    "longitude": 145.0233457,
    "source": "OpenStreetMap-verify",
    "suburb": "",
    "state": "VIC",
    "postcode": ""
  },
  {
    "id": 6936,
    "name": "PharmaSave",
    "address": "115A, Nepean Highway, VIC",
    "latitude": -38.10253,
    "longitude": 145.1262196,
    "source": "OpenStreetMap-verify",
    "suburb": "",
    "state": "VIC",
    "postcode": ""
  },
  {
    "id": 6941,
    "name": "Allora Pharmacy",
    "address": "42, Herbert Street, Allora, QLD, 4362",
    "latitude": -28.0350781,
    "longitude": 151.9826135,
    "source": "OpenStreetMap-verify",
    "suburb": "Allora",
    "state": "QLD",
    "postcode": "4362"
  },
  {
    "id": 6953,
    "name": "Clifton Pharmacy",
    "address": "69, King Street, Clifton, QLD, 4361",
    "latitude": -27.9304328,
    "longitude": 151.9055973,
    "source": "OpenStreetMap-verify",
    "suburb": "Clifton",
    "state": "QLD",
    "postcode": "4361"
  },
  {
    "id": 6960,
    "name": "Tongala Pharmacy",
    "address": "46, Mangan Street, Tongala, NSW, 3621",
    "latitude": -36.2517736,
    "longitude": 144.9527839,
    "source": "OpenStreetMap-verify",
    "suburb": "Tongala",
    "state": "NSW",
    "postcode": "3621"
  },
  {
    "id": 6970,
    "name": "Quilpie Pharmacy",
    "address": "28, Brolga Street, Quilpie, QLD, 4480",
    "latitude": -26.613654,
    "longitude": 144.2703999,
    "source": "OpenStreetMap-verify",
    "suburb": "Quilpie",
    "state": "QLD",
    "postcode": "4480"
  },
  {
    "id": 6992,
    "name": "Forrestfield Pharmacy",
    "address": "76, Hale Road, Forrestfield, WA, 6058",
    "latitude": -31.9889588,
    "longitude": 116.0086836,
    "source": "OpenStreetMap-verify",
    "suburb": "Forrestfield",
    "state": "WA",
    "postcode": "6058"
  },
  {
    "id": 6994,
    "name": "Crows Nest Pharmacy",
    "address": "3, Toowoomba Road, Crows Nest, QLD, 4355",
    "latitude": -27.2625017,
    "longitude": 152.0554095,
    "source": "OpenStreetMap-verify",
    "suburb": "Crows Nest",
    "state": "QLD",
    "postcode": "4355"
  },
  {
    "id": 7006,
    "name": "Park Orchards Pharmacy",
    "address": "596, Park Road, Park Orchards, VIC, 3114",
    "latitude": -37.7791726,
    "longitude": 145.2172488,
    "source": "OpenStreetMap-verify",
    "suburb": "Park Orchards",
    "state": "VIC",
    "postcode": "3114"
  },
  {
    "id": 7015,
    "name": "Peak Hill Pharmacy",
    "address": "80, Caswell Street, Peak Hill, NSW, 2869",
    "latitude": -32.7245249,
    "longitude": 148.1907674,
    "source": "OpenStreetMap-verify",
    "suburb": "Peak Hill",
    "state": "NSW",
    "postcode": "2869"
  },
  {
    "id": 7037,
    "name": "PharmaSave",
    "address": "28-29, Ferntree Gully Road, Ferntree Gully, VIC, 3156",
    "latitude": -37.8840866,
    "longitude": 145.2755203,
    "source": "OpenStreetMap-verify",
    "suburb": "Ferntree Gully",
    "state": "VIC",
    "postcode": "3156"
  },
  {
    "id": 7040,
    "name": "Port Vincent Pharmacy",
    "address": "4b, Main Street, Port Vincent, SA, 5581",
    "latitude": -34.7775529,
    "longitude": 137.860742,
    "source": "OpenStreetMap-verify",
    "suburb": "Port Vincent",
    "state": "SA",
    "postcode": "5581"
  },
  {
    "id": 7043,
    "name": "Bell Care Pharmacy",
    "address": "3, Ensor Street, Bell, QLD, 4408",
    "latitude": -26.9319517,
    "longitude": 151.4494869,
    "source": "OpenStreetMap-verify",
    "suburb": "Bell",
    "state": "QLD",
    "postcode": "4408"
  },
  {
    "id": 7048,
    "name": "Pharmacia - Eidsvold Pharmacy",
    "address": "34, Moreton Street, Eidsvold, QLD, 4627",
    "latitude": -25.3697651,
    "longitude": 151.1220186,
    "source": "OpenStreetMap-verify",
    "suburb": "Eidsvold",
    "state": "QLD",
    "postcode": "4627"
  },
  {
    "id": 7052,
    "name": "Evandale Pharmacy",
    "address": "8A High Street, EVANDALE, TAS, 7212",
    "latitude": -41.56942836,
    "longitude": 147.24636952,
    "source": "healthdirect.gov.au",
    "suburb": "EVANDALE",
    "state": "TAS",
    "postcode": "7212"
  },
  {
    "id": 7057,
    "name": "Chemist Warehouse Strathfield Plaza",
    "address": "Shops 17-18, Strathfield Plaza, Strathfield, NSW, 2135",
    "latitude": -33.8728664,
    "longitude": 151.0934478,
    "source": "chemistwarehouse.com.au",
    "suburb": "Strathfield",
    "state": "NSW",
    "postcode": "2135"
  },
  {
    "id": 7073,
    "name": "Chemist Warehouse Lismore",
    "address": "Shop 1   799 Ballina Rd, Goonellabah, NSW, 2480",
    "latitude": -28.8122,
    "longitude": 153.347,
    "source": "chemistwarehouse.com.au",
    "suburb": "Goonellabah",
    "state": "NSW",
    "postcode": "2480"
  },
  {
    "id": 7081,
    "name": "Chemist Warehouse Hawthorn East - Home Co.",
    "address": "Tenancy T5 740 to 742 Toorak Road, Hawthorn East, VIC, 3123",
    "latitude": -37.8452,
    "longitude": 145.041,
    "source": "chemistwarehouse.com.au",
    "suburb": "Hawthorn East",
    "state": "VIC",
    "postcode": "3123"
  },
  {
    "id": 7084,
    "name": "Chemist Warehouse Preston - Home Co. DC",
    "address": "Tenancy T08 85 Chifley Drive, Preston, VIC, 3072",
    "latitude": -37.7435,
    "longitude": 145.03,
    "source": "chemistwarehouse.com.au",
    "suburb": "Preston",
    "state": "VIC",
    "postcode": "3072"
  },
  {
    "id": 7086,
    "name": "Chemist Warehouse Altona Gate Shopping Centre",
    "address": "Shop G7  Altona Gate Shopping Centre  124 to 134 Millers Rd, Altona, VIC, 3025",
    "latitude": -37.8276,
    "longitude": 144.849,
    "source": "chemistwarehouse.com.au",
    "suburb": "Altona",
    "state": "VIC",
    "postcode": "3025"
  },
  {
    "id": 7091,
    "name": "Chemist Warehouse Reservoir Central S/C",
    "address": "Shop 18, Reservoir Central Shopping Centre, Reservoir, VIC, 3073",
    "latitude": -37.7257248,
    "longitude": 145.0268599,
    "source": "chemistwarehouse.com.au",
    "suburb": "Reservoir",
    "state": "VIC",
    "postcode": "3073"
  },
  {
    "id": 7093,
    "name": "Chemist Warehouse Burwood VIC",
    "address": "1424 Toorak Rd, Camberwell, VIC, 3124",
    "latitude": -37.8505917,
    "longitude": 145.0951495,
    "source": "chemistwarehouse.com.au",
    "suburb": "Camberwell",
    "state": "VIC",
    "postcode": "3124"
  },
  {
    "id": 7110,
    "name": "Chemist Warehouse Eve Central SC",
    "address": "Shop 11, Eve Central Shopping Centre, Cranbourne North, VIC, 3977",
    "latitude": -38.0727483,
    "longitude": 145.3162994,
    "source": "chemistwarehouse.com.au",
    "suburb": "Cranbourne North",
    "state": "VIC",
    "postcode": "3977"
  },
  {
    "id": 7111,
    "name": "Chemist Warehouse Craigieburn Junction",
    "address": "Building F Craigieburn Junction 420 to 440 Craigieburn Road, Craigieburn, VIC, 3064",
    "latitude": -37.58523,
    "longitude": 144.83945,
    "source": "chemistwarehouse.com.au",
    "suburb": "Craigieburn",
    "state": "VIC",
    "postcode": "3064"
  },
  {
    "id": 7112,
    "name": "Chemist Warehouse Merrifield City SC Mickleham",
    "address": "Shop MM02 Merrifield City Shopping Centre 250 to 270 Donnybrook Road, Mickleham, VIC, 3064",
    "latitude": -37.5372,
    "longitude": 144.92,
    "source": "chemistwarehouse.com.au",
    "suburb": "Mickleham",
    "state": "VIC",
    "postcode": "3064"
  },
  {
    "id": 7114,
    "name": "Chemist Warehouse Kalkallo",
    "address": "Shop 20, Kallo Town Centre, Kalkallo, VIC, 3064",
    "latitude": -37.534748,
    "longitude": 144.9607092,
    "source": "chemistwarehouse.com.au",
    "suburb": "Kalkallo",
    "state": "VIC",
    "postcode": "3064"
  },
  {
    "id": 7115,
    "name": "Chemist Warehouse Roxburgh Park - Home Co.",
    "address": "T8 Home Co Roxburgh Park  1550 Pascoe Vale Road, Coolaroo, VIC, 3048",
    "latitude": -37.6457,
    "longitude": 144.93,
    "source": "chemistwarehouse.com.au",
    "suburb": "Coolaroo",
    "state": "VIC",
    "postcode": "3048"
  },
  {
    "id": 7116,
    "name": "Chemist Warehouse Caroline Springs Town Square",
    "address": "Shop L01 016, CS Square Centre, Caroline Springs, VIC, 3023",
    "latitude": -37.731494,
    "longitude": 144.7435,
    "source": "chemistwarehouse.com.au",
    "suburb": "Caroline Springs",
    "state": "VIC",
    "postcode": "3023"
  },
  {
    "id": 7123,
    "name": "Chemist Warehouse Epsom Village",
    "address": "Shops 1 to 3 Epsom Village S/C 16 to 40 Howard St, Epsom, VIC, 3551",
    "latitude": -36.7051,
    "longitude": 144.316,
    "source": "chemistwarehouse.com.au",
    "suburb": "Epsom",
    "state": "VIC",
    "postcode": "3551"
  },
  {
    "id": 7124,
    "name": "Chemist Warehouse Shepparton North",
    "address": "127 Numurkah Road, Shepparton North, VIC, 3631",
    "latitude": -36.3572,
    "longitude": 145.402,
    "source": "chemistwarehouse.com.au",
    "suburb": "Shepparton North",
    "state": "VIC",
    "postcode": "3631"
  },
  {
    "id": 7125,
    "name": "Chemist Warehouse Riverside Plaza",
    "address": "Shop 14   8025 Goulburn Valley Highway, Kialla, VIC, 3631",
    "latitude": -36.4088,
    "longitude": 145.39,
    "source": "chemistwarehouse.com.au",
    "suburb": "Kialla",
    "state": "VIC",
    "postcode": "3631"
  },
  {
    "id": 7142,
    "name": "Chemist Warehouse Helensvale",
    "address": "502 Hope Island RD, Helensvale, QLD, 4212",
    "latitude": -27.8871,
    "longitude": 153.318,
    "source": "chemistwarehouse.com.au",
    "suburb": "Helensvale",
    "state": "QLD",
    "postcode": "4212"
  },
  {
    "id": 7145,
    "name": "Chemist Warehouse Pimpama City Shopping Centre",
    "address": "Shop T10 Pimpama City Shopping Centre 102 Pimpama Jacobs Well Rd, Pimpama, QLD, 4209",
    "latitude": -27.8152,
    "longitude": 153.292,
    "source": "chemistwarehouse.com.au",
    "suburb": "Pimpama",
    "state": "QLD",
    "postcode": "4209"
  },
  {
    "id": 7151,
    "name": "Chemist Warehouse Forest Glen",
    "address": "Tenancy B1 Building 2  15 Grammar School Way, Forest Glen, QLD, 4556",
    "latitude": -26.687,
    "longitude": 153.008,
    "source": "chemistwarehouse.com.au",
    "suburb": "Forest Glen",
    "state": "QLD",
    "postcode": "4556"
  },
  {
    "id": 7152,
    "name": "Chemist Warehouse Bundaberg - Kensington SC",
    "address": "Tenancy 11, Kensington Shopping Centre,, Kensington, QLD, 4670",
    "latitude": -24.890758,
    "longitude": 152.320465,
    "source": "chemistwarehouse.com.au",
    "suburb": "Kensington",
    "state": "QLD",
    "postcode": "4670"
  },
  {
    "id": 7169,
    "name": "Chemist Warehouse Ashby",
    "address": "Tenancy T4 Ashby Village Shopping Centre   6 Hollosy Way, Ashby, WA, 6065",
    "latitude": -31.7321,
    "longitude": 115.803,
    "source": "chemistwarehouse.com.au",
    "suburb": "Ashby",
    "state": "WA",
    "postcode": "6065"
  },
  {
    "id": 7182,
    "name": "Chemist Warehouse Moana",
    "address": "Shop 6 7 50 Babbacombe Dr, Moana, SA, 5169",
    "latitude": -35.2142,
    "longitude": 138.478,
    "source": "chemistwarehouse.com.au",
    "suburb": "Moana",
    "state": "SA",
    "postcode": "5169"
  },
  {
    "id": 7192,
    "name": "Chemist Warehouse Majura Park SC",
    "address": "Shop 4 to 6 Majura Park SC 18 to 26 Spitfire Avenue, Majura, ACT, 2609",
    "latitude": -35.2994,
    "longitude": 149.191,
    "source": "chemistwarehouse.com.au",
    "suburb": "Majura",
    "state": "ACT",
    "postcode": "2609"
  },
  {
    "id": 7195,
    "name": "TerryWhite Chemmart Jordan Springs",
    "address": "Shop 4, 65 Water Gum Drive, Jordan Springs, NSW, 2747",
    "latitude": -33.727878,
    "longitude": 150.725823,
    "source": "terrywhitechemmart.com.au",
    "suburb": "Jordan Springs",
    "state": "NSW",
    "postcode": "2747"
  },
  {
    "id": 7212,
    "name": "TerryWhite Chemmart Penneshaw Depot",
    "address": "12 Middle Terrace, Penneshaw, SA, 5222",
    "latitude": -35.718184,
    "longitude": 137.938054,
    "source": "terrywhitechemmart.com.au",
    "suburb": "Penneshaw",
    "state": "SA",
    "postcode": "5222"
  },
  {
    "id": 7216,
    "name": "TerryWhite Chemmart Kingsford Village",
    "address": "16, Kingsford Village Shopping Centre, Bullsbrook, WA, 6084",
    "latitude": -31.675363,
    "longitude": 116.032356,
    "source": "terrywhitechemmart.com.au",
    "suburb": "Bullsbrook",
    "state": "WA",
    "postcode": "6084"
  },
  {
    "id": 7223,
    "name": "TerryWhite Chemmart Erskine Park",
    "address": "Shop 13, Corner Swallow and Peppertree Drive, Erskine Park, NSW, 2759",
    "latitude": -33.803691,
    "longitude": 150.804067,
    "source": "terrywhitechemmart.com.au",
    "suburb": "Erskine Park",
    "state": "NSW",
    "postcode": "2759"
  },
  {
    "id": 7233,
    "name": "TerryWhite Chemmart Bullsbrook",
    "address": "2529 Great Northern Highway, Bullsbrook, WA, 6084",
    "latitude": -31.672361,
    "longitude": 116.031327,
    "source": "terrywhitechemmart.com.au",
    "suburb": "Bullsbrook",
    "state": "WA",
    "postcode": "6084"
  },
  {
    "id": 7254,
    "name": "TerryWhite Chemmart Caroline Springs",
    "address": "Unit 1, 173 Caroline Springs Boulevard, Caroline Springs, VIC, 3023",
    "latitude": -37.735383,
    "longitude": 144.740537,
    "source": "terrywhitechemmart.com.au",
    "suburb": "Caroline Springs",
    "state": "VIC",
    "postcode": "3023"
  },
  {
    "id": 7276,
    "name": "TerryWhite Chemmart Mountain Gate (Transitioning)",
    "address": "Shop 26, Mountain Gate Shopping Centre, 1880 Ferntree Gully Road, Ferntree Gully, VIC, 3156",
    "latitude": -37.883457,
    "longitude": 145.273956,
    "source": "terrywhitechemmart.com.au",
    "suburb": "Ferntree Gully",
    "state": "VIC",
    "postcode": "3156"
  },
  {
    "id": 7286,
    "name": "TerryWhite Chemmart Bringelly",
    "address": "Shop 1, 45-51 Wentworth Road, Bringelly, NSW, 2556",
    "latitude": -33.94103,
    "longitude": 150.731117,
    "source": "terrywhitechemmart.com.au",
    "suburb": "Bringelly",
    "state": "NSW",
    "postcode": "2556"
  },
  {
    "id": 7293,
    "name": "TerryWhite Chemmart Bindoon",
    "address": "25 Binda Place, Bindoon, WA, 6502",
    "latitude": -31.383721,
    "longitude": 116.095147,
    "source": "terrywhitechemmart.com.au",
    "suburb": "Bindoon",
    "state": "WA",
    "postcode": "6502"
  },
  {
    "id": 7297,
    "name": "TerryWhite Chemmart Wilberforce",
    "address": "Shop 6& 7, Wilberforce Centra, King Road, Wilberforce, NSW, 2756",
    "latitude": -33.561406,
    "longitude": 150.84021,
    "source": "terrywhitechemmart.com.au",
    "suburb": "Wilberforce",
    "state": "NSW",
    "postcode": "2756"
  },
  {
    "id": 7301,
    "name": "TerryWhite Chemmart Delroy",
    "address": "Shop 15, Delroy Park Shopping Centre, Dubbo, NSW, 2830",
    "latitude": -32.254137,
    "longitude": 148.57762,
    "source": "terrywhitechemmart.com.au",
    "suburb": "Dubbo",
    "state": "NSW",
    "postcode": "2830"
  },
  {
    "id": 7306,
    "name": "TerryWhite Chemmart Woodlea",
    "address": "Shop T14, 2 Lim Way, Aintree, VIC, 3336",
    "latitude": -37.721529,
    "longitude": 144.662547,
    "source": "terrywhitechemmart.com.au",
    "suburb": "Aintree",
    "state": "VIC",
    "postcode": "3336"
  },
  {
    "id": 7314,
    "name": "Priceline Batemans Bay",
    "address": "SHOP G19-G21C, VILLAGE CENTRE, 1 PERRY STREET, BATEMANS BAY, NSW, 2536",
    "latitude": -35.6491178,
    "longitude": 150.0722053,
    "source": "priceline.com.au",
    "suburb": "BATEMANS BAY",
    "state": "NSW",
    "postcode": "2536"
  },
  {
    "id": 7321,
    "name": "Priceline Carousel",
    "address": "SHOP 1113, WESTFIELD CAROUSEL, 1382 ALBANY HIGHWAY, CANNINGTON, WA, 6107",
    "latitude": -32.0121014,
    "longitude": 115.9645378,
    "source": "priceline.com.au",
    "suburb": "CANNINGTON",
    "state": "WA",
    "postcode": "6107"
  },
  {
    "id": 7323,
    "name": "Priceline Deer Park",
    "address": "SHOP T089, BRIMBANK CENTRAL SHOPPING CENTRE, CNR NEALE & STATION RDS, DEER PARK, VIC, 3023",
    "latitude": -37.74154,
    "longitude": 144.7063112,
    "source": "priceline.com.au",
    "suburb": "DEER PARK",
    "state": "VIC",
    "postcode": "3023"
  },
  {
    "id": 7336,
    "name": "Priceline Northland",
    "address": "SHOP B012, NORTHLAND SHOPPING CENTRE, MURRAY ROAD, PRESTON, VIC, 3072",
    "latitude": -37.740719,
    "longitude": 145.030197,
    "source": "priceline.com.au",
    "suburb": "PRESTON",
    "state": "VIC",
    "postcode": "3072"
  },
  {
    "id": 7344,
    "name": "Priceline Pharmacy Belmont Forum",
    "address": "TENANCY 32, BELMONT FORUM SHOPPING CENTRE, 227 BELMONT AVENUE, CLOVERDALE, WA, 6105",
    "latitude": -31.943501,
    "longitude": 115.925499,
    "source": "priceline.com.au",
    "suburb": "CLOVERDALE",
    "state": "WA",
    "postcode": "6105"
  },
  {
    "id": 7348,
    "name": "Priceline Pharmacy Bribie Island",
    "address": "SHOP 6-9, BRIBIE ISLAND SHOPPING CENTRE, 239 - 255 GOODWIN DRIVE, BELLARA, QLD, 4507",
    "latitude": -26.9945654,
    "longitude": 153.1207447,
    "source": "priceline.com.au",
    "suburb": "BELLARA",
    "state": "QLD",
    "postcode": "4507"
  },
  {
    "id": 7356,
    "name": "Priceline Pharmacy Calderwood",
    "address": "Shop T3, Calderwood Village, 25 Escarpment Drive, Calderwood, NSW, 2527",
    "latitude": -34.573672611018615,
    "longitude": 150.74964609061382,
    "source": "priceline.com.au",
    "suburb": "Calderwood",
    "state": "NSW",
    "postcode": "2527"
  },
  {
    "id": 7375,
    "name": "Priceline Pharmacy Forrestfield",
    "address": "SHOP 15, FORRESTFIELD FORUM & MARKETPLACE, 20 STRELITZIA AVENUE, FORRESTFIELD, WA, 6058",
    "latitude": -31.987133,
    "longitude": 116.009733,
    "source": "priceline.com.au",
    "suburb": "FORRESTFIELD",
    "state": "WA",
    "postcode": "6058"
  },
  {
    "id": 7378,
    "name": "Priceline Pharmacy Gables",
    "address": "P20 Stockland Gables Shopping Centre, 2 Lakefront Cr, Gables, NSW, 2765",
    "latitude": -33.623932324295,
    "longitude": 150.9109815872036,
    "source": "priceline.com.au",
    "suburb": "Gables",
    "state": "NSW",
    "postcode": "2765"
  },
  {
    "id": 7379,
    "name": "Priceline Pharmacy Garden City",
    "address": "SHOP MM7A, GARDEN CITY SHOPPING CENTRE, LOGAN ROAD, MT GRAVATT, QLD, 4122",
    "latitude": -27.56012,
    "longitude": 153.07972,
    "source": "priceline.com.au",
    "suburb": "MT GRAVATT",
    "state": "QLD",
    "postcode": "4122"
  },
  {
    "id": 7409,
    "name": "Priceline Pharmacy Mandurah East (Next to Target)",
    "address": "SHOP G-061, MANDURAH FORUM SHOPPING CENTRE, 330 PINJARRA ROAD, MANDURAH, WA, 6210",
    "latitude": -32.46857656,
    "longitude": 115.759637,
    "source": "priceline.com.au",
    "suburb": "MANDURAH",
    "state": "WA",
    "postcode": "6210"
  },
  {
    "id": 7451,
    "name": "Priceline Pharmacy Tahmoor",
    "address": "SHOP 12, TAHMOOR TOWN CENTRE, 117 REMEMBRANCE DRIVE, TAHMOOR, NSW, 2573",
    "latitude": -34.22852,
    "longitude": 150.58955,
    "source": "priceline.com.au",
    "suburb": "TAHMOOR",
    "state": "NSW",
    "postcode": "2573"
  },
  {
    "id": 7474,
    "name": "Priceline Rockingham",
    "address": "SHOP G039A, ROCKINGHAM SHOPPING CENTRE, 1 COUNCIL ROAD, ROCKINGHAM, WA, 6168",
    "latitude": -32.2822732,
    "longitude": 115.7693535,
    "source": "priceline.com.au",
    "suburb": "ROCKINGHAM",
    "state": "WA",
    "postcode": "6168"
  },
  {
    "id": 7477,
    "name": "Priceline Tweed City",
    "address": "SHOP 108/109, TWEED CITY SHOPPING CENTRE, 54 MINJUNGBAL DRIVE, TWEED HEADS SOUTH, NSW, 2486",
    "latitude": -28.2187657,
    "longitude": 153.4744054,
    "source": "priceline.com.au",
    "suburb": "TWEED HEADS SOUTH",
    "state": "NSW",
    "postcode": "2486"
  },
  {
    "id": 7478,
    "name": "Priceline Wagga",
    "address": "SHOP 4, WAGGA WAGGA MARKETPLACE, 87 BAYLIS STREET, WAGGA WAGGA, NSW, 2650",
    "latitude": -35.283152,
    "longitude": 147.4174803,
    "source": "priceline.com.au",
    "suburb": "WAGGA WAGGA",
    "state": "NSW",
    "postcode": "2650"
  },
  {
    "id": 7483,
    "name": "Priceline Willetton",
    "address": "SHOP 60, SOUTHLANDS BOULEVARDE SHOPPING CENTRE, 45 BURRENDAH BOULEVARD, WILLETTON, WA, 6155",
    "latitude": -32.0819784,
    "longitude": 115.91132,
    "source": "priceline.com.au",
    "suburb": "WILLETTON",
    "state": "WA",
    "postcode": "6155"
  },
  {
    "id": 7487,
    "name": "Healthpoint Pharmacy Snug",
    "address": "2241, Channel Highway, Snug, TAS, 7054",
    "latitude": -43.0689239,
    "longitude": 147.256886,
    "source": "OpenStreetMap-verify",
    "suburb": "Snug",
    "state": "TAS",
    "postcode": "7054"
  },
  {
    "id": 7509,
    "name": "Unknown Pharmacy",
    "address": "",
    "latitude": -37.3792587,
    "longitude": 140.8369925,
    "source": "OpenStreetMap-verify",
    "suburb": "",
    "state": "SA",
    "postcode": ""
  },
  {
    "id": 7510,
    "name": "Unknown Pharmacy",
    "address": "",
    "latitude": -35.3290761,
    "longitude": 140.517473,
    "source": "OpenStreetMap-verify",
    "suburb": "",
    "state": "SA",
    "postcode": ""
  },
  {
    "id": 7511,
    "name": "Unknown Pharmacy",
    "address": "",
    "latitude": -33.3525933,
    "longitude": 138.2072579,
    "source": "OpenStreetMap-verify",
    "suburb": "",
    "state": "SA",
    "postcode": ""
  },
  {
    "id": 7520,
    "name": "Kojonup Pharmacy",
    "address": "Albany Highway",
    "latitude": -33.834416,
    "longitude": 117.1590535,
    "source": "OpenStreetMap-verify",
    "suburb": "",
    "state": "WA",
    "postcode": ""
  },
  {
    "id": 7543,
    "name": "Unknown Pharmacy",
    "address": "",
    "latitude": -26.4592532,
    "longitude": 152.6770846,
    "source": "OpenStreetMap-verify",
    "suburb": "",
    "state": "QLD",
    "postcode": ""
  },
  {
    "id": 7555,
    "name": "mediadvice",
    "address": "",
    "latitude": -33.7586406,
    "longitude": 151.0933428,
    "source": "OpenStreetMap-verify",
    "suburb": "",
    "state": "NSW",
    "postcode": ""
  },
  {
    "id": 7605,
    "name": "Unknown Pharmacy",
    "address": "",
    "latitude": -37.876296,
    "longitude": 144.6142168,
    "source": "OpenStreetMap-verify",
    "suburb": "",
    "state": "VIC",
    "postcode": ""
  },
  {
    "id": 7606,
    "name": "U Pharmacy Scoresby Village",
    "address": "",
    "latitude": -37.8981801,
    "longitude": 145.2310929,
    "source": "OpenStreetMap-verify",
    "suburb": "",
    "state": "VIC",
    "postcode": ""
  },
  {
    "id": 7610,
    "name": "Knoxfield Pharmacy",
    "address": "1571, Ferntree Gully Road, Knoxfield, VIC, 3180",
    "latitude": -37.8943652,
    "longitude": 145.2493912,
    "source": "OpenStreetMap-verify",
    "suburb": "Knoxfield",
    "state": "VIC",
    "postcode": "3180"
  },
  {
    "id": 7638,
    "name": "Elixir Compounding Pharmacy",
    "address": "1880, Ferntree Gully Road, Ferntree Gully, VIC, 3156",
    "latitude": -37.883971,
    "longitude": 145.2764798,
    "source": "OpenStreetMap-verify",
    "suburb": "Ferntree Gully",
    "state": "VIC",
    "postcode": "3156"
  },
  {
    "id": 7656,
    "name": "Guardian",
    "address": "",
    "latitude": -36.4540571,
    "longitude": 142.0268567,
    "source": "OpenStreetMap-verify",
    "suburb": "",
    "state": "VIC",
    "postcode": ""
  },
  {
    "id": 7657,
    "name": "Skipton Pharmacy",
    "address": "",
    "latitude": -37.6863994,
    "longitude": 143.3658514,
    "source": "OpenStreetMap-verify",
    "suburb": "",
    "state": "VIC",
    "postcode": ""
  },
  {
    "id": 7658,
    "name": "GLENGARRY COMMUNITY PHARMACY",
    "address": "23, Main Street, Glengarry, VIC, 3854",
    "latitude": -38.1255911,
    "longitude": 146.5732954,
    "source": "OpenStreetMap-verify",
    "suburb": "Glengarry",
    "state": "VIC",
    "postcode": "3854"
  },
  {
    "id": 7676,
    "name": "Amcal Pharmacy High St Day & Night - North Willoughby",
    "address": "4/201 High St, North Willoughby NSW 2068, Australia",
    "latitude": -37.7956392,
    "longitude": 151.200597,
    "source": "amcal.com.au",
    "suburb": "North Willoughby",
    "state": "NSW",
    "postcode": "2068"
  },
  {
    "id": 7681,
    "name": "Amcal+ Express Pharmacy Sydney International Pier C",
    "address": "Shop C2 - 144 Sydney International, AIRSIDE Terminal 1, Mascot NSW 2000",
    "latitude": -33.93658,
    "longitude": 151.16696,
    "source": "amcal.com.au",
    "suburb": "Mascot",
    "state": "NSW",
    "postcode": "2000"
  },
  {
    "id": 7684,
    "name": "Amcal + Pharmacy Zilzie",
    "address": "28 Cocoanut Point Dr, Zilzie QLD 4710, Australia",
    "latitude": -23.2779449,
    "longitude": 150.8146486,
    "source": "amcal.com.au",
    "suburb": "Zilzie",
    "state": "QLD",
    "postcode": "4710"
  },
  {
    "id": 7699,
    "name": "Amcal+ Pharmacy Melbourne International Airport",
    "address": "Melbourne Airport International T2, Shop 133R, Departure Drive, Tullamarine VIC 3045",
    "latitude": -37.6667,
    "longitude": 144.8514,
    "source": "amcal.com.au",
    "suburb": "Tullamarine",
    "state": "VIC",
    "postcode": "3045"
  },
  {
    "id": 7702,
    "name": "AMCAL FISH CREEK",
    "address": "25 Falls Rd, Fish Creek VIC 3959, Australia",
    "latitude": -38.6926553,
    "longitude": 146.0824966,
    "source": "amcal.com.au",
    "suburb": "Fish Creek",
    "state": "VIC",
    "postcode": "3959"
  },
  {
    "id": 7703,
    "name": "Amcal Pharmacy Nyora",
    "address": "44 Davis St, Nyora VIC 3987, Australia",
    "latitude": -38.33480280000001,
    "longitude": 145.6724771,
    "source": "amcal.com.au",
    "suburb": "Nyora",
    "state": "VIC",
    "postcode": "3987"
  },
  {
    "id": 7706,
    "name": "Amcal+ Pharmacy Chadstone",
    "address": "Chadstone Shopping Centre, G-112/1341 Dandenong Rd, Malvern East VIC 3145",
    "latitude": -37.8878465,
    "longitude": 145.082586,
    "source": "amcal.com.au",
    "suburb": "Malvern East",
    "state": "VIC",
    "postcode": "3145"
  },
  {
    "id": 7708,
    "name": "Amcal+ Pharmacy Northland",
    "address": "Northland Shopping Centre, Tenancy F007/2 to 50 Murray Rd, Preston VIC 3072, Australia",
    "latitude": -37.737265725566395,
    "longitude": 145.0296941391959,
    "source": "amcal.com.au",
    "suburb": "Preston",
    "state": "VIC",
    "postcode": "3072"
  },
  {
    "id": 7712,
    "name": "Amcal+ Pharmacy Armadale - Haynes",
    "address": "1256 Armadale Road, Haynes Shopping Centre, Shop 7, Armadale WA 6112",
    "latitude": -32.14204,
    "longitude": 115.90969,
    "source": "amcal.com.au",
    "suburb": "Armadale",
    "state": "WA",
    "postcode": "6112"
  },
  {
    "id": 7714,
    "name": "Amcal+ Pharmacy Perth Domestic Airport T1",
    "address": "1C, 203 Terminal 1, Domestic Pier, Perth Airport WA 6105",
    "latitude": -31.93854,
    "longitude": 115.96505,
    "source": "amcal.com.au",
    "suburb": "Perth Airport",
    "state": "WA",
    "postcode": "6105"
  },
  {
    "id": 7726,
    "name": "Discount Drug Store Meadow Heights Shopping Centre",
    "address": "55 Paringa Blvd, Meadow Heights VIC 3048, Australia",
    "latitude": -37.6508005,
    "longitude": 144.922269,
    "source": "discountdrugstores.com.au",
    "suburb": "Meadow Heights",
    "state": "VIC",
    "postcode": "3048"
  },
  {
    "id": 7729,
    "name": "Pharmasave Mountain Gate",
    "address": "Shop 28 & 29 Mountain Gate Shopping Centre, Ferntree Gully Vic 3156",
    "latitude": -33.8362746,
    "longitude": 151.2091342,
    "source": "pharmasave.com.au",
    "suburb": "Ferntree Gully",
    "state": "VIC",
    "postcode": "3156"
  },
  {
    "id": 7737,
    "name": "Inverleigh Pharmacy",
    "address": "17 High St, Inverleigh VIC 3321, Australia",
    "latitude": -38.1011523,
    "longitude": 144.0587926,
    "source": "friendliespharmacy.com.au",
    "suburb": "Inverleigh",
    "state": "VIC",
    "postcode": "3321"
  },
  {
    "id": 7739,
    "name": "Adelong Pharmacy",
    "address": "107 Tumut St, Adelong NSW 2729, Australia",
    "latitude": -35.3087918,
    "longitude": 148.0662291,
    "source": "friendliespharmacy.com.au",
    "suburb": "Adelong",
    "state": "NSW",
    "postcode": "2729"
  },
  {
    "id": 7742,
    "name": "Kilcunda Discount Chemist",
    "address": "Shop/Pod 6 The Sticks, 3537 Bass Hwy, Kilcunda VIC 3995, Australia",
    "latitude": -38.5497022,
    "longitude": 145.4769984,
    "source": "friendliespharmacy.com.au",
    "suburb": "Kilcunda",
    "state": "VIC",
    "postcode": "3995"
  },
  {
    "id": 7746,
    "name": "Wyndham Vale Pharmacy",
    "address": "127 Ballan Rd, Wyndham Vale VIC 3024, Australia",
    "latitude": -37.892953,
    "longitude": 144.6299021,
    "source": "friendliespharmacy.com.au",
    "suburb": "Wyndham Vale",
    "state": "VIC",
    "postcode": "3024"
  },
  {
    "id": 7748,
    "name": "Kinglake Pharmacy",
    "address": "3/1 Victoria Rd, Kinglake VIC 3763, Australia",
    "latitude": -37.5315044,
    "longitude": 145.3482388,
    "source": "various-sigma",
    "suburb": "Kinglake",
    "state": "VIC",
    "postcode": "3763"
  },
  {
    "id": 7749,
    "name": "Norfolk Island Pharmacy",
    "address": "62 Taylors Rd, Norfolk Island NSW 2899, Australia",
    "latitude": -29.0444807,
    "longitude": 167.9535677,
    "source": "various-sigma",
    "suburb": "Norfolk Island",
    "state": "NSW",
    "postcode": "2899"
  },
  {
    "id": 7751,
    "name": "Collarenebri Pharmacy",
    "address": "2 Wilson St, Collarenebri NSW 2833, Australia",
    "latitude": -29.5418992,
    "longitude": 148.5751829,
    "source": "various-sigma",
    "suburb": "Collarenebri",
    "state": "NSW",
    "postcode": "2833"
  },
  {
    "id": 7761,
    "name": "Kilkivan Pharmacy",
    "address": "1/10 Bligh St, Kilkivan QLD 4600, Australia",
    "latitude": -26.0852282,
    "longitude": 152.2382677,
    "source": "various-sigma",
    "suburb": "Kilkivan",
    "state": "QLD",
    "postcode": "4600"
  },
  {
    "id": 7763,
    "name": "Longwarry Pharmacy",
    "address": "Shop 3, 4/10 Mackey St, Longwarry VIC 3816, Australia",
    "latitude": -38.1115696,
    "longitude": 145.7691115,
    "source": "various-sigma",
    "suburb": "Longwarry",
    "state": "VIC",
    "postcode": "3816"
  },
  {
    "id": 7767,
    "name": "Launching Place Pharmacy",
    "address": "SHOP 1/2 Centella Pl, Launching Place VIC 3139, Australia",
    "latitude": -37.7764427,
    "longitude": 145.5730479,
    "source": "various-sigma",
    "suburb": "Launching Place",
    "state": "VIC",
    "postcode": "3139"
  },
  {
    "id": 7768,
    "name": "Miriam Vale Pharmacy",
    "address": "15 Blomfield St, Miriam Vale QLD 4677, Australia",
    "latitude": -24.3303213,
    "longitude": 151.5642146,
    "source": "various-sigma",
    "suburb": "Miriam Vale",
    "state": "QLD",
    "postcode": "4677"
  },
  {
    "id": 7776,
    "name": "Healthfirst Family Pharmacy",
    "address": "214 Princes Hwy, Hallam VIC 3803, Australia",
    "latitude": -38.0056592,
    "longitude": 145.271832,
    "source": "various-sigma",
    "suburb": "Hallam",
    "state": "VIC",
    "postcode": "3803"
  },
  {
    "id": 7786,
    "name": "Baulkham Hills Soul Pattinson Chemist",
    "address": "Shop 3 & 4, Stockland Mall, Olive Street  BAULKHAM HILLS,  NSW 2153",
    "latitude": -33.7231481,
    "longitude": 151.2377246,
    "source": "soulpattinson.com.au",
    "suburb": null,
    "state": "NSW",
    "postcode": "2153"
  },
  {
    "id": 7820,
    "name": "Terrywhite Chemmart Jordan Springs",
    "address": "Shop4/65 Watergum Drive, Jordan Springs Nsw 2747",
    "latitude": -33.726418,
    "longitude": 150.7252194,
    "source": "terrywhitechemmart.com.au",
    "suburb": "Jordan Springs",
    "state": "NSW",
    "postcode": "2747"
  },
  {
    "id": 7825,
    "name": "healthSAVE Elizabeth Park",
    "address": "110 Yorktown Rd, Elizabeth Park SA 5113, Australia",
    "latitude": -34.7117589,
    "longitude": 138.6829631,
    "source": "priceline.com.au",
    "suburb": "Elizabeth Park",
    "state": "SA",
    "postcode": "5113"
  },
  {
    "id": 7826,
    "name": "Chemist Warehouse Majura Park SC",
    "address": "Majura Park SC, Shop 4 to 6/18 to 26 Spitfire Ave, Majura ACT 2609, Australia",
    "latitude": -35.298176,
    "longitude": 149.1903877,
    "source": "priceline.com.au",
    "suburb": "Majura",
    "state": "ACT",
    "postcode": "2609"
  },
  {
    "id": 7830,
    "name": "Chemist Warehouse Muswellbrook",
    "address": "Fair 19 to, Shop B1 3/29 Rutherford Rd, Muswellbrook NSW 2333, Australia",
    "latitude": -32.282726,
    "longitude": 150.8964376,
    "source": "priceline.com.au",
    "suburb": "Muswellbrook",
    "state": "NSW",
    "postcode": "2333"
  },
  {
    "id": 7837,
    "name": "Chemist Warehouse Roxburgh Park - Home Co.",
    "address": "T8 Home Co Roxburgh Park, 1550 Pascoe Vale Rd, Coolaroo VIC 3048, Australia",
    "latitude": -37.645657,
    "longitude": 144.9322217,
    "source": "priceline.com.au",
    "suburb": "Coolaroo",
    "state": "VIC",
    "postcode": "3048"
  },
  {
    "id": 7849,
    "name": "Chemist Warehouse Hoppers Crossing",
    "address": "Shop 24 & 25/428 Old Geelong Rd, Hoppers Crossing VIC 3029, Australia",
    "latitude": -37.86937229999999,
    "longitude": 144.7333831,
    "source": "priceline.com.au",
    "suburb": "Hoppers Crossing",
    "state": "VIC",
    "postcode": "3029"
  },
  {
    "id": 7854,
    "name": "Chemist Warehouse Warrnambool",
    "address": "M1032 Gateway Plaza, 154 Raglan Parade, Warrnambool VIC 3280, Australia",
    "latitude": -38.38174,
    "longitude": 142.5203641,
    "source": "priceline.com.au",
    "suburb": "Warrnambool",
    "state": "VIC",
    "postcode": "3280"
  },
  {
    "id": 7855,
    "name": "Queens Park Pharmacy",
    "address": "Unit 4/333 Wharf St, Queens Park WA 6107, Australia",
    "latitude": -31.9997471,
    "longitude": 115.9527458,
    "source": "priceline.com.au",
    "suburb": "Queens Park",
    "state": "WA",
    "postcode": "6107"
  },
  {
    "id": 7861,
    "name": "Summerhill Shopping Centre",
    "address": "850 Plenty Rd, Reservoir VIC 3073, Australia",
    "latitude": -37.7246502,
    "longitude": 145.0286934,
    "source": "priceline.com.au",
    "suburb": "Reservoir",
    "state": "VIC",
    "postcode": "3073"
  },
  {
    "id": 7888,
    "name": "Coleraine Pharmacy",
    "address": "81B Whyte St, Coleraine VIC 3315, Australia",
    "latitude": -37.598465,
    "longitude": 141.6908749,
    "source": "priceline.com.au",
    "suburb": "Coleraine",
    "state": "VIC",
    "postcode": "3315"
  },
  {
    "id": 7894,
    "name": "Meeniyan Pharmacy",
    "address": "Google Maps verified location",
    "latitude": -38.5780227,
    "longitude": 146.0131497,
    "source": "google_maps_verification",
    "suburb": null,
    "state": "VIC",
    "postcode": null
  },
  {
    "id": 7895,
    "name": "Moriac Pharmacy",
    "address": "Google Maps verified location",
    "latitude": -38.2420162,
    "longitude": 144.1748589,
    "source": "google_maps_verification",
    "suburb": null,
    "state": "VIC",
    "postcode": null
  },
  {
    "id": 7899,
    "name": "Trident Pharmacy Willaura",
    "address": "Google Maps verified location",
    "latitude": -37.5466473,
    "longitude": 142.7413084,
    "source": "google_maps_verification",
    "suburb": null,
    "state": "VIC",
    "postcode": null
  },
  {
    "id": 7900,
    "name": "Good Shepherd Pharmacy",
    "address": "Google Maps verified location",
    "latitude": -40.7618828,
    "longitude": 145.2960922,
    "source": "google_maps_verification",
    "suburb": null,
    "state": "TAS",
    "postcode": null
  },
  {
    "id": 7913,
    "name": "Ramsay Pharmacy",
    "address": "OSM (-28.389457, 153.563195)",
    "latitude": -28.3894567,
    "longitude": 153.5631945,
    "source": "osm_verification",
    "suburb": "",
    "state": "QLD",
    "postcode": ""
  },
  {
    "id": 7914,
    "name": "Leonards Pharmacy",
    "address": "OSM (-30.952470, 148.388879)",
    "latitude": -30.9524697,
    "longitude": 148.3888785,
    "source": "osm_verification",
    "suburb": "",
    "state": "NSW",
    "postcode": ""
  },
  {
    "id": 7915,
    "name": "The Towers Drug Co Pharmacy",
    "address": "OSM (-30.089780, 145.936353)",
    "latitude": -30.0897803,
    "longitude": 145.9363534,
    "source": "osm_verification",
    "suburb": "",
    "state": "NSW",
    "postcode": ""
  },
  {
    "id": 7916,
    "name": "Jurien Pharmacy",
    "address": "OSM (-30.303092, 115.041459)",
    "latitude": -30.3030923,
    "longitude": 115.0414588,
    "source": "osm_verification",
    "suburb": "",
    "state": "WA",
    "postcode": ""
  },
  {
    "id": 7917,
    "name": "Millmerran Pharmacy",
    "address": "OSM (-27.876793, 151.269498)",
    "latitude": -27.876793,
    "longitude": 151.2694977,
    "source": "osm_verification",
    "suburb": "",
    "state": "QLD",
    "postcode": ""
  },
  {
    "id": 7918,
    "name": "Normanton Pharmacy",
    "address": "OSM (-17.670400, 141.079935)",
    "latitude": -17.6703996,
    "longitude": 141.0799349,
    "source": "osm_verification",
    "suburb": "",
    "state": "QLD",
    "postcode": ""
  },
  {
    "id": 7919,
    "name": "Wagin Pharmacy",
    "address": "OSM (-33.309033, 117.343637)",
    "latitude": -33.3090332,
    "longitude": 117.3436367,
    "source": "osm_verification",
    "suburb": "",
    "state": "WA",
    "postcode": ""
  },
  {
    "id": 7920,
    "name": "Hillston Pharmacy",
    "address": "OSM (-33.485340, 145.532137)",
    "latitude": -33.4853405,
    "longitude": 145.5321366,
    "source": "osm_verification",
    "suburb": "",
    "state": "NSW",
    "postcode": ""
  },
  {
    "id": 7921,
    "name": "TerryWhite Chemmart",
    "address": "OSM (-34.438656, 138.509699)",
    "latitude": -34.4386557,
    "longitude": 138.5096988,
    "source": "osm_verification",
    "suburb": "",
    "state": "SA",
    "postcode": ""
  },
  {
    "id": 7922,
    "name": "Beverley Pharmacy",
    "address": "OSM (-32.108181, 116.926681)",
    "latitude": -32.1081805,
    "longitude": 116.9266807,
    "source": "osm_verification",
    "suburb": "",
    "state": "WA",
    "postcode": ""
  },
  {
    "id": 7923,
    "name": "Kellberrin Pharmacy",
    "address": "OSM (-31.633616, 117.720462)",
    "latitude": -31.6336164,
    "longitude": 117.7204617,
    "source": "osm_verification",
    "suburb": "",
    "state": "WA",
    "postcode": ""
  },
  {
    "id": 7924,
    "name": "Clare Valley Family Pharmacy",
    "address": "OSM (-34.025970, 138.685738)",
    "latitude": -34.0259698,
    "longitude": 138.6857383,
    "source": "osm_verification",
    "suburb": "",
    "state": "SA",
    "postcode": ""
  },
  {
    "id": 7925,
    "name": "Chris Ramsay Chemist",
    "address": "OSM (-33.184677, 138.300541)",
    "latitude": -33.1846774,
    "longitude": 138.3005409,
    "source": "osm_verification",
    "suburb": "",
    "state": "SA",
    "postcode": ""
  },
  {
    "id": 7926,
    "name": "healthSAVE Pharmacy Kimba",
    "address": "OSM (-33.138693, 136.420614)",
    "latitude": -33.1386931,
    "longitude": 136.4206143,
    "source": "osm_verification",
    "suburb": "",
    "state": "SA",
    "postcode": ""
  },
  {
    "id": 7927,
    "name": "Southern Cross Pharmacy",
    "address": "OSM (-31.232838, 119.329054)",
    "latitude": -31.2328376,
    "longitude": 119.3290545,
    "source": "osm_verification",
    "suburb": "",
    "state": "WA",
    "postcode": ""
  },
  {
    "id": 7928,
    "name": "Morawa Pharmacy",
    "address": "OSM (-29.211937, 116.009064)",
    "latitude": -29.2119368,
    "longitude": 116.0090644,
    "source": "osm_verification",
    "suburb": "",
    "state": "WA",
    "postcode": ""
  },
  {
    "id": 7929,
    "name": "Balranald Pharmacy",
    "address": "OSM (-34.638928, 143.562570)",
    "latitude": -34.6389284,
    "longitude": 143.5625699,
    "source": "osm_verification",
    "suburb": "",
    "state": "VIC",
    "postcode": ""
  },
  {
    "id": 7930,
    "name": "Woodenbong Pharmacy - Chemist",
    "address": "OSM (-28.389775, 152.612561)",
    "latitude": -28.3897752,
    "longitude": 152.6125605,
    "source": "osm_verification",
    "suburb": "",
    "state": "QLD",
    "postcode": ""
  },
  {
    "id": 7931,
    "name": "Advantage Pharmacy",
    "address": "OSM (-33.361630, 151.369998)",
    "latitude": -33.3616305,
    "longitude": 151.3699981,
    "source": "osm_verification",
    "suburb": "",
    "state": "NSW",
    "postcode": ""
  },
  {
    "id": 7932,
    "name": "Guardian",
    "address": "OSM (-23.441973, 144.248960)",
    "latitude": -23.4419735,
    "longitude": 144.2489601,
    "source": "osm_verification",
    "suburb": "",
    "state": "QLD",
    "postcode": ""
  },
  {
    "id": 8000,
    "name": "Amcal",
    "address": "OSM (-37.672707, 144.848706)",
    "latitude": -37.6727067,
    "longitude": 144.8487065,
    "source": "osm_verification",
    "suburb": "",
    "state": "VIC",
    "postcode": ""
  },
  {
    "id": 8002,
    "name": "Chemist Warehouse",
    "address": "OSM (-37.819997, 144.721252)",
    "latitude": -37.8199971,
    "longitude": 144.7212518,
    "source": "osm_verification",
    "suburb": "",
    "state": "VIC",
    "postcode": ""
  },
  {
    "id": 8017,
    "name": "Airport Pharmacy",
    "address": "OSM (-27.385212, 153.120529)",
    "latitude": -27.3852123,
    "longitude": 153.1205285,
    "source": "osm_verification",
    "suburb": "",
    "state": "QLD",
    "postcode": ""
  },
  {
    "id": 8055,
    "name": "Chemmart",
    "address": "5159",
    "latitude": -35.0518356,
    "longitude": 138.5885849,
    "source": "osm_verification",
    "suburb": "",
    "state": "SA",
    "postcode": "5159"
  },
  {
    "id": 8073,
    "name": "Caremore Prohealth Pharmacy",
    "address": "OSM (-33.683150, 151.228214)",
    "latitude": -33.68315,
    "longitude": 151.2282139,
    "source": "osm_verification",
    "suburb": "",
    "state": "NSW",
    "postcode": ""
  },
  {
    "id": 8091,
    "name": "Chemist Warehouse",
    "address": "OSM (-35.348061, 149.246836)",
    "latitude": -35.3480607,
    "longitude": 149.2468361,
    "source": "osm_verification",
    "suburb": "",
    "state": "ACT",
    "postcode": ""
  },
  {
    "id": 8130,
    "name": "Community Discount Pharmacy",
    "address": "OSM (-27.588290, 152.821803)",
    "latitude": -27.5882904,
    "longitude": 152.8218033,
    "source": "osm_verification",
    "suburb": "",
    "state": "QLD",
    "postcode": ""
  },
  {
    "id": 8149,
    "name": "Scarborough Beach Pharmacy",
    "address": "OSM (-27.199827, 153.114897)",
    "latitude": -27.1998268,
    "longitude": 153.1148972,
    "source": "osm_verification",
    "suburb": "",
    "state": "QLD",
    "postcode": ""
  },
  {
    "id": 8153,
    "name": "Chemist Warehouse",
    "address": "OSM (-38.086507, 145.316904)",
    "latitude": -38.086507,
    "longitude": 145.3169038,
    "source": "osm_verification",
    "suburb": "",
    "state": "VIC",
    "postcode": ""
  },
  {
    "id": 8154,
    "name": "Yankalilla Family Pharmacy",
    "address": "OSM (-35.457060, 138.347807)",
    "latitude": -35.45706,
    "longitude": 138.3478067,
    "source": "osm_verification",
    "suburb": "",
    "state": "SA",
    "postcode": ""
  },
  {
    "id": 8155,
    "name": "Unknown Pharmacy",
    "address": "OSM (-35.390987, 138.464129)",
    "latitude": -35.3909872,
    "longitude": 138.4641289,
    "source": "osm_verification",
    "suburb": "",
    "state": "SA",
    "postcode": ""
  },
  {
    "id": 8157,
    "name": "Chemist Warehouse",
    "address": "OSM (-32.447616, 115.765003)",
    "latitude": -32.4476164,
    "longitude": 115.7650026,
    "source": "osm_verification",
    "suburb": "",
    "state": "WA",
    "postcode": ""
  },
  {
    "id": 8159,
    "name": "Diggers Rest Pharmacy",
    "address": "OSM (-37.622598, 144.705467)",
    "latitude": -37.6225979,
    "longitude": 144.705467,
    "source": "osm_verification",
    "suburb": "",
    "state": "VIC",
    "postcode": ""
  },
  {
    "id": 8170,
    "name": "Chemist Warehouse",
    "address": "OSM (-27.529798, 152.909588)",
    "latitude": -27.5297977,
    "longitude": 152.9095881,
    "source": "osm_verification",
    "suburb": "",
    "state": "QLD",
    "postcode": ""
  },
  {
    "id": 8172,
    "name": "Burringbar Pharmacy",
    "address": "(-28.434592, 153.470498)",
    "latitude": -28.4345918,
    "longitude": 153.4704979,
    "source": "google_maps_browser",
    "suburb": "",
    "state": "QLD",
    "postcode": ""
  },
  {
    "id": 8173,
    "name": "Ramsay Pharmacy Pottsville (Waters)",
    "address": "(-28.395244, 153.563394)",
    "latitude": -28.3952443,
    "longitude": 153.563394,
    "source": "google_maps_browser",
    "suburb": "",
    "state": "QLD",
    "postcode": ""
  },
  {
    "id": 8174,
    "name": "Hill Top Pharmacy",
    "address": "(-34.354979, 150.493995)",
    "latitude": -34.354979,
    "longitude": 150.4939946,
    "source": "google_maps_browser",
    "suburb": "",
    "state": "NSW",
    "postcode": ""
  },
  {
    "id": 8175,
    "name": "Local Value Chemist Marburg",
    "address": "(-27.563630, 152.582818)",
    "latitude": -27.5636299,
    "longitude": 152.5828176,
    "source": "google_maps_browser",
    "suburb": "",
    "state": "QLD",
    "postcode": ""
  },
  {
    "id": 8176,
    "name": "Roxby Downs Pharmacy",
    "address": "(-30.562298, 136.897955)",
    "latitude": -30.562298,
    "longitude": 136.897955,
    "source": "google_maps_browser",
    "suburb": "",
    "state": "SA",
    "postcode": ""
  },
  {
    "id": 8177,
    "name": "HealthSave Capel Pharmacy",
    "address": "(-33.555574, 115.562776)",
    "latitude": -33.555574,
    "longitude": 115.562776,
    "source": "google_maps_browser",
    "suburb": "",
    "state": "WA",
    "postcode": ""
  },
  {
    "id": 8178,
    "name": "Mount Morgan Pharmacy",
    "address": "(-23.644989, 150.387953)",
    "latitude": -23.6449885,
    "longitude": 150.3879531,
    "source": "google_maps_browser",
    "suburb": "",
    "state": "QLD",
    "postcode": ""
  },
  {
    "id": 8179,
    "name": "St Arnaud Pharmacy",
    "address": "(-36.613699, 143.256117)",
    "latitude": -36.6136986,
    "longitude": 143.2561172,
    "source": "google_maps_browser",
    "suburb": "",
    "state": "VIC",
    "postcode": ""
  },
  {
    "id": 8180,
    "name": "Venus Bay Pharmacy",
    "address": "(-38.702067, 145.820274)",
    "latitude": -38.702067,
    "longitude": 145.820274,
    "source": "google_maps_browser",
    "suburb": "",
    "state": "VIC",
    "postcode": ""
  },
  {
    "id": 8181,
    "name": "Quorn Pharmacy",
    "address": "(-32.346479, 138.040869)",
    "latitude": -32.3464792,
    "longitude": 138.0408694,
    "source": "google_maps_browser",
    "suburb": "",
    "state": "SA",
    "postcode": ""
  },
  {
    "id": 8182,
    "name": "Mallacoota Pharmacy",
    "address": "(-37.558405, 149.757424)",
    "latitude": -37.5584055,
    "longitude": 149.7574242,
    "source": "google_maps_browser",
    "suburb": "",
    "state": "VIC",
    "postcode": ""
  },
  {
    "id": 8193,
    "name": "Kurnell Pharmacy",
    "address": "NSW",
    "latitude": -34.0112777,
    "longitude": 151.2094288,
    "source": "OpenStreetMap",
    "suburb": "",
    "state": "NSW",
    "postcode": ""
  },
  {
    "id": 8205,
    "name": "Rosebery Pharmacy",
    "address": "TAS",
    "latitude": -41.7797649,
    "longitude": 145.5389866,
    "source": "OpenStreetMap",
    "suburb": "",
    "state": "TAS",
    "postcode": ""
  },
  {
    "id": 8214,
    "name": "Tara Pharmacy",
    "address": "QLD",
    "latitude": -27.2768293,
    "longitude": 150.4592325,
    "source": "OpenStreetMap",
    "suburb": "",
    "state": "QLD",
    "postcode": ""
  },
  {
    "id": 8222,
    "name": "Cloncurry Pharmacy",
    "address": "QLD",
    "latitude": -20.7071461,
    "longitude": 140.506865,
    "source": "OpenStreetMap",
    "suburb": "",
    "state": "QLD",
    "postcode": ""
  },
  {
    "id": 8225,
    "name": "Unknown Pharmacy",
    "address": "NSW",
    "latitude": -28.0802537,
    "longitude": 153.3662238,
    "source": "OpenStreetMap",
    "suburb": "",
    "state": "NSW",
    "postcode": ""
  },
  {
    "id": 8234,
    "name": "Ramsay Pharmacy",
    "address": "NSW",
    "latitude": -36.3558086,
    "longitude": 146.3254531,
    "source": "OpenStreetMap",
    "suburb": "",
    "state": "NSW",
    "postcode": ""
  },
  {
    "id": 8235,
    "name": "Unknown Pharmacy",
    "address": "NSW",
    "latitude": -36.3543501,
    "longitude": 146.3245377,
    "source": "OpenStreetMap",
    "suburb": "",
    "state": "NSW",
    "postcode": ""
  },
  {
    "id": 8242,
    "name": "Kenthurst Pharmacist Advice",
    "address": "NSW",
    "latitude": -33.6609071,
    "longitude": 151.0058762,
    "source": "OpenStreetMap",
    "suburb": "",
    "state": "NSW",
    "postcode": ""
  },
  {
    "id": 8250,
    "name": "St Mina Pharmacy",
    "address": "VIC",
    "latitude": -38.0045955,
    "longitude": 145.2860936,
    "source": "OpenStreetMap",
    "suburb": "",
    "state": "VIC",
    "postcode": ""
  },
  {
    "id": 8270,
    "name": "Trentham Pharmacy",
    "address": "NSW",
    "latitude": -37.3890273,
    "longitude": 144.3227032,
    "source": "OpenStreetMap",
    "suburb": "",
    "state": "NSW",
    "postcode": ""
  },
  {
    "id": 8279,
    "name": "Unknown Pharmacy",
    "address": "NSW",
    "latitude": -28.0310705,
    "longitude": 153.3931957,
    "source": "OpenStreetMap",
    "suburb": "",
    "state": "NSW",
    "postcode": ""
  },
  {
    "id": 8285,
    "name": "Goombungee Pharmacy",
    "address": "QLD",
    "latitude": -27.3071478,
    "longitude": 151.8517656,
    "source": "OpenStreetMap",
    "suburb": "",
    "state": "QLD",
    "postcode": ""
  },
  {
    "id": 8298,
    "name": "Soul Patterson Chemist",
    "address": "ACT",
    "latitude": -35.380785,
    "longitude": 149.201426,
    "source": "OpenStreetMap",
    "suburb": "",
    "state": "ACT",
    "postcode": ""
  },
  {
    "id": 8312,
    "name": "Murchison PharmaSave Pharmacy",
    "address": "NSW",
    "latitude": -36.6165982,
    "longitude": 145.2170966,
    "source": "OpenStreetMap",
    "suburb": "",
    "state": "NSW",
    "postcode": ""
  },
  {
    "id": 8320,
    "name": "Chemist Warehouse",
    "address": "NT",
    "latitude": -12.3957878,
    "longitude": 130.8957358,
    "source": "OpenStreetMap",
    "suburb": "",
    "state": "NT",
    "postcode": ""
  },
  {
    "id": 8324,
    "name": "Chemist Warehouse",
    "address": "NSW",
    "latitude": -36.4086546,
    "longitude": 145.3922418,
    "source": "OpenStreetMap",
    "suburb": "",
    "state": "NSW",
    "postcode": ""
  },
  {
    "id": 8325,
    "name": "TerryWhite Chemmart",
    "address": "TAS",
    "latitude": -41.3642079,
    "longitude": 147.0430414,
    "source": "OpenStreetMap",
    "suburb": "",
    "state": "TAS",
    "postcode": ""
  },
  {
    "id": 8330,
    "name": "Pitt Town Pharmacy",
    "address": "NSW",
    "latitude": -33.5865043,
    "longitude": 150.8594829,
    "source": "OpenStreetMap",
    "suburb": "",
    "state": "NSW",
    "postcode": ""
  },
  {
    "id": 8333,
    "name": "Biggenden Pharmacy",
    "address": "QLD",
    "latitude": -25.5120549,
    "longitude": 152.0453406,
    "source": "OpenStreetMap",
    "suburb": "",
    "state": "QLD",
    "postcode": ""
  },
  {
    "id": 8340,
    "name": "Discount Chemist",
    "address": "VIC",
    "latitude": -38.3364066,
    "longitude": 145.1776238,
    "source": "OpenStreetMap",
    "suburb": "",
    "state": "VIC",
    "postcode": ""
  },
  {
    "id": 8348,
    "name": "Beachport Pharmacy",
    "address": "SA",
    "latitude": -37.4812732,
    "longitude": 140.0136788,
    "source": "OpenStreetMap",
    "suburb": "",
    "state": "SA",
    "postcode": ""
  },
  {
    "id": 8349,
    "name": "Unknown Pharmacy",
    "address": "NSW",
    "latitude": -28.1555456,
    "longitude": 153.4713489,
    "source": "OpenStreetMap",
    "suburb": "",
    "state": "NSW",
    "postcode": ""
  },
  {
    "id": 8353,
    "name": "Kallista Chinese Medicine",
    "address": "VIC",
    "latitude": -37.8840335,
    "longitude": 145.369712,
    "source": "OpenStreetMap",
    "suburb": "",
    "state": "VIC",
    "postcode": ""
  },
  {
    "id": 8355,
    "name": "Chemist Warehouse",
    "address": "NSW",
    "latitude": -36.7042251,
    "longitude": 144.3186271,
    "source": "OpenStreetMap",
    "suburb": "",
    "state": "NSW",
    "postcode": ""
  },
  {
    "id": 8361,
    "name": "Geeveston Pharmacy",
    "address": "TAS",
    "latitude": -43.1643488,
    "longitude": 146.9271974,
    "source": "OpenStreetMap",
    "suburb": "",
    "state": "TAS",
    "postcode": ""
  },
  {
    "id": 8365,
    "name": "Minyip Medical Supplies Depot",
    "address": "81, Main Street, Minyip, NSW, 3392",
    "latitude": -36.4595002,
    "longitude": 142.5877721,
    "source": "OpenStreetMap",
    "suburb": "Minyip",
    "state": "NSW",
    "postcode": "3392"
  },
  {
    "id": 8372,
    "name": "Killarney Pharmacy",
    "address": "NSW",
    "latitude": -28.3357263,
    "longitude": 152.2960077,
    "source": "OpenStreetMap",
    "suburb": "",
    "state": "NSW",
    "postcode": ""
  },
  {
    "id": 8374,
    "name": "Guardian",
    "address": "54, Brooke Street, Inglewood, NSW, 3517",
    "latitude": -36.5755765,
    "longitude": 143.8681011,
    "source": "OpenStreetMap",
    "suburb": "Inglewood",
    "state": "NSW",
    "postcode": "3517"
  },
  {
    "id": 8379,
    "name": "Streaky Bay Pharmacy",
    "address": "SA",
    "latitude": -32.7970322,
    "longitude": 134.2109559,
    "source": "OpenStreetMap",
    "suburb": "",
    "state": "SA",
    "postcode": ""
  },
  {
    "id": 8406,
    "name": "Chemist Warehouse",
    "address": "VIC",
    "latitude": -38.3112513,
    "longitude": 144.9933632,
    "source": "OpenStreetMap",
    "suburb": "",
    "state": "VIC",
    "postcode": ""
  },
  {
    "id": 8411,
    "name": "Capella Pharmacy",
    "address": "QLD",
    "latitude": -23.0834254,
    "longitude": 148.0222989,
    "source": "OpenStreetMap",
    "suburb": "",
    "state": "QLD",
    "postcode": ""
  },
  {
    "id": 8412,
    "name": "Unknown Pharmacy",
    "address": "NSW",
    "latitude": -28.0903045,
    "longitude": 153.4467575,
    "source": "OpenStreetMap",
    "suburb": "",
    "state": "NSW",
    "postcode": ""
  },
  {
    "id": 8419,
    "name": "Amcal",
    "address": "NSW",
    "latitude": -28.0462631,
    "longitude": 153.4078365,
    "source": "OpenStreetMap",
    "suburb": "",
    "state": "NSW",
    "postcode": ""
  },
  {
    "id": 8426,
    "name": "Smythesdale Pharmacy",
    "address": "VIC",
    "latitude": -37.6441714,
    "longitude": 143.6864485,
    "source": "OpenStreetMap",
    "suburb": "",
    "state": "VIC",
    "postcode": ""
  },
  {
    "id": 8431,
    "name": "Chemist Warehouse",
    "address": "NSW",
    "latitude": -28.100127,
    "longitude": 153.4248838,
    "source": "OpenStreetMap",
    "suburb": "",
    "state": "NSW",
    "postcode": ""
  },
  {
    "id": 8435,
    "name": "Priceline Pharmacy",
    "address": "QLD",
    "latitude": -24.8867536,
    "longitude": 152.318504,
    "source": "OpenStreetMap",
    "suburb": "",
    "state": "QLD",
    "postcode": ""
  },
  {
    "id": 8440,
    "name": "Pharmacy Select",
    "address": "NSW",
    "latitude": -31.4579085,
    "longitude": 152.8748757,
    "source": "OpenStreetMap",
    "suburb": "",
    "state": "NSW",
    "postcode": ""
  },
  {
    "id": 8443,
    "name": "Friendly Society Pharmacy",
    "address": "NSW",
    "latitude": -28.2193666,
    "longitude": 152.027709,
    "source": "OpenStreetMap",
    "suburb": "",
    "state": "NSW",
    "postcode": ""
  },
  {
    "id": 8450,
    "name": "Unknown Pharmacy",
    "address": "SA",
    "latitude": -38.0531192,
    "longitude": 140.7005978,
    "source": "OpenStreetMap",
    "suburb": "",
    "state": "SA",
    "postcode": ""
  },
  {
    "id": 8460,
    "name": "Valla Pharmacy",
    "address": "NSW",
    "latitude": -30.5916309,
    "longitude": 153.0039009,
    "source": "OpenStreetMap",
    "suburb": "",
    "state": "NSW",
    "postcode": ""
  },
  {
    "id": 8465,
    "name": "Chemist Warehouse",
    "address": "NSW",
    "latitude": -28.0854883,
    "longitude": 153.4242912,
    "source": "OpenStreetMap",
    "suburb": "",
    "state": "NSW",
    "postcode": ""
  },
  {
    "id": 8466,
    "name": "DP Pharmacy Outlet",
    "address": "NSW",
    "latitude": -28.0590298,
    "longitude": 153.4295442,
    "source": "OpenStreetMap",
    "suburb": "",
    "state": "NSW",
    "postcode": ""
  },
  {
    "id": 8478,
    "name": "Unknown Pharmacy",
    "address": "NSW",
    "latitude": -30.7043626,
    "longitude": 150.0438111,
    "source": "OpenStreetMap",
    "suburb": "",
    "state": "NSW",
    "postcode": ""
  },
  {
    "id": 8485,
    "name": "Dunkeld Pharmacy",
    "address": "VIC",
    "latitude": -37.6496214,
    "longitude": 142.3419843,
    "source": "OpenStreetMap",
    "suburb": "",
    "state": "VIC",
    "postcode": ""
  },
  {
    "id": 8486,
    "name": "Gumeracha Pharmacy",
    "address": "SA",
    "latitude": -34.8251435,
    "longitude": 138.8835399,
    "source": "OpenStreetMap",
    "suburb": "",
    "state": "SA",
    "postcode": ""
  },
  {
    "id": 8511,
    "name": "Currumbin Chempro",
    "address": "1, Fielding Street, Currumbin, NSW, 4223",
    "latitude": -28.1365222,
    "longitude": 153.4781461,
    "source": "OpenStreetMap",
    "suburb": "Currumbin",
    "state": "NSW",
    "postcode": "4223"
  },
  {
    "id": 8512,
    "name": "Discount Drug Store",
    "address": "QLD",
    "latitude": -16.8194975,
    "longitude": 145.6359328,
    "source": "OpenStreetMap",
    "suburb": "",
    "state": "QLD",
    "postcode": ""
  },
  {
    "id": 8515,
    "name": "Mermaid Beach Pharmacy",
    "address": "2431, Gold Coast Highway, Mermaid Beach, NSW, 4218",
    "latitude": -28.0463747,
    "longitude": 153.4355957,
    "source": "OpenStreetMap",
    "suburb": "Mermaid Beach",
    "state": "NSW",
    "postcode": "4218"
  },
  {
    "id": 8517,
    "name": "Mermaid Beach Chempro",
    "address": "2506, Gold Coast Highway, Mermaid Beach, NSW, 4218",
    "latitude": -28.0419347,
    "longitude": 153.4338349,
    "source": "OpenStreetMap",
    "suburb": "Mermaid Beach",
    "state": "NSW",
    "postcode": "4218"
  },
  {
    "id": 8522,
    "name": "Palm Beach 7 Day Chempro",
    "address": "1144, Gold Coast Highway, Palm Beach, NSW, 4221",
    "latitude": -28.1204078,
    "longitude": 153.4720811,
    "source": "OpenStreetMap",
    "suburb": "Palm Beach",
    "state": "NSW",
    "postcode": "4221"
  },
  {
    "id": 8523,
    "name": "Pharmasave",
    "address": "VIC",
    "latitude": -38.3685558,
    "longitude": 144.8565766,
    "source": "OpenStreetMap",
    "suburb": "",
    "state": "VIC",
    "postcode": ""
  },
  {
    "id": 8527,
    "name": "Montville Pharmacy",
    "address": "QLD",
    "latitude": -26.6902756,
    "longitude": 152.8929958,
    "source": "OpenStreetMap",
    "suburb": "",
    "state": "QLD",
    "postcode": ""
  },
  {
    "id": 8532,
    "name": "Chemist Warehouse",
    "address": "NT",
    "latitude": -12.4324303,
    "longitude": 130.9225826,
    "source": "OpenStreetMap",
    "suburb": "",
    "state": "NT",
    "postcode": ""
  },
  {
    "id": 8551,
    "name": "Ravenshoe Pharmacy",
    "address": "QLD",
    "latitude": -17.6070323,
    "longitude": 145.4825772,
    "source": "OpenStreetMap",
    "suburb": "",
    "state": "QLD",
    "postcode": ""
  },
  {
    "id": 8555,
    "name": "Unknown Pharmacy",
    "address": "QLD",
    "latitude": -26.5959784,
    "longitude": 152.727257,
    "source": "OpenStreetMap",
    "suburb": "",
    "state": "QLD",
    "postcode": ""
  },
  {
    "id": 8581,
    "name": "Cape Byron Compounding Chemist",
    "address": "NSW",
    "latitude": -28.01108,
    "longitude": 153.4087571,
    "source": "OpenStreetMap",
    "suburb": "",
    "state": "NSW",
    "postcode": ""
  },
  {
    "id": 8586,
    "name": "Amcal+ express",
    "address": "WA",
    "latitude": -31.941235,
    "longitude": 115.9710078,
    "source": "OpenStreetMap",
    "suburb": "",
    "state": "WA",
    "postcode": ""
  },
  {
    "id": 8588,
    "name": "Ramsay Pharmacy",
    "address": "NSW",
    "latitude": -28.0663841,
    "longitude": 153.4402192,
    "source": "OpenStreetMap",
    "suburb": "",
    "state": "NSW",
    "postcode": ""
  },
  {
    "id": 8589,
    "name": "Cape York Guardian Pharmacy",
    "address": "QLD",
    "latitude": -12.6387721,
    "longitude": 141.8643245,
    "source": "OpenStreetMap",
    "suburb": "",
    "state": "QLD",
    "postcode": ""
  },
  {
    "id": 8592,
    "name": "Chemist Warehouse",
    "address": "NSW",
    "latitude": -34.2186331,
    "longitude": 142.1494394,
    "source": "OpenStreetMap",
    "suburb": "",
    "state": "NSW",
    "postcode": ""
  },
  {
    "id": 8600,
    "name": "Vitamin King",
    "address": "NSW",
    "latitude": -33.731827,
    "longitude": 151.0060527,
    "source": "OpenStreetMap",
    "suburb": "",
    "state": "NSW",
    "postcode": ""
  },
  {
    "id": 8615,
    "name": "Hopes Pharmacy",
    "address": "NSW",
    "latitude": -35.0699487,
    "longitude": 150.6754499,
    "source": "OpenStreetMap",
    "suburb": "",
    "state": "NSW",
    "postcode": ""
  },
  {
    "id": 8616,
    "name": "Chemist Warehouse",
    "address": "NSW",
    "latitude": -36.3738285,
    "longitude": 146.2883209,
    "source": "OpenStreetMap",
    "suburb": "",
    "state": "NSW",
    "postcode": ""
  },
  {
    "id": 8624,
    "name": "Unknown Pharmacy",
    "address": "NSW",
    "latitude": -35.0740505,
    "longitude": 150.6553077,
    "source": "OpenStreetMap",
    "suburb": "",
    "state": "NSW",
    "postcode": ""
  },
  {
    "id": 8625,
    "name": "Choice Pharmacy",
    "address": "NSW",
    "latitude": -35.0751379,
    "longitude": 150.6565851,
    "source": "OpenStreetMap",
    "suburb": "",
    "state": "NSW",
    "postcode": ""
  },
  {
    "id": 8629,
    "name": "Crane Road Medical Centre",
    "address": "NSW",
    "latitude": -33.7324606,
    "longitude": 151.0068908,
    "source": "OpenStreetMap",
    "suburb": "",
    "state": "NSW",
    "postcode": ""
  },
  {
    "id": 8642,
    "name": "Wisemans Ferry Pharmacy",
    "address": "NSW",
    "latitude": -33.385388,
    "longitude": 150.986232,
    "source": "OpenStreetMap",
    "suburb": "",
    "state": "NSW",
    "postcode": ""
  },
  {
    "id": 8650,
    "name": "Chemist Warehouse",
    "address": "NT",
    "latitude": -12.4096136,
    "longitude": 130.855703,
    "source": "OpenStreetMap",
    "suburb": "",
    "state": "NT",
    "postcode": ""
  },
  {
    "id": 8655,
    "name": "Kalbar Pharmacy",
    "address": "QLD",
    "latitude": -27.9389689,
    "longitude": 152.6236337,
    "source": "OpenStreetMap",
    "suburb": "",
    "state": "QLD",
    "postcode": ""
  },
  {
    "id": 8656,
    "name": "Westpoint Centre Pharmacy",
    "address": "NSW",
    "latitude": -33.4043242,
    "longitude": 149.5460996,
    "source": "OpenStreetMap",
    "suburb": "",
    "state": "NSW",
    "postcode": ""
  },
  {
    "id": 8658,
    "name": "Chemist Warehouse",
    "address": "VIC",
    "latitude": -37.7219484,
    "longitude": 144.5711048,
    "source": "OpenStreetMap",
    "suburb": "",
    "state": "VIC",
    "postcode": ""
  },
  {
    "id": 8659,
    "name": "TerryWhite Chemmart",
    "address": "NSW",
    "latitude": -28.5466725,
    "longitude": 150.3060411,
    "source": "OpenStreetMap",
    "suburb": "",
    "state": "NSW",
    "postcode": ""
  },
  {
    "id": 8660,
    "name": "St Mary Pharmacy",
    "address": "2, Salisbury Avenue, NSW",
    "latitude": -28.0845706,
    "longitude": 152.8421648,
    "source": "OpenStreetMap",
    "suburb": "",
    "state": "NSW",
    "postcode": ""
  },
  {
    "id": 8664,
    "name": "Stroud Pharmacy",
    "address": "NSW",
    "latitude": -32.4041749,
    "longitude": 151.967526,
    "source": "OpenStreetMap",
    "suburb": "",
    "state": "NSW",
    "postcode": ""
  },
  {
    "id": 8671,
    "name": "Radiance Surat Pharmacy",
    "address": "QLD",
    "latitude": -27.1522497,
    "longitude": 149.0694684,
    "source": "OpenStreetMap",
    "suburb": "",
    "state": "QLD",
    "postcode": ""
  },
  {
    "id": 8683,
    "name": "Alliance Outback Chemist",
    "address": "QLD",
    "latitude": -24.423925,
    "longitude": 145.4640953,
    "source": "OpenStreetMap",
    "suburb": "",
    "state": "QLD",
    "postcode": ""
  },
  {
    "id": 8684,
    "name": "Bawley Point Pharmacy",
    "address": "NSW",
    "latitude": -35.5224609,
    "longitude": 150.3916192,
    "source": "OpenStreetMap",
    "suburb": "",
    "state": "NSW",
    "postcode": ""
  },
  {
    "id": 8688,
    "name": "Priceline Pharmacy",
    "address": "NSW",
    "latitude": -36.7655785,
    "longitude": 144.2809765,
    "source": "OpenStreetMap",
    "suburb": "",
    "state": "NSW",
    "postcode": ""
  },
  {
    "id": 8700,
    "name": "Texas Pharmacy",
    "address": "NSW",
    "latitude": -28.8549195,
    "longitude": 151.1670985,
    "source": "OpenStreetMap",
    "suburb": "",
    "state": "NSW",
    "postcode": ""
  },
  {
    "id": 8701,
    "name": "Health and Beauty - agents for Campbell Freebairn",
    "address": "NSW",
    "latitude": -29.3224007,
    "longitude": 151.0956751,
    "source": "OpenStreetMap",
    "suburb": "",
    "state": "NSW",
    "postcode": ""
  },
  {
    "id": 8705,
    "name": "Herberton Pharmacy",
    "address": "QLD",
    "latitude": -17.3840181,
    "longitude": 145.3857817,
    "source": "OpenStreetMap",
    "suburb": "",
    "state": "QLD",
    "postcode": ""
  },
  {
    "id": 8710,
    "name": "Nyah West Pharmacy",
    "address": "NSW",
    "latitude": -35.1851358,
    "longitude": 143.3434723,
    "source": "OpenStreetMap",
    "suburb": "",
    "state": "NSW",
    "postcode": ""
  },
  {
    "id": 8711,
    "name": "Priceline Pharmacy",
    "address": "NSW",
    "latitude": -36.8101994,
    "longitude": 144.24225,
    "source": "OpenStreetMap",
    "suburb": "",
    "state": "NSW",
    "postcode": ""
  },
  {
    "id": 8712,
    "name": "Toorbul Community Discount Pharmacy",
    "address": "QLD",
    "latitude": -27.0318765,
    "longitude": 153.0980884,
    "source": "OpenStreetMap",
    "suburb": "",
    "state": "QLD",
    "postcode": ""
  },
  {
    "id": 8713,
    "name": "Chemist Warehouse",
    "address": "740-742, Toorak Road, Hawthorn East, VIC, 3123",
    "latitude": -37.8459633,
    "longitude": 145.0417374,
    "source": "OpenStreetMap",
    "suburb": "Hawthorn East",
    "state": "VIC",
    "postcode": "3123"
  },
  {
    "id": 8723,
    "name": "Theodore Pharmacy",
    "address": "QLD",
    "latitude": -24.9458532,
    "longitude": 150.076039,
    "source": "OpenStreetMap",
    "suburb": "",
    "state": "QLD",
    "postcode": ""
  },
  {
    "id": 8726,
    "name": "Yarraman Pharmacy",
    "address": "QLD",
    "latitude": -26.8415087,
    "longitude": 151.9804063,
    "source": "OpenStreetMap",
    "suburb": "",
    "state": "QLD",
    "postcode": ""
  },
  {
    "id": 8728,
    "name": "Chempro 23rd Avenue",
    "address": "NSW",
    "latitude": -28.1060188,
    "longitude": 153.4645181,
    "source": "OpenStreetMap",
    "suburb": "",
    "state": "NSW",
    "postcode": ""
  },
  {
    "id": 8729,
    "name": "Robina Parkway Chempro Chemist",
    "address": "NSW",
    "latitude": -28.0682974,
    "longitude": 153.3945382,
    "source": "OpenStreetMap",
    "suburb": "",
    "state": "NSW",
    "postcode": ""
  },
  {
    "id": 8735,
    "name": "Stellar Pharmacy",
    "address": "Sturt Highway, Buronga, NSW, 2739",
    "latitude": -34.1736862,
    "longitude": 142.1941959,
    "source": "OpenStreetMap",
    "suburb": "Buronga",
    "state": "NSW",
    "postcode": "2739"
  },
  {
    "id": 8737,
    "name": "TerryWhite Chemmart",
    "address": "NSW",
    "latitude": -28.0776334,
    "longitude": 153.4153127,
    "source": "OpenStreetMap",
    "suburb": "",
    "state": "NSW",
    "postcode": ""
  },
  {
    "id": 8742,
    "name": "Unknown Pharmacy",
    "address": "NSW",
    "latitude": -35.9120357,
    "longitude": 145.6907999,
    "source": "OpenStreetMap",
    "suburb": "",
    "state": "NSW",
    "postcode": ""
  },
  {
    "id": 8748,
    "name": "Murrurundi Pharmacy",
    "address": "NSW",
    "latitude": -31.7649144,
    "longitude": 150.83803,
    "source": "OpenStreetMap",
    "suburb": "",
    "state": "NSW",
    "postcode": ""
  },
  {
    "id": 8749,
    "name": "Newport Pharmacy",
    "address": "NSW",
    "latitude": -33.6552294,
    "longitude": 151.3199256,
    "source": "OpenStreetMap",
    "suburb": "",
    "state": "NSW",
    "postcode": ""
  },
  {
    "id": 8761,
    "name": "Elliston Pharmacy",
    "address": "SA",
    "latitude": -33.6478166,
    "longitude": 134.891156,
    "source": "OpenStreetMap",
    "suburb": "",
    "state": "SA",
    "postcode": ""
  },
  {
    "id": 8762,
    "name": "Wudinna Family Pharmacy",
    "address": "SA",
    "latitude": -33.0484033,
    "longitude": 135.4635834,
    "source": "OpenStreetMap",
    "suburb": "",
    "state": "SA",
    "postcode": ""
  },
  {
    "id": 8764,
    "name": "Cummins Chemist",
    "address": "SA",
    "latitude": -34.2646551,
    "longitude": 135.7267272,
    "source": "OpenStreetMap",
    "suburb": "",
    "state": "SA",
    "postcode": ""
  },
  {
    "id": 8772,
    "name": "TerryWhite Chemmart",
    "address": "NSW",
    "latitude": -33.7059443,
    "longitude": 150.875764,
    "source": "OpenStreetMap",
    "suburb": "",
    "state": "NSW",
    "postcode": ""
  },
  {
    "id": 8777,
    "name": "Chemist Warehouse",
    "address": "QLD",
    "latitude": -27.8139108,
    "longitude": 153.2932534,
    "source": "OpenStreetMap",
    "suburb": "",
    "state": "QLD",
    "postcode": ""
  },
  {
    "id": 8778,
    "name": "Your Chemist Shop",
    "address": "QLD",
    "latitude": -27.818773,
    "longitude": 153.2906619,
    "source": "OpenStreetMap",
    "suburb": "",
    "state": "QLD",
    "postcode": ""
  },
  {
    "id": 8784,
    "name": "Good Shepherd Pharmacy",
    "address": "QLD",
    "latitude": -20.7296251,
    "longitude": 143.1415497,
    "source": "OpenStreetMap",
    "suburb": "",
    "state": "QLD",
    "postcode": ""
  },
  {
    "id": 8788,
    "name": "Hughenden Pharmacy",
    "address": "QLD",
    "latitude": -20.8425939,
    "longitude": 144.2017694,
    "source": "OpenStreetMap",
    "suburb": "",
    "state": "QLD",
    "postcode": ""
  },
  {
    "id": 8790,
    "name": "Chemist Warehouse",
    "address": "QLD",
    "latitude": -27.6732534,
    "longitude": 153.21268,
    "source": "OpenStreetMap",
    "suburb": "",
    "state": "QLD",
    "postcode": ""
  },
  {
    "id": 8800,
    "name": "Infinity Pharmacy Broadbeach",
    "address": "NSW",
    "latitude": -28.0310202,
    "longitude": 153.4309266,
    "source": "OpenStreetMap",
    "suburb": "",
    "state": "NSW",
    "postcode": ""
  },
  {
    "id": 8803,
    "name": "Norseman Gold Pharmacy",
    "address": "WA",
    "latitude": -32.198632,
    "longitude": 121.7801211,
    "source": "OpenStreetMap",
    "suburb": "",
    "state": "WA",
    "postcode": ""
  },
  {
    "id": 8806,
    "name": "Green Head Chemist",
    "address": "WA",
    "latitude": -30.0694334,
    "longitude": 114.9658749,
    "source": "OpenStreetMap",
    "suburb": "",
    "state": "WA",
    "postcode": ""
  },
  {
    "id": 8809,
    "name": "Sal's Pharmacy",
    "address": "WA",
    "latitude": -29.5341307,
    "longitude": 115.7626813,
    "source": "OpenStreetMap",
    "suburb": "",
    "state": "WA",
    "postcode": ""
  },
  {
    "id": 8810,
    "name": "Bruce Rock Pharmacy",
    "address": "WA",
    "latitude": -31.8781009,
    "longitude": 118.1486322,
    "source": "OpenStreetMap",
    "suburb": "",
    "state": "WA",
    "postcode": ""
  },
  {
    "id": 8811,
    "name": "Chemist Warehouse",
    "address": "NSW",
    "latitude": -34.20709,
    "longitude": 142.1392693,
    "source": "OpenStreetMap",
    "suburb": "",
    "state": "NSW",
    "postcode": ""
  },
  {
    "id": 8817,
    "name": "Narembeen Pharmacy",
    "address": "WA",
    "latitude": -32.0654273,
    "longitude": 118.3945015,
    "source": "OpenStreetMap",
    "suburb": "",
    "state": "WA",
    "postcode": ""
  },
  {
    "id": 8818,
    "name": "Unknown Pharmacy",
    "address": "WA",
    "latitude": -31.1100331,
    "longitude": 117.9230242,
    "source": "OpenStreetMap",
    "suburb": "",
    "state": "WA",
    "postcode": ""
  },
  {
    "id": 8820,
    "name": "Happy Pill Pharmacy",
    "address": "WA",
    "latitude": -31.1808221,
    "longitude": 117.3824264,
    "source": "OpenStreetMap",
    "suburb": "",
    "state": "WA",
    "postcode": ""
  },
  {
    "id": 8830,
    "name": "Lock Pharmacy",
    "address": "SA",
    "latitude": -33.5677488,
    "longitude": 135.7558277,
    "source": "OpenStreetMap",
    "suburb": "",
    "state": "SA",
    "postcode": ""
  },
  {
    "id": 8831,
    "name": "Healthsave Cowell Pharmacy",
    "address": "SA",
    "latitude": -33.6837639,
    "longitude": 136.9251843,
    "source": "OpenStreetMap",
    "suburb": "",
    "state": "SA",
    "postcode": ""
  },
  {
    "id": 8833,
    "name": "Mallee Pharmacies Pinnaroo",
    "address": "SA",
    "latitude": -35.2606728,
    "longitude": 140.9080227,
    "source": "OpenStreetMap",
    "suburb": "",
    "state": "SA",
    "postcode": ""
  },
  {
    "id": 8834,
    "name": "Murrayville Pharmacy",
    "address": "NSW",
    "latitude": -35.2631334,
    "longitude": 141.1826699,
    "source": "OpenStreetMap",
    "suburb": "",
    "state": "NSW",
    "postcode": ""
  },
  {
    "id": 8836,
    "name": "Nyah West Pharmacy Depot",
    "address": "NSW",
    "latitude": -35.0529601,
    "longitude": 142.8826446,
    "source": "OpenStreetMap",
    "suburb": "",
    "state": "NSW",
    "postcode": ""
  },
  {
    "id": 8844,
    "name": "Yinnar Pharmacy",
    "address": "VIC",
    "latitude": -38.3221888,
    "longitude": 146.328223,
    "source": "OpenStreetMap",
    "suburb": "",
    "state": "VIC",
    "postcode": ""
  },
  {
    "id": 8848,
    "name": "Amcal+ Express",
    "address": "WA",
    "latitude": -31.9329704,
    "longitude": 115.9610796,
    "source": "OpenStreetMap",
    "suburb": "",
    "state": "WA",
    "postcode": ""
  },
  {
    "id": 8849,
    "name": "Chemist Warehouse",
    "address": "QLD",
    "latitude": -27.8215783,
    "longitude": 153.2973918,
    "source": "OpenStreetMap",
    "suburb": "",
    "state": "QLD",
    "postcode": ""
  },
  {
    "id": 8856,
    "name": "Ballandean Pharmacy",
    "address": "NSW",
    "latitude": -28.8008952,
    "longitude": 151.8426004,
    "source": "OpenStreetMap",
    "suburb": "",
    "state": "NSW",
    "postcode": ""
  },
  {
    "id": 8859,
    "name": "Malua Bay Pharmacy",
    "address": "NSW",
    "latitude": -35.7916136,
    "longitude": 150.2292605,
    "source": "OpenStreetMap",
    "suburb": "",
    "state": "NSW",
    "postcode": ""
  },
  {
    "id": 8865,
    "name": "Revive Pharmacy",
    "address": "NSW",
    "latitude": -29.071919,
    "longitude": 153.3424653,
    "source": "OpenStreetMap",
    "suburb": "",
    "state": "NSW",
    "postcode": ""
  },
  {
    "id": 8868,
    "name": "PharmaSave",
    "address": "NSW",
    "latitude": -36.3941602,
    "longitude": 145.360136,
    "source": "OpenStreetMap",
    "suburb": "",
    "state": "NSW",
    "postcode": ""
  },
  {
    "id": 8869,
    "name": "Ramsay Pharmacy Shepparton",
    "address": "NSW",
    "latitude": -36.3768004,
    "longitude": 145.4004367,
    "source": "OpenStreetMap",
    "suburb": "",
    "state": "NSW",
    "postcode": ""
  },
  {
    "id": 8871,
    "name": "Tangam Pharmacy",
    "address": "NSW",
    "latitude": -36.2526214,
    "longitude": 147.0295582,
    "source": "OpenStreetMap",
    "suburb": "",
    "state": "NSW",
    "postcode": ""
  },
  {
    "id": 8872,
    "name": "Nathalia Pharmacy",
    "address": "NSW",
    "latitude": -36.0575715,
    "longitude": 145.2034583,
    "source": "OpenStreetMap",
    "suburb": "",
    "state": "NSW",
    "postcode": ""
  },
  {
    "id": 8873,
    "name": "Boort Community Pharmacy",
    "address": "NSW",
    "latitude": -36.1167172,
    "longitude": 143.7237888,
    "source": "OpenStreetMap",
    "suburb": "",
    "state": "NSW",
    "postcode": ""
  },
  {
    "id": 8874,
    "name": "Wycheproof Pharmacy Depot",
    "address": "NSW",
    "latitude": -36.0764254,
    "longitude": 143.2258951,
    "source": "OpenStreetMap",
    "suburb": "",
    "state": "NSW",
    "postcode": ""
  },
  {
    "id": 8877,
    "name": "Loch Sport Pharmacy",
    "address": "VIC",
    "latitude": -38.0505784,
    "longitude": 147.5774675,
    "source": "OpenStreetMap",
    "suburb": "",
    "state": "VIC",
    "postcode": ""
  },
  {
    "id": 8878,
    "name": "Maryborough Pharmacy",
    "address": "NSW",
    "latitude": -37.0465767,
    "longitude": 143.7378972,
    "source": "OpenStreetMap",
    "suburb": "",
    "state": "NSW",
    "postcode": ""
  },
  {
    "id": 8880,
    "name": "Pharmacy",
    "address": "VIC",
    "latitude": -38.4371679,
    "longitude": 145.4359173,
    "source": "OpenStreetMap",
    "suburb": "",
    "state": "VIC",
    "postcode": ""
  },
  {
    "id": 8881,
    "name": "Advantage Pharmacy",
    "address": "NSW",
    "latitude": -30.21807,
    "longitude": 151.6717131,
    "source": "OpenStreetMap",
    "suburb": "",
    "state": "NSW",
    "postcode": ""
  },
  {
    "id": 8890,
    "name": "Chemist Warehouse",
    "address": "VIC",
    "latitude": -37.6398614,
    "longitude": 144.9321062,
    "source": "OpenStreetMap",
    "suburb": "",
    "state": "VIC",
    "postcode": ""
  },
  {
    "id": 8895,
    "name": "Scotts Head Pharmacy",
    "address": "NSW",
    "latitude": -30.7468828,
    "longitude": 152.9955444,
    "source": "OpenStreetMap",
    "suburb": "",
    "state": "NSW",
    "postcode": ""
  },
  {
    "id": 8925,
    "name": "Pharmacy 4 Less",
    "address": "NSW",
    "latitude": -34.2265149,
    "longitude": 150.5906793,
    "source": "OpenStreetMap",
    "suburb": "",
    "state": "NSW",
    "postcode": ""
  },
  {
    "id": 8933,
    "name": "John Flynn Pharmacy",
    "address": "NSW",
    "latitude": -28.1535463,
    "longitude": 153.4884189,
    "source": "OpenStreetMap",
    "suburb": "",
    "state": "NSW",
    "postcode": ""
  },
  {
    "id": 8935,
    "name": "Reedy Creek Pharmacy",
    "address": "NSW",
    "latitude": -28.101925,
    "longitude": 153.4018347,
    "source": "OpenStreetMap",
    "suburb": "",
    "state": "NSW",
    "postcode": ""
  },
  {
    "id": 8942,
    "name": "Amcal",
    "address": "NSW",
    "latitude": -28.655455,
    "longitude": 151.9340048,
    "source": "OpenStreetMap",
    "suburb": "",
    "state": "NSW",
    "postcode": ""
  },
  {
    "id": 8944,
    "name": "Goomeri Community Pharrnacy",
    "address": "QLD",
    "latitude": -26.1824379,
    "longitude": 152.0691977,
    "source": "OpenStreetMap",
    "suburb": "",
    "state": "QLD",
    "postcode": ""
  },
  {
    "id": 8946,
    "name": "Chemist Warehouse",
    "address": "NSW",
    "latitude": -36.1278761,
    "longitude": 146.8641632,
    "source": "OpenStreetMap",
    "suburb": "",
    "state": "NSW",
    "postcode": ""
  },
  {
    "id": 8956,
    "name": "Health Pharmacy",
    "address": "NSW",
    "latitude": -28.0815875,
    "longitude": 153.3813052,
    "source": "OpenStreetMap",
    "suburb": "",
    "state": "NSW",
    "postcode": ""
  },
  {
    "id": 8961,
    "name": "Priceline Pharmacy",
    "address": "WA",
    "latitude": -31.9872953,
    "longitude": 116.0083276,
    "source": "OpenStreetMap",
    "suburb": "",
    "state": "WA",
    "postcode": ""
  },
  {
    "id": 8964,
    "name": "Chemist Warehouse",
    "address": "NSW",
    "latitude": -35.0755348,
    "longitude": 147.3580892,
    "source": "OpenStreetMap",
    "suburb": "",
    "state": "NSW",
    "postcode": ""
  },
  {
    "id": 8966,
    "name": "Gold Coast Pharmaceutical Support",
    "address": "NSW",
    "latitude": -28.0442873,
    "longitude": 153.4344214,
    "source": "OpenStreetMap",
    "suburb": "",
    "state": "NSW",
    "postcode": ""
  },
  {
    "id": 8970,
    "name": "Chemist Warehouse",
    "address": "VIC",
    "latitude": -37.7575776,
    "longitude": 145.1299776,
    "source": "OpenStreetMap",
    "suburb": "",
    "state": "VIC",
    "postcode": ""
  },
  {
    "id": 8979,
    "name": "Ariah Park Pharmacy",
    "address": "NSW",
    "latitude": -34.3469637,
    "longitude": 147.2214571,
    "source": "OpenStreetMap",
    "suburb": "",
    "state": "NSW",
    "postcode": ""
  },
  {
    "id": 8984,
    "name": "Westbury Pharmacy",
    "address": "TAS",
    "latitude": -41.5262726,
    "longitude": 146.8344965,
    "source": "OpenStreetMap",
    "suburb": "",
    "state": "TAS",
    "postcode": ""
  },
  {
    "id": 8995,
    "name": "Unknown Pharmacy",
    "address": "SA",
    "latitude": -34.9519469,
    "longitude": 138.8757935,
    "source": "OpenStreetMap",
    "suburb": "",
    "state": "SA",
    "postcode": ""
  },
  {
    "id": 9001,
    "name": "Rainbow Community Pharmacy",
    "address": "NSW",
    "latitude": -36.141702,
    "longitude": 141.9879004,
    "source": "OpenStreetMap",
    "suburb": "",
    "state": "NSW",
    "postcode": ""
  },
  {
    "id": 9006,
    "name": "St Marys Pharmacy",
    "address": "TAS",
    "latitude": -41.5798955,
    "longitude": 148.1855229,
    "source": "OpenStreetMap",
    "suburb": "",
    "state": "TAS",
    "postcode": ""
  },
  {
    "id": 9026,
    "name": "Ardlethan Pharmacy",
    "address": "NSW",
    "latitude": -34.3572362,
    "longitude": 146.9014553,
    "source": "OpenStreetMap",
    "suburb": "",
    "state": "NSW",
    "postcode": ""
  },
  {
    "id": 9036,
    "name": "Chemist Warehouse",
    "address": "QLD",
    "latitude": -26.6879084,
    "longitude": 153.0052338,
    "source": "OpenStreetMap",
    "suburb": "",
    "state": "QLD",
    "postcode": ""
  },