[
  {
    "id": 5934,
    "name": "Chemist Warehouse",
    "address": "546, Gympie Road, Kedron, QLD, 4031",
    "latitude": -27.3938905,
    "longitude": 153.0280048,
    "source": "OpenStreetMap-verify",
    "suburb": "Kedron",
    "state": "QLD",
    "postcode": "4031"
  },
  {
    "id": 5939,
    "name": "Chemist Warehouse",
    "address": "206-210, Brunswick Street, VIC",
    "latitude": -37.8012423,
    "longitude": 144.9781729,
    "source": "OpenStreetMap-verify",
    "suburb": "",
    "state": "VIC",
    "postcode": ""
  },
  {
    "id": 5943,
    "name": "Priceline Pharmacy",
    "address": "Lachlan Street, ACT",
    "latitude": -35.2483414,
    "longitude": 149.0600666,
    "source": "OpenStreetMap-verify",
    "suburb": "",
    "state": "ACT",
    "postcode": ""
  },
  {
    "id": 5996,
    "name": "The Rocks Chemist",
    "address": "97, George Street, The Rocks, NSW, 2000",
    "latitude": -33.8595605,
    "longitude": 151.2086055,
    "source": "OpenStreetMap-verify",
    "suburb": "The Rocks",
    "state": "NSW",
    "postcode": "2000"
  },
  {
    "id": 6028,
    "name": "Jells Park Pharmacy",
    "address": "863, Waverley Road, Glen Waverley, VIC, 3150",
    "latitude": -37.8911425,
    "longitude": 145.1862793,
    "source": "OpenStreetMap-verify",
    "suburb": "Glen Waverley",
    "state": "VIC",
    "postcode": "3150"
  },
  {
    "id": 6029,
    "name": "Discount Drug Store",
    "address": "501, Golden Grove Road, Surrey Downs, SA, 5126",
    "latitude": -34.8054934,
    "longitude": 138.7017706,
    "source": "OpenStreetMap-verify",
    "suburb": "Surrey Downs",
    "state": "SA",
    "postcode": "5126"
  },
  {
    "id": 6035,
    "name": "Chemist Warehouse",
    "address": "36, Oxford Street, NSW",
    "latitude": -33.7715426,
    "longitude": 151.083006,
    "source": "OpenStreetMap-verify",
    "suburb": "",
    "state": "NSW",
    "postcode": ""
  },
  {
    "id": 6037,
    "name": "Coromandel Valley Pharmacy",
    "address": "401, Main Road, SA, 5051",
    "latitude": -35.041375,
    "longitude": 138.6262392,
    "source": "OpenStreetMap-verify",
    "suburb": "",
    "state": "SA",
    "postcode": "5051"
  },
  {
    "id": 6048,
    "name": "Chemmart",
    "address": "Memford Way, SA, 5159",
    "latitude": -35.0527798,
    "longitude": 138.5900368,
    "source": "OpenStreetMap-verify",
    "suburb": "",
    "state": "SA",
    "postcode": "5159"
  },
  {
    "id": 6071,
    "name": "Briar Hill Pharmacy",
    "address": "111, Mountain View Road, Briar Hill, VIC, 3088",
    "latitude": -37.7092094,
    "longitude": 145.1196937,
    "source": "OpenStreetMap-verify",
    "suburb": "Briar Hill",
    "state": "VIC",
    "postcode": "3088"
  },
  {
    "id": 6073,
    "name": "Edenhope Pharmacy",
    "address": "69, Elizabeth Street, NSW, 3318",
    "latitude": -37.0363789,
    "longitude": 141.2958783,
    "source": "OpenStreetMap-verify",
    "suburb": "",
    "state": "NSW",
    "postcode": "3318"
  },
  {
    "id": 6074,
    "name": "Andergrove United Chemist",
    "address": "78, Celeber Drive, Andergrove, QLD, 4740",
    "latitude": -21.0974687,
    "longitude": 149.1772016,
    "source": "OpenStreetMap-verify",
    "suburb": "Andergrove",
    "state": "QLD",
    "postcode": "4740"
  },
  {
    "id": 6079,
    "name": "Kanahooka Pharmacy",
    "address": "56, Lakeside Drive, NSW, 2530",
    "latitude": -34.5002643,
    "longitude": 150.8168158,
    "source": "OpenStreetMap-verify",
    "suburb": "",
    "state": "NSW",
    "postcode": "2530"
  },
  {
    "id": 6082,
    "name": "Priceline Pharmacy",
    "address": "600, Main North Road, Smithfield, SA, 5114",
    "latitude": -34.6873926,
    "longitude": 138.6888714,
    "source": "OpenStreetMap-verify",
    "suburb": "Smithfield",
    "state": "SA",
    "postcode": "5114"
  },
  {
    "id": 6083,
    "name": "Geebung Pharmacy",
    "address": "328, Newman Road, Geebung, QLD, 4034",
    "latitude": -27.3701946,
    "longitude": 153.0472955,
    "source": "OpenStreetMap-verify",
    "suburb": "Geebung",
    "state": "QLD",
    "postcode": "4034"
  },
  {
    "id": 6089,
    "name": "comopharmacy",
    "address": "66, Wolger Street, NSW",
    "latitude": -34.0040401,
    "longitude": 151.0619193,
    "source": "OpenStreetMap-verify",
    "suburb": "",
    "state": "NSW",
    "postcode": ""
  },
  {
    "id": 6092,
    "name": "Dolls Point Pharmacy",
    "address": "33, Clareville Avenue, NSW",
    "latitude": -33.9946044,
    "longitude": 151.139859,
    "source": "OpenStreetMap-verify",
    "suburb": "",
    "state": "NSW",
    "postcode": ""
  },
  {
    "id": 6098,
    "name": "Pharmacist Advice",
    "address": "156, Grand Junction Road, SA",
    "latitude": -34.8516074,
    "longitude": 138.5282583,
    "source": "OpenStreetMap-verify",
    "suburb": "",
    "state": "SA",
    "postcode": ""
  },
  {
    "id": 6115,
    "name": "Rosedale Pharmacy",
    "address": "9, Prince Street, VIC",
    "latitude": -38.1517824,
    "longitude": 146.7886522,
    "source": "OpenStreetMap-verify",
    "suburb": "",
    "state": "VIC",
    "postcode": ""
  },
  {
    "id": 6117,
    "name": "Walter's Road Chemist",
    "address": "74D, Walters Road, Blacktown, NSW, 2148",
    "latitude": -33.777884,
    "longitude": 150.8944937,
    "source": "OpenStreetMap-verify",
    "suburb": "Blacktown",
    "state": "NSW",
    "postcode": "2148"
  },
  {
    "id": 6122,
    "name": "My Chemist",
    "address": "11, Narelle Drive, Aspendale Gardens, VIC, 3195",
    "latitude": -38.0219768,
    "longitude": 145.1177044,
    "source": "OpenStreetMap-verify",
    "suburb": "Aspendale Gardens",
    "state": "VIC",
    "postcode": "3195"
  },
  {
    "id": 6124,
    "name": "Aspendale Pharmacy",
    "address": "141, Station Street, Aspendale, VIC, 3195",
    "latitude": -38.0271477,
    "longitude": 145.1025398,
    "source": "OpenStreetMap-verify",
    "suburb": "Aspendale",
    "state": "VIC",
    "postcode": "3195"
  },
  {
    "id": 6127,
    "name": "Wandin North Pharmacy",
    "address": "362, Warburton Highway, Wandin North, VIC, 3139",
    "latitude": -37.7796915,
    "longitude": 145.4274898,
    "source": "OpenStreetMap-verify",
    "suburb": "Wandin North",
    "state": "VIC",
    "postcode": "3139"
  },
  {
    "id": 6136,
    "name": "Queenstown Medical Union Pharmacy",
    "address": "16, Orr Street, Queenstown, TAS, 7467",
    "latitude": -42.0797568,
    "longitude": 145.5554531,
    "source": "OpenStreetMap-verify",
    "suburb": "Queenstown",
    "state": "TAS",
    "postcode": "7467"
  },
  {
    "id": 6140,
    "name": "Wentworth Pharmacy",
    "address": "Sandwych Street, Wentworth, NSW, 2648",
    "latitude": -34.1069158,
    "longitude": 141.9182262,
    "source": "OpenStreetMap-verify",
    "suburb": "Wentworth",
    "state": "NSW",
    "postcode": "2648"
  },
  {
    "id": 6144,
    "name": "Bob's Chemist Newtown",
    "address": "304-306, King Street, Newtown, NSW, 2042",
    "latitude": -33.896893,
    "longitude": 151.179563,
    "source": "OpenStreetMap-verify",
    "suburb": "Newtown",
    "state": "NSW",
    "postcode": "2042"
  },
  {
    "id": 6149,
    "name": "Cunnamulla Pharmacy",
    "address": "14, Stockyard Street, Cunnamulla, QLD, 4490",
    "latitude": -28.068594,
    "longitude": 145.6828168,
    "source": "OpenStreetMap-verify",
    "suburb": "Cunnamulla",
    "state": "QLD",
    "postcode": "4490"
  },
  {
    "id": 6153,
    "name": "Amcal Chemist Metung Depot",
    "address": "59, Metung Road, VIC",
    "latitude": -37.892397,
    "longitude": 147.8534112,
    "source": "OpenStreetMap-verify",
    "suburb": "",
    "state": "VIC",
    "postcode": ""
  },
  {
    "id": 6160,
    "name": "Pharmacy World",
    "address": "101, Anderson Road, VIC",
    "latitude": -37.695929,
    "longitude": 144.968056,
    "source": "OpenStreetMap-verify",
    "suburb": "",
    "state": "VIC",
    "postcode": ""
  },
  {
    "id": 6175,
    "name": "Chemist Warehouse",
    "address": "77, Fletcher Street, Essendon, VIC, 3040",
    "latitude": -37.7553276,
    "longitude": 144.9187283,
    "source": "OpenStreetMap-verify",
    "suburb": "Essendon",
    "state": "VIC",
    "postcode": "3040"
  },
  {
    "id": 6176,
    "name": "Priceline Pharmacy",
    "address": "117, Remembrance Driveway, NSW",
    "latitude": -34.2227832,
    "longitude": 150.592267,
    "source": "OpenStreetMap-verify",
    "suburb": "",
    "state": "NSW",
    "postcode": ""
  },
  {
    "id": 6185,
    "name": "Chemist Warehouse",
    "address": "101-115, Lear Jet Drive, Caboolture, QLD, 4510",
    "latitude": -27.0846839,
    "longitude": 152.9792666,
    "source": "OpenStreetMap-verify",
    "suburb": "Caboolture",
    "state": "QLD",
    "postcode": "4510"
  },
  {
    "id": 6197,
    "name": "Aberdeen Pharmacy",
    "address": "1, Segenhoe Street, NSW",
    "latitude": -32.1623794,
    "longitude": 150.8898475,
    "source": "OpenStreetMap-verify",
    "suburb": "",
    "state": "NSW",
    "postcode": ""
  },
  {
    "id": 6202,
    "name": "Walcott Street Pharmacy",
    "address": "259, Walcott Street, WA",
    "latitude": -31.9229578,
    "longitude": 115.8584703,
    "source": "OpenStreetMap-verify",
    "suburb": "",
    "state": "WA",
    "postcode": ""
  },
  {
    "id": 6208,
    "name": "TerryWhite Chemmart",
    "address": "36, Langston Place, Epping, NSW, 2121",
    "latitude": -33.7732439,
    "longitude": 151.0832342,
    "source": "OpenStreetMap-verify",
    "suburb": "Epping",
    "state": "NSW",
    "postcode": "2121"
  },
  {
    "id": 6211,
    "name": "Unknown Pharmacy",
    "address": "551, Great North Road, Abbotsford, NSW, 2046",
    "latitude": -33.8565783,
    "longitude": 151.1309773,
    "source": "OpenStreetMap-verify",
    "suburb": "Abbotsford",
    "state": "NSW",
    "postcode": "2046"
  },
  {
    "id": 6216,
    "name": "Chemplus",
    "address": "Bartley Terrace, West Lakes Shore, SA, 5020",
    "latitude": -34.8640837,
    "longitude": 138.4859285,
    "source": "OpenStreetMap-verify",
    "suburb": "West Lakes Shore",
    "state": "SA",
    "postcode": "5020"
  },
  {
    "id": 6218,
    "name": "St Mary Pharmacy",
    "address": "47, Bathurst Street, Brewarrina, NSW, 2839",
    "latitude": -29.960851,
    "longitude": 146.8569799,
    "source": "OpenStreetMap-verify",
    "suburb": "Brewarrina",
    "state": "NSW",
    "postcode": "2839"
  },
  {
    "id": 6225,
    "name": "Chemist Warehouse",
    "address": "17, Iron Knob Street, ACT",
    "latitude": -35.3360361,
    "longitude": 149.1799946,
    "source": "OpenStreetMap-verify",
    "suburb": "",
    "state": "ACT",
    "postcode": ""
  },
  {
    "id": 6242,
    "name": "Discount Drug Stores",
    "address": "270, Broadway, VIC",
    "latitude": -37.7166987,
    "longitude": 145.0090303,
    "source": "OpenStreetMap-verify",
    "suburb": "",
    "state": "VIC",
    "postcode": ""
  },
  {
    "id": 6255,
    "name": "Pikes Pharmacy",
    "address": "5, Australia Avenue, Sydney Olympic Park, NSW, 2127",
    "latitude": -33.8475577,
    "longitude": 151.0729152,
    "source": "OpenStreetMap-verify",
    "suburb": "Sydney Olympic Park",
    "state": "NSW",
    "postcode": "2127"
  },
  {
    "id": 6268,
    "name": "Capital Chemist Palmwoods",
    "address": "2-4, Margaret Street, Palmwoods, QLD, 4555",
    "latitude": -26.6855807,
    "longitude": 152.9592032,
    "source": "OpenStreetMap-verify",
    "suburb": "Palmwoods",
    "state": "QLD",
    "postcode": "4555"
  },
  {
    "id": 6273,
    "name": "Chemist Warehouse",
    "address": "Casula, NSW",
    "latitude": -33.9593133,
    "longitude": 150.8830785,
    "source": "OpenStreetMap-verify",
    "suburb": "Casula",
    "state": "NSW",
    "postcode": ""
  },
  {
    "id": 6279,
    "name": "UFS",
    "address": "6, Coltman Plaza, VIC",
    "latitude": -37.5438681,
    "longitude": 143.7863013,
    "source": "OpenStreetMap-verify",
    "suburb": "",
    "state": "VIC",
    "postcode": ""
  },
  {
    "id": 6289,
    "name": "Rainbow Community Pharmacy",
    "address": "6, Federal Street, Rainbow, NSW, 3424",
    "latitude": -35.8981788,
    "longitude": 141.9938386,
    "source": "OpenStreetMap-verify",
    "suburb": "Rainbow",
    "state": "NSW",
    "postcode": "3424"
  },
  {
    "id": 6291,
    "name": "River Heads Pharmacy",
    "address": "52-54, Ariadne Street, River Heads, QLD, 4655",
    "latitude": -25.4227061,
    "longitude": 152.9172463,
    "source": "OpenStreetMap-verify",
    "suburb": "River Heads",
    "state": "QLD",
    "postcode": "4655"
  },
  {
    "id": 6298,
    "name": "Chemist Warehouse",
    "address": "1609, Sturt Street, VIC",
    "latitude": -37.555545,
    "longitude": 143.817684,
    "source": "OpenStreetMap-verify",
    "suburb": "",
    "state": "VIC",
    "postcode": ""
  },
  {
    "id": 6300,
    "name": "Chemplus Novar Gardens",
    "address": "126, Morphett Road, SA",
    "latitude": -34.9662705,
    "longitude": 138.5368131,
    "source": "OpenStreetMap-verify",
    "suburb": "",
    "state": "SA",
    "postcode": ""
  },
  {
    "id": 6302,
    "name": "Chemist Warehouse",
    "address": "463, New South Head Road, Double Bay, NSW, 2028",
    "latitude": -33.8774667,
    "longitude": 151.2443466,
    "source": "OpenStreetMap-verify",
    "suburb": "Double Bay",
    "state": "NSW",
    "postcode": "2028"
  },
  {
    "id": 6304,
    "name": "Rose Bay Pharmacy",
    "address": "New South Head Road, NSW",
    "latitude": -33.8616418,
    "longitude": 151.2720761,
    "source": "OpenStreetMap-verify",
    "suburb": "",
    "state": "NSW",
    "postcode": ""
  },
  {
    "id": 6328,
    "name": "Mermaid Beach Chempro",
    "address": "2506, Gold Coast Highway, Mermaid Beach, NSW, 4218",
    "latitude": -28.0531522,
    "longitude": 153.4229256,
    "source": "OpenStreetMap-verify",
    "suburb": "Mermaid Beach",
    "state": "NSW",
    "postcode": "4218"
  },
  {
    "id": 6349,
    "name": "Steve Siamidis Pharmacy",
    "address": "545, Sydney Road, VIC",
    "latitude": -37.7643674,
    "longitude": 144.9624494,
    "source": "OpenStreetMap-verify",
    "suburb": "",
    "state": "VIC",
    "postcode": ""
  },
  {
    "id": 6398,
    "name": "Priceline Pharmacy",
    "address": "303, Grange Road, Findon, SA, 5023",
    "latitude": -34.9045849,
    "longitude": 138.5309394,
    "source": "OpenStreetMap-verify",
    "suburb": "Findon",
    "state": "SA",
    "postcode": "5023"
  },
  {
    "id": 6409,
    "name": "Chemist Warehouse",
    "address": "567, Kessels Road, QLD",
    "latitude": -27.5629963,
    "longitude": 153.0717747,
    "source": "OpenStreetMap-verify",
    "suburb": "",
    "state": "QLD",
    "postcode": ""
  },
  {
    "id": 6429,
    "name": "TerryWhite Chemmart",
    "address": "Schofields, NSW",
    "latitude": -33.7041506,
    "longitude": 150.8756796,
    "source": "OpenStreetMap-verify",
    "suburb": "Schofields",
    "state": "NSW",
    "postcode": ""
  },
  {
    "id": 6434,
    "name": "Dulwich Pharmacy",
    "address": "14, Stuart Road, SA",
    "latitude": -34.9353781,
    "longitude": 138.6317938,
    "source": "OpenStreetMap-verify",
    "suburb": "",
    "state": "SA",
    "postcode": ""
  },
  {
    "id": 6439,
    "name": "Chemist Warehouse",
    "address": "5, Emerald Hills Boulevard, NSW",
    "latitude": -33.9954753,
    "longitude": 150.7908894,
    "source": "OpenStreetMap-verify",
    "suburb": "",
    "state": "NSW",
    "postcode": ""
  },
  {
    "id": 6444,
    "name": "South Casino Pharmacy",
    "address": "72, Centre Street, Casino, NSW, 2470",
    "latitude": -28.8710713,
    "longitude": 153.0440427,
    "source": "OpenStreetMap-verify",
    "suburb": "Casino",
    "state": "NSW",
    "postcode": "2470"
  },
  {
    "id": 6465,
    "name": "Kurrajong Compounding Pharmacy",
    "address": "74c, Old Bells Line of Road, NSW",
    "latitude": -33.5536382,
    "longitude": 150.6665187,
    "source": "OpenStreetMap-verify",
    "suburb": "",
    "state": "NSW",
    "postcode": ""
  },
  {
    "id": 6485,
    "name": "Chemist Warehouse",
    "address": "162-172, Eaglehawk Road, Long Gully, VIC, 3550",
    "latitude": -36.7464014,
    "longitude": 144.258371,
    "source": "OpenStreetMap-verify",
    "suburb": "Long Gully",
    "state": "VIC",
    "postcode": "3550"
  },
  {
    "id": 6487,
    "name": "Chemist Warehouse",
    "address": "326, William Street, VIC",
    "latitude": -37.8115594,
    "longitude": 144.9565407,
    "source": "OpenStreetMap-verify",
    "suburb": "",
    "state": "VIC",
    "postcode": ""
  },
  {
    "id": 6493,
    "name": "The Chemist Shop",
    "address": "16, Carwar Avenue, Carss Park, NSW, 2221",
    "latitude": -33.9823911,
    "longitude": 151.1178634,
    "source": "OpenStreetMap-verify",
    "suburb": "Carss Park",
    "state": "NSW",
    "postcode": "2221"
  },
  {
    "id": 6496,
    "name": "Chemist Warehouse",
    "address": "2, Ibbott Lane, ACT",
    "latitude": -35.2466798,
    "longitude": 149.0656887,
    "source": "OpenStreetMap-verify",
    "suburb": "",
    "state": "ACT",
    "postcode": ""
  },
  {
    "id": 6507,
    "name": "Foster Pharmacy",
    "address": "2, Station Road, VIC",
    "latitude": -38.6528509,
    "longitude": 146.2011701,
    "source": "OpenStreetMap-verify",
    "suburb": "",
    "state": "VIC",
    "postcode": ""
  },
  {
    "id": 6518,
    "name": "Revive Pharmacy Mitchell",
    "address": "88, Cambridge Street, Mitchell, QLD, 4465",
    "latitude": -26.4879299,
    "longitude": 147.9742027,
    "source": "OpenStreetMap-verify",
    "suburb": "Mitchell",
    "state": "QLD",
    "postcode": "4465"
  },
  {
    "id": 6526,
    "name": "Alpha Pharmacy",
    "address": "51, Shakespeare Street, Alpha, QLD, 4724",
    "latitude": -23.6487128,
    "longitude": 146.6409639,
    "source": "OpenStreetMap-verify",
    "suburb": "Alpha",
    "state": "QLD",
    "postcode": "4724"
  },
  {
    "id": 6536,
    "name": "Dirranbandi Community Pharmacy",
    "address": "50, Railway Street, Dirranbandi, QLD, 4486",
    "latitude": -28.585627,
    "longitude": 148.227554,
    "source": "OpenStreetMap-verify",
    "suburb": "Dirranbandi",
    "state": "QLD",
    "postcode": "4486"
  },
  {
    "id": 6538,
    "name": "Chemist Warehouse",
    "address": "154, Raglan Parade, Warrnambool, VIC, 3280",
    "latitude": -38.38057,
    "longitude": 142.5204488,
    "source": "OpenStreetMap-verify",
    "suburb": "Warrnambool",
    "state": "VIC",
    "postcode": "3280"
  },
  {
    "id": 6543,
    "name": "Mungindi Pharmacy",
    "address": "174, St George Street, Mungindi, NSW, 2406",
    "latitude": -28.9769082,
    "longitude": 148.9889135,
    "source": "OpenStreetMap-verify",
    "suburb": "Mungindi",
    "state": "NSW",
    "postcode": "2406"
  },
  {
    "id": 6544,
    "name": "Seaforth Pharmacy",
    "address": "553 B, Sydney Road, NSW",
    "latitude": -33.7972623,
    "longitude": 151.2512701,
    "source": "OpenStreetMap-verify",
    "suburb": "",
    "state": "NSW",
    "postcode": ""
  },
  {
    "id": 6550,
    "name": "Bardwell Park Pharmacy",
    "address": "10, Hartill-Law Avenue, NSW",
    "latitude": -33.9317738,
    "longitude": 151.1254698,
    "source": "OpenStreetMap-verify",
    "suburb": "",
    "state": "NSW",
    "postcode": ""
  },
  {
    "id": 6571,
    "name": "Tingha Pharmacy",
    "address": "21, Ruby Street, Tingha, NSW, 2369",
    "latitude": -29.954978,
    "longitude": 151.2118227,
    "source": "OpenStreetMap-verify",
    "suburb": "Tingha",
    "state": "NSW",
    "postcode": "2369"
  },
  {
    "id": 6579,
    "name": "Stellar Pharmacy",
    "address": "Sturt Highway, Buronga, NSW, 2739",
    "latitude": -34.1710734,
    "longitude": 142.1854464,
    "source": "OpenStreetMap-verify",
    "suburb": "Buronga",
    "state": "NSW",
    "postcode": "2739"
  },
  {
    "id": 6580,
    "name": "Gloucester Pharmacy",
    "address": "43, Church Street, NSW",
    "latitude": -32.0066661,
    "longitude": 151.9583547,
    "source": "OpenStreetMap-verify",
    "suburb": "",
    "state": "NSW",
    "postcode": ""
  },
  {
    "id": 6590,
    "name": "Fultons",
    "address": "1907, Dandenong Road, VIC",
    "latitude": -37.9112221,
    "longitude": 145.1227732,
    "source": "OpenStreetMap-verify",
    "suburb": "",
    "state": "VIC",
    "postcode": ""
  },
  {
    "id": 6591,
    "name": "Pharmacy 4 Less",
    "address": "290, Millers Road, Altona North, VIC, 3025",
    "latitude": -37.8429153,
    "longitude": 144.8442298,
    "source": "OpenStreetMap-verify",
    "suburb": "Altona North",
    "state": "VIC",
    "postcode": "3025"
  },
  {
    "id": 6597,
    "name": "Brooklyn Pharmacy",
    "address": "5, Bridge Street, Brooklyn, NSW",
    "latitude": -33.5480833,
    "longitude": 151.2263234,
    "source": "OpenStreetMap-verify",
    "suburb": "Brooklyn",
    "state": "NSW",
    "postcode": ""
  },
  {
    "id": 6599,
    "name": "Trundle Pharmacy",
    "address": "61, Forbes Street, Trundle, NSW, 2875",
    "latitude": -32.9224834,
    "longitude": 147.7101883,
    "source": "OpenStreetMap-verify",
    "suburb": "Trundle",
    "state": "NSW",
    "postcode": "2875"
  },
  {
    "id": 6612,
    "name": "Tallangatta Pharmacy",
    "address": "29, Towong Street, NSW",
    "latitude": -36.2163801,
    "longitude": 147.1788926,
    "source": "OpenStreetMap-verify",
    "suburb": "",
    "state": "NSW",
    "postcode": ""
  },
  {
    "id": 6634,
    "name": "Gladstone Pharmacy",
    "address": "4, Ashton Street, NSW",
    "latitude": -31.0216121,
    "longitude": 152.9487763,
    "source": "OpenStreetMap-verify",
    "suburb": "",
    "state": "NSW",
    "postcode": ""
  },
  {
    "id": 6635,
    "name": "Montrose Pharmacy",
    "address": "1, Mount Dandenong Tourist Road, Montrose, VIC, 3765",
    "latitude": -37.8100171,
    "longitude": 145.343187,
    "source": "OpenStreetMap-verify",
    "suburb": "Montrose",
    "state": "VIC",
    "postcode": "3765"
  },
  {
    "id": 6640,
    "name": "Coldstream Pharmacy",
    "address": "670-672, Maroondah Highway, Coldstream, VIC, 3770",
    "latitude": -37.725238,
    "longitude": 145.379564,
    "source": "OpenStreetMap-verify",
    "suburb": "Coldstream",
    "state": "VIC",
    "postcode": "3770"
  },
  {
    "id": 6642,
    "name": "Discount Chemist",
    "address": "130, Gympie Road, Strathpine, QLD, 4500",
    "latitude": -27.3132114,
    "longitude": 152.9920797,
    "source": "OpenStreetMap-verify",
    "suburb": "Strathpine",
    "state": "QLD",
    "postcode": "4500"
  },
  {
    "id": 6645,
    "name": "Chemsave",
    "address": "640, Gympie Road, Lawnton, QLD, 4501",
    "latitude": -27.2935894,
    "longitude": 152.9852734,
    "source": "OpenStreetMap-verify",
    "suburb": "Lawnton",
    "state": "QLD",
    "postcode": "4501"
  },
  {
    "id": 6648,
    "name": "Chemist Warehouse",
    "address": "16, Weippin Street, Cleveland, QLD, 4163",
    "latitude": -27.5419158,
    "longitude": 153.2503913,
    "source": "OpenStreetMap-verify",
    "suburb": "Cleveland",
    "state": "QLD",
    "postcode": "4163"
  },
  {
    "id": 6649,
    "name": "Chemist Warehouse",
    "address": "101, Valley Way, Mount Cotton, QLD, 4165",
    "latitude": -27.638904,
    "longitude": 153.2488688,
    "source": "OpenStreetMap-verify",
    "suburb": "Mount Cotton",
    "state": "QLD",
    "postcode": "4165"
  },
  {
    "id": 6653,
    "name": "Chemist Warehouse",
    "address": "288, Centre Dandenong Road, VIC",
    "latitude": -37.9706279,
    "longitude": 145.0936995,
    "source": "OpenStreetMap-verify",
    "suburb": "",
    "state": "VIC",
    "postcode": ""
  },
  {
    "id": 6654,
    "name": "Chemist Warehouse",
    "address": "799, Ballina Road, NSW",
    "latitude": -28.8125966,
    "longitude": 153.3479318,
    "source": "OpenStreetMap-verify",
    "suburb": "",
    "state": "NSW",
    "postcode": ""
  },
  {
    "id": 6666,
    "name": "National Pharmacies",
    "address": "64, Railway Avenue, Ringwood East, VIC, 3135",
    "latitude": -37.8122898,
    "longitude": 145.2503954,
    "source": "OpenStreetMap-verify",
    "suburb": "Ringwood East",
    "state": "VIC",
    "postcode": "3135"
  },
  {
    "id": 6669,
    "name": "Chemist Warehouse",
    "address": "459, Pumicestone Road, Caboolture, QLD, 4510",
    "latitude": -27.042248,
    "longitude": 152.9746233,
    "source": "OpenStreetMap-verify",
    "suburb": "Caboolture",
    "state": "QLD",
    "postcode": "4510"
  },
  {
    "id": 6675,
    "name": "Chemist Warehouse",
    "address": "415, Springvale Road, Forest Hill, VIC, 3131",
    "latitude": -37.8416194,
    "longitude": 145.1718389,
    "source": "OpenStreetMap-verify",
    "suburb": "Forest Hill",
    "state": "VIC",
    "postcode": "3131"
  },
  {
    "id": 6693,
    "name": "Choice Pharmacy",
    "address": "101, Cove Boulevard, NSW",
    "latitude": -34.5878623,
    "longitude": 150.865589,
    "source": "OpenStreetMap-verify",
    "suburb": "",
    "state": "NSW",
    "postcode": ""
  },
  {
    "id": 6696,
    "name": "Caroline Springs Pharmacy",
    "address": "29-35, Lake Street, Caroline Springs, VIC, 3023",
    "latitude": -37.7324848,
    "longitude": 144.7431768,
    "source": "OpenStreetMap-verify",
    "suburb": "Caroline Springs",
    "state": "VIC",
    "postcode": "3023"
  },
  {
    "id": 6698,
    "name": "Priceline Pharmacy",
    "address": "29-35, Lake Street, Caroline Springs, VIC, 3023",
    "latitude": -37.7301237,
    "longitude": 144.7435512,
    "source": "OpenStreetMap-verify",
    "suburb": "Caroline Springs",
    "state": "VIC",
    "postcode": "3023"
  },
  {
    "id": 6717,
    "name": "Simply Pharmacy West Wallsend",
    "address": "Cnr Carington and Withers Street, West Wallsend, NSW, 2286",
    "latitude": -32.9030335,
    "longitude": 151.5809265,
    "source": "OpenStreetMap-verify",
    "suburb": "West Wallsend",
    "state": "NSW",
    "postcode": "2286"
  },
  {
    "id": 6728,
    "name": "Shenton Pharmacy",
    "address": "214, Nicholson Road, Subiaco, WA, 6008",
    "latitude": -31.9562261,
    "longitude": 115.8147877,
    "source": "OpenStreetMap-verify",
    "suburb": "Subiaco",
    "state": "WA",
    "postcode": "6008"
  },
  {
    "id": 6742,
    "name": "Chemist Warehouse",
    "address": "Waterfront Way, Docklands, VIC, 3008",
    "latitude": -37.8119887,
    "longitude": 144.938828,
    "source": "OpenStreetMap-verify",
    "suburb": "Docklands",
    "state": "VIC",
    "postcode": "3008"
  },
  {
    "id": 6746,
    "name": "Spring Ridge Pharmacy",
    "address": "76, Darby Road, Spring Ridge, NSW, 2343",
    "latitude": -31.3945573,
    "longitude": 150.2489108,
    "source": "OpenStreetMap-verify",
    "suburb": "Spring Ridge",
    "state": "NSW",
    "postcode": "2343"
  },
  {
    "id": 6749,
    "name": "St Mary Lake Cargelligo Pharmacy",
    "address": "17, Foster Street, Lake Cargelligo, NSW, 2672",
    "latitude": -33.2980888,
    "longitude": 146.3748673,
    "source": "OpenStreetMap-verify",
    "suburb": "Lake Cargelligo",
    "state": "NSW",
    "postcode": "2672"
  },
  {
    "id": 6754,
    "name": "Amcal",
    "address": "485, Heysen Boulevard, Mount Barker, SA, 5251",
    "latitude": -35.0872097,
    "longitude": 138.8903342,
    "source": "OpenStreetMap-verify",
    "suburb": "Mount Barker",
    "state": "SA",
    "postcode": "5251"
  },
  {
    "id": 6763,
    "name": "Wilberforce Everyday Chemist",
    "address": "15, King Road, NSW, 2756",
    "latitude": -33.560596,
    "longitude": 150.8392212,
    "source": "OpenStreetMap-verify",
    "suburb": "",
    "state": "NSW",
    "postcode": "2756"
  },
  {
    "id": 6789,
    "name": "Advantage Pharmacy",
    "address": "54, Simpson Avenue, Wollongbar, NSW, 2477",
    "latitude": -28.8281209,
    "longitude": 153.4199799,
    "source": "OpenStreetMap-verify",
    "suburb": "Wollongbar",
    "state": "NSW",
    "postcode": "2477"
  },
  {
    "id": 6791,
    "name": "Leyburn Pharmacy",
    "address": "5808, Toowoomba - Karara Road, Leyburn, QLD, 4365",
    "latitude": -28.009947,
    "longitude": 151.5855482,
    "source": "OpenStreetMap-verify",
    "suburb": "Leyburn",
    "state": "QLD",
    "postcode": "4365"
  },
  {
    "id": 6796,
    "name": "Blooms The Chemist",
    "address": "329, Gardner Road, Rochedale, QLD, 4123",
    "latitude": -27.5775269,
    "longitude": 153.1129714,
    "source": "OpenStreetMap-verify",
    "suburb": "Rochedale",
    "state": "QLD",
    "postcode": "4123"
  },
  {
    "id": 6798,
    "name": "Springsure Pharmacy",
    "address": "44, Eclipse Street, Springsure, QLD, 4722",
    "latitude": -24.1152249,
    "longitude": 148.0889494,
    "source": "OpenStreetMap-verify",
    "suburb": "Springsure",
    "state": "QLD",
    "postcode": "4722"
  },
  {
    "id": 6800,
    "name": "Radiance Injune Pharmacy",
    "address": "8, Second Avenue, Injune, QLD, 4454",
    "latitude": -25.8430907,
    "longitude": 148.5667844,
    "source": "OpenStreetMap-verify",
    "suburb": "Injune",
    "state": "QLD",
    "postcode": "4454"
  },
  {
    "id": 6801,
    "name": "Mullanes Pharmacy",
    "address": "121A, Mulga Road, Oatley, NSW, 2223",
    "latitude": -33.9799502,
    "longitude": 151.0728849,
    "source": "OpenStreetMap-verify",
    "suburb": "Oatley",
    "state": "NSW",
    "postcode": "2223"
  },
  {
    "id": 6806,
    "name": "Augathella Phamarcy",
    "address": "98, Main Street, Augathella, QLD, 4477",
    "latitude": -25.7963317,
    "longitude": 146.581591,
    "source": "OpenStreetMap-verify",
    "suburb": "Augathella",
    "state": "QLD",
    "postcode": "4477"
  },
  {
    "id": 6810,
    "name": "Healthline Pharmacy Oak Park",
    "address": "126, Snell Grove, VIC, 3046",
    "latitude": -37.7177299,
    "longitude": 144.922158,
    "source": "OpenStreetMap-verify",
    "suburb": "",
    "state": "VIC",
    "postcode": "3046"
  },
  {
    "id": 6817,
    "name": "Choice Pharmacy",
    "address": "14, Village Avenue, VIC",
    "latitude": -37.7717876,
    "longitude": 144.9781702,
    "source": "OpenStreetMap-verify",
    "suburb": "",
    "state": "VIC",
    "postcode": ""
  },
  {
    "id": 6819,
    "name": "Turnbulls Pharmacy",
    "address": "57, Main Street, Sheffield, TAS, 7306",
    "latitude": -41.3820745,
    "longitude": 146.3250747,
    "source": "OpenStreetMap-verify",
    "suburb": "Sheffield",
    "state": "TAS",
    "postcode": "7306"
  },
  {
    "id": 6823,
    "name": "Coomera Waters Pharmacy",
    "address": "25, Harbour Village Parade, QLD",
    "latitude": -27.8461516,
    "longitude": 153.3687267,
    "source": "OpenStreetMap-verify",
    "suburb": "",
    "state": "QLD",
    "postcode": ""
  },
  {
    "id": 6824,
    "name": "Robinvale Pharmacy",
    "address": "21, Perrin Street, Robinvale, VIC, 3549",
    "latitude": -34.5843645,
    "longitude": 142.7713477,
    "source": "OpenStreetMap-verify",
    "suburb": "Robinvale",
    "state": "VIC",
    "postcode": "3549"
  },
  {
    "id": 6825,
    "name": "Pyramid Hill Prescription Depot",
    "address": "15, Kelly Street, Pyramid Hill, VIC, 3575",
    "latitude": -36.0542691,
    "longitude": 144.1146184,
    "source": "OpenStreetMap-verify",
    "suburb": "Pyramid Hill",
    "state": "VIC",
    "postcode": "3575"
  },
  {
    "id": 6830,
    "name": "Pittwater Rd Pharmacy",
    "address": "183, Pittwater Road, NSW",
    "latitude": -33.7883833,
    "longitude": 151.2844954,
    "source": "OpenStreetMap-verify",
    "suburb": "",
    "state": "NSW",
    "postcode": ""
  },
  {
    "id": 6841,
    "name": "Fairwater Compounding Pharmacy",
    "address": "1-5, Hinkler Street, Tullamore, NSW, 2874",
    "latitude": -32.6351523,
    "longitude": 147.5684544,
    "source": "OpenStreetMap-verify",
    "suburb": "Tullamore",
    "state": "NSW",
    "postcode": "2874"
  },
  {
    "id": 6842,
    "name": "Dareton Pharmacy",
    "address": "28, Tapio Street, Dareton, NSW, 2717",
    "latitude": -34.0955016,
    "longitude": 142.0426952,
    "source": "OpenStreetMap-verify",
    "suburb": "Dareton",
    "state": "NSW",
    "postcode": "2717"
  },
  {
    "id": 6854,
    "name": "Chemist Warehouse",
    "address": "142, Newmarket Road, Windsor, QLD, 4030",
    "latitude": -27.4370493,
    "longitude": 153.0270266,
    "source": "OpenStreetMap-verify",
    "suburb": "Windsor",
    "state": "QLD",
    "postcode": "4030"
  },
  {
    "id": 6868,
    "name": "Muchea Pharmacy",
    "address": "29, Edwards Place, Muchea, WA, 6501",
    "latitude": -31.5800048,
    "longitude": 115.9784501,
    "source": "OpenStreetMap-verify",
    "suburb": "Muchea",
    "state": "WA",
    "postcode": "6501"
  },
  {
    "id": 6883,
    "name": "TerryWhite Chemmart",
    "address": "1, Celebration Drive, Bella Vista, NSW",
    "latitude": -33.7328337,
    "longitude": 150.944354,
    "source": "OpenStreetMap-verify",
    "suburb": "Bella Vista",
    "state": "NSW",
    "postcode": ""
  },
  {
    "id": 6897,
    "name": "Red Hill Pharmacy",
    "address": "137 Red Hill Road, VIC",
    "latitude": -38.3824232,
    "longitude": 145.0233457,
    "source": "OpenStreetMap-verify",
    "suburb": "",
    "state": "VIC",
    "postcode": ""
  },
  {
    "id": 6899,
    "name": "Cresthaven Pharmacy",
    "address": "26, Aminya Street, Mansfield, QLD, 4122",
    "latitude": -27.5391669,
    "longitude": 153.0991061,
    "source": "OpenStreetMap-verify",
    "suburb": "Mansfield",
    "state": "QLD",
    "postcode": "4122"
  },
  {
    "id": 6903,
    "name": "Darlington Pharmacy 777",
    "address": "62A, Seacombe Road, SA",
    "latitude": -35.0288181,
    "longitude": 138.5507289,
    "source": "OpenStreetMap-verify",
    "suburb": "",
    "state": "SA",
    "postcode": ""
  },
  {
    "id": 6914,
    "name": "Chemist Warehouse",
    "address": "622, Burwood Highway, Knoxfield, VIC, 3180",
    "latitude": -37.8763371,
    "longitude": 145.2560656,
    "source": "OpenStreetMap-verify",
    "suburb": "Knoxfield",
    "state": "VIC",
    "postcode": "3180"
  },
  {
    "id": 6915,
    "name": "Chemist Warehouse",
    "address": "695-699, Warrigal Road, VIC",
    "latitude": -37.8797862,
    "longitude": 145.0923641,
    "source": "OpenStreetMap-verify",
    "suburb": "",
    "state": "VIC",
    "postcode": ""
  },
  {
    "id": 6918,
    "name": "Chemist Warehouse",
    "address": "135, McEvoy Street, NSW",
    "latitude": -33.9022414,
    "longitude": 151.1964745,
    "source": "OpenStreetMap-verify",
    "suburb": "",
    "state": "NSW",
    "postcode": ""
  },
  {
    "id": 6922,
    "name": "Chemist Warehouse",
    "address": "121, High Street, Kew, VIC, 3101",
    "latitude": -37.8070304,
    "longitude": 145.0294548,
    "source": "OpenStreetMap-verify",
    "suburb": "Kew",
    "state": "VIC",
    "postcode": "3101"
  },
  {
    "id": 6928,
    "name": "Chemist Warehouse",
    "address": "New Lake Entrance Road, Shellharbour City Centre, NSW, 2529",
    "latitude": -34.5663083,
    "longitude": 150.8292928,
    "source": "OpenStreetMap-verify",
    "suburb": "Shellharbour City Centre",
    "state": "NSW",
    "postcode": "2529"
  },
  {
    "id": 6930,
    "name": "Chemist Warehouse",
    "address": "19, Ryrie Street, VIC",
    "latitude": -38.1473359,
    "longitude": 144.3538377,
    "source": "OpenStreetMap-verify",
    "suburb": "",
    "state": "VIC",
    "postcode": ""
  },
  {
    "id": 6931,
    "name": "Amcal",
    "address": "99, Vines Road, VIC",
    "latitude": -38.1207361,
    "longitude": 144.3285198,
    "source": "OpenStreetMap-verify",
    "suburb": "",
    "state": "VIC",
    "postcode": ""
  },
  {
    "id": 6936,
    "name": "PharmaSave",
    "address": "115A, Nepean Highway, VIC",
    "latitude": -38.10253,
    "longitude": 145.1262196,
    "source": "OpenStreetMap-verify",
    "suburb": "",
    "state": "VIC",
    "postcode": ""
  },
  {
    "id": 6937,
    "name": "Priceline Pharmacy",
    "address": "210, Swan Street, VIC",
    "latitude": -37.825778,
    "longitude": 144.9965433,
    "source": "OpenStreetMap-verify",
    "suburb": "",
    "state": "VIC",
    "postcode": ""
  },
  {
    "id": 6940,
    "name": "Chemist Warehouse",
    "address": "18, Orange Grove Road, NSW",
    "latitude": -33.9085171,
    "longitude": 150.919601,
    "source": "OpenStreetMap-verify",
    "suburb": "",
    "state": "NSW",
    "postcode": ""
  },
  {
    "id": 6941,
    "name": "Allora Pharmacy",
    "address": "42, Herbert Street, Allora, QLD, 4362",
    "latitude": -28.0350781,
    "longitude": 151.9826135,
    "source": "OpenStreetMap-verify",
    "suburb": "Allora",
    "state": "QLD",
    "postcode": "4362"
  },
  {
    "id": 6949,
    "name": "Waitara Pharmacy",
    "address": "12, Waitara Avenue, NSW",
    "latitude": -33.7108214,
    "longitude": 151.1050707,
    "source": "OpenStreetMap-verify",
    "suburb": "",
    "state": "NSW",
    "postcode": ""
  },
  {
    "id": 6951,
    "name": "Shulman & Stephens Pharmacy",
    "address": "732, Riversdale Road, Camberwell, VIC, 3124",
    "latitude": -37.8338562,
    "longitude": 145.0765105,
    "source": "OpenStreetMap-verify",
    "suburb": "Camberwell",
    "state": "VIC",
    "postcode": "3124"
  },
  {
    "id": 6952,
    "name": "National Pharmacies Kensington Park",
    "address": "392, Magill Road, Kensington Park, SA, 5068",
    "latitude": -34.9141997,
    "longitude": 138.6567367,
    "source": "OpenStreetMap-verify",
    "suburb": "Kensington Park",
    "state": "SA",
    "postcode": "5068"
  },
  {
    "id": 6953,
    "name": "Clifton Pharmacy",
    "address": "69, King Street, Clifton, QLD, 4361",
    "latitude": -27.9304328,
    "longitude": 151.9055973,
    "source": "OpenStreetMap-verify",
    "suburb": "Clifton",
    "state": "QLD",
    "postcode": "4361"
  },
  {
    "id": 6960,
    "name": "Tongala Pharmacy",
    "address": "46, Mangan Street, Tongala, NSW, 3621",
    "latitude": -36.2517736,
    "longitude": 144.9527839,
    "source": "OpenStreetMap-verify",
    "suburb": "Tongala",
    "state": "NSW",
    "postcode": "3621"
  },
  {
    "id": 6969,
    "name": "Moreland Discount Chemist",
    "address": "249-251, Melville Road, VIC",
    "latitude": -37.7533896,
    "longitude": 144.9455343,
    "source": "OpenStreetMap-verify",
    "suburb": "",
    "state": "VIC",
    "postcode": ""
  },
  {
    "id": 6970,
    "name": "Quilpie Pharmacy",
    "address": "28, Brolga Street, Quilpie, QLD, 4480",
    "latitude": -26.613654,
    "longitude": 144.2703999,
    "source": "OpenStreetMap-verify",
    "suburb": "Quilpie",
    "state": "QLD",
    "postcode": "4480"
  },
  {
    "id": 6972,
    "name": "Lucinda Pharmacy",
    "address": "349, Somerville Road, VIC",
    "latitude": -37.8114662,
    "longitude": 144.8704244,
    "source": "OpenStreetMap-verify",
    "suburb": "",
    "state": "VIC",
    "postcode": ""
  },
  {
    "id": 6976,
    "name": "Unknown Pharmacy",
    "address": "282A, Huntingdale Road, VIC",
    "latitude": -37.9090784,
    "longitude": 145.1042531,
    "source": "OpenStreetMap-verify",
    "suburb": "",
    "state": "VIC",
    "postcode": ""
  },
  {
    "id": 6977,
    "name": "Huntingdale Pharmacy",
    "address": "294, Huntingdale Road, VIC",
    "latitude": -37.9102074,
    "longitude": 145.1039911,
    "source": "OpenStreetMap-verify",
    "suburb": "",
    "state": "VIC",
    "postcode": ""
  },
  {
    "id": 6980,
    "name": "Community Pharmacy East Bentleigh",
    "address": "773-779, Centre Road, VIC",
    "latitude": -37.9207885,
    "longitude": 145.0579721,
    "source": "OpenStreetMap-verify",
    "suburb": "",
    "state": "VIC",
    "postcode": ""
  },
  {
    "id": 6981,
    "name": "Edithvale Pharmacy",
    "address": "240, Nepean Highway, VIC, 3196",
    "latitude": -38.0368399,
    "longitude": 145.1071711,
    "source": "OpenStreetMap-verify",
    "suburb": "",
    "state": "VIC",
    "postcode": "3196"
  },
  {
    "id": 6984,
    "name": "Chemist Warehouse",
    "address": "68, Ipswich Road, QLD",
    "latitude": -27.4902264,
    "longitude": 153.0358975,
    "source": "OpenStreetMap-verify",
    "suburb": "",
    "state": "QLD",
    "postcode": ""
  },
  {
    "id": 6992,
    "name": "Forrestfield Pharmacy",
    "address": "76, Hale Road, Forrestfield, WA, 6058",
    "latitude": -31.9889588,
    "longitude": 116.0086836,
    "source": "OpenStreetMap-verify",
    "suburb": "Forrestfield",
    "state": "WA",
    "postcode": "6058"
  },
  {
    "id": 6994,
    "name": "Crows Nest Pharmacy",
    "address": "3, Toowoomba Road, Crows Nest, QLD, 4355",
    "latitude": -27.2625017,
    "longitude": 152.0554095,
    "source": "OpenStreetMap-verify",
    "suburb": "Crows Nest",
    "state": "QLD",
    "postcode": "4355"
  },
  {
    "id": 7006,
    "name": "Park Orchards Pharmacy",
    "address": "596, Park Road, Park Orchards, VIC, 3114",
    "latitude": -37.7791726,
    "longitude": 145.2172488,
    "source": "OpenStreetMap-verify",
    "suburb": "Park Orchards",
    "state": "VIC",
    "postcode": "3114"
  },
  {
    "id": 7009,
    "name": "Pharmacy 4 Less",
    "address": "222, Anakie Road, Bell Park, VIC, 3215",
    "latitude": -38.0971215,
    "longitude": 144.3350034,
    "source": "OpenStreetMap-verify",
    "suburb": "Bell Park",
    "state": "VIC",
    "postcode": "3215"
  },
  {
    "id": 7012,
    "name": "Brighton Health Pharmacy",
    "address": "33, Church Street, VIC",
    "latitude": -37.9099646,
    "longitude": 144.9980723,
    "source": "OpenStreetMap-verify",
    "suburb": "",
    "state": "VIC",
    "postcode": ""
  },
  {
    "id": 7015,
    "name": "Peak Hill Pharmacy",
    "address": "80, Caswell Street, Peak Hill, NSW, 2869",
    "latitude": -32.7245249,
    "longitude": 148.1907674,
    "source": "OpenStreetMap-verify",
    "suburb": "Peak Hill",
    "state": "NSW",
    "postcode": "2869"
  },
  {
    "id": 7018,
    "name": "Unknown Pharmacy",
    "address": "619-621A, Burwood Road, VIC",
    "latitude": -37.8264594,
    "longitude": 145.1149955,
    "source": "OpenStreetMap-verify",
    "suburb": "",
    "state": "VIC",
    "postcode": ""
  },
  {
    "id": 7020,
    "name": "TerryWhite Chemmart",
    "address": "42, Station Street, Ferntree Gully, VIC, 3156",
    "latitude": -37.8834544,
    "longitude": 145.2956122,
    "source": "OpenStreetMap-verify",
    "suburb": "Ferntree Gully",
    "state": "VIC",
    "postcode": "3156"
  },
  {
    "id": 7024,
    "name": "Chemist Warehouse",
    "address": "1915, Gympie Road, Bald Hills, QLD, 4036",
    "latitude": -27.3336882,
    "longitude": 153.0102822,
    "source": "OpenStreetMap-verify",
    "suburb": "Bald Hills",
    "state": "QLD",
    "postcode": "4036"
  },
  {
    "id": 7026,
    "name": "Little Bay Pharmacy",
    "address": "1405, Anzac Parade, Little Bay, NSW, 2036",
    "latitude": -33.9795996,
    "longitude": 151.2444168,
    "source": "OpenStreetMap-verify",
    "suburb": "Little Bay",
    "state": "NSW",
    "postcode": "2036"
  },
  {
    "id": 7029,
    "name": "BL Butcher Pharmacy",
    "address": "101, Willsmere Road, Kew, VIC, 3101",
    "latitude": -37.7955304,
    "longitude": 145.0359021,
    "source": "OpenStreetMap-verify",
    "suburb": "Kew",
    "state": "VIC",
    "postcode": "3101"
  },
  {
    "id": 7032,
    "name": "ScriptRITE Pharmacy",
    "address": "299, Sandgate Road, Albion, QLD, 4010",
    "latitude": -27.4298313,
    "longitude": 153.0419974,
    "source": "OpenStreetMap-verify",
    "suburb": "Albion",
    "state": "QLD",
    "postcode": "4010"
  },
  {
    "id": 7034,
    "name": "Chemist Warehouse",
    "address": "212-220, Greenvale Drive, Greenvale, VIC, 3059",
    "latitude": -37.6505131,
    "longitude": 144.8959081,
    "source": "OpenStreetMap-verify",
    "suburb": "Greenvale",
    "state": "VIC",
    "postcode": "3059"
  },
  {
    "id": 7035,
    "name": "PharmaSave",
    "address": "34C, Brady Road, Dandenong North, VIC, 3175",
    "latitude": -37.9542705,
    "longitude": 145.2121142,
    "source": "OpenStreetMap-verify",
    "suburb": "Dandenong North",
    "state": "VIC",
    "postcode": "3175"
  },
  {
    "id": 7036,
    "name": "The Compounding Lab",
    "address": "45, Crosby Road, Albion, QLD, 4010",
    "latitude": -27.4326011,
    "longitude": 153.0452751,
    "source": "OpenStreetMap-verify",
    "suburb": "Albion",
    "state": "QLD",
    "postcode": "4010"
  },
  {
    "id": 7037,
    "name": "PharmaSave",
    "address": "28-29, Ferntree Gully Road, Ferntree Gully, VIC, 3156",
    "latitude": -37.8840866,
    "longitude": 145.2755203,
    "source": "OpenStreetMap-verify",
    "suburb": "Ferntree Gully",
    "state": "VIC",
    "postcode": "3156"
  },
  {
    "id": 7040,
    "name": "Port Vincent Pharmacy",
    "address": "4b, Main Street, Port Vincent, SA, 5581",
    "latitude": -34.7775529,
    "longitude": 137.860742,
    "source": "OpenStreetMap-verify",
    "suburb": "Port Vincent",
    "state": "SA",
    "postcode": "5581"
  },
  {
    "id": 7042,
    "name": "Chemist Warehouse",
    "address": "1015, Burwood Highway, Ferntree Gully, VIC, 3156",
    "latitude": -37.8880892,
    "longitude": 145.2900115,
    "source": "OpenStreetMap-verify",
    "suburb": "Ferntree Gully",
    "state": "VIC",
    "postcode": "3156"
  },
  {
    "id": 7043,
    "name": "Bell Care Pharmacy",
    "address": "3, Ensor Street, Bell, QLD, 4408",
    "latitude": -26.9319517,
    "longitude": 151.4494869,
    "source": "OpenStreetMap-verify",
    "suburb": "Bell",
    "state": "QLD",
    "postcode": "4408"
  },
  {
    "id": 7044,
    "name": "Colac Pharmacy",
    "address": "327, Murray Street, VIC",
    "latitude": -38.3381543,
    "longitude": 143.5774349,
    "source": "OpenStreetMap-verify",
    "suburb": "",
    "state": "VIC",
    "postcode": ""
  },
  {
    "id": 7045,
    "name": "Amcal",
    "address": "203, Stud Road, Wantirna South, VIC, 3152",
    "latitude": -37.8596424,
    "longitude": 145.2407501,
    "source": "OpenStreetMap-verify",
    "suburb": "Wantirna South",
    "state": "VIC",
    "postcode": "3152"
  },
  {
    "id": 7047,
    "name": "Chemist Warehouse",
    "address": "329, Hampstead Road, Northfield, SA, 5085",
    "latitude": -34.8516545,
    "longitude": 138.6180113,
    "source": "OpenStreetMap-verify",
    "suburb": "Northfield",
    "state": "SA",
    "postcode": "5085"
  },
  {
    "id": 7048,
    "name": "Pharmacia - Eidsvold Pharmacy",
    "address": "34, Moreton Street, Eidsvold, QLD, 4627",
    "latitude": -25.3697651,
    "longitude": 151.1220186,
    "source": "OpenStreetMap-verify",
    "suburb": "Eidsvold",
    "state": "QLD",
    "postcode": "4627"
  },
  {
    "id": 7052,
    "name": "Evandale Pharmacy",
    "address": "8A High Street, EVANDALE, TAS, 7212",
    "latitude": -41.56942836,
    "longitude": 147.24636952,
    "source": "healthdirect.gov.au",
    "suburb": "EVANDALE",
    "state": "TAS",
    "postcode": "7212"
  },
  {
    "id": 7057,
    "name": "Chemist Warehouse Strathfield Plaza",
    "address": "Shops 17-18, Strathfield Plaza, Strathfield, NSW, 2135",
    "latitude": -33.8728664,
    "longitude": 151.0934478,
    "source": "chemistwarehouse.com.au",
    "suburb": "Strathfield",
    "state": "NSW",
    "postcode": "2135"
  },
  {
    "id": 7059,
    "name": "Chemist Warehouse Ermington",
    "address": "Shops 7, 9 & 10, 2 Marsden Road, Ermington, NSW, 2115",
    "latitude": -33.806892,
    "longitude": 151.070019,
    "source": "chemistwarehouse.com.au",
    "suburb": "Ermington",
    "state": "NSW",
    "postcode": "2115"
  },
  {
    "id": 7061,
    "name": "Chemist Warehouse Bankstown Home Co",
    "address": "Shop 8, Home Co Bankstown, Bankstown, NSW, 2200",
    "latitude": -33.932059,
    "longitude": 151.029676,
    "source": "chemistwarehouse.com.au",
    "suburb": "Bankstown",
    "state": "NSW",
    "postcode": "2200"
  },
  {
    "id": 7063,
    "name": "Chemist Warehouse Castle Towers",
    "address": "Shop MM1202 Castle Towers SC 6 to 14 Castle Street, Castle Hill, NSW, 2154",
    "latitude": -33.7303,
    "longitude": 151.006,
    "source": "chemistwarehouse.com.au",
    "suburb": "Castle Hill",
    "state": "NSW",
    "postcode": "2154"
  },
  {
    "id": 7072,
    "name": "Chemist Warehouse Queanbeyan",
    "address": "Sh 3 6 Bungendore Rd, Queanbeyan, NSW, 2620",
    "latitude": -35.3393,
    "longitude": 149.244,
    "source": "chemistwarehouse.com.au",
    "suburb": "Queanbeyan",
    "state": "NSW",
    "postcode": "2620"
  },
  {
    "id": 7073,
    "name": "Chemist Warehouse Lismore",
    "address": "Shop 1   799 Ballina Rd, Goonellabah, NSW, 2480",
    "latitude": -28.8122,
    "longitude": 153.347,
    "source": "chemistwarehouse.com.au",
    "suburb": "Goonellabah",
    "state": "NSW",
    "postcode": "2480"
  },
  {
    "id": 7074,
    "name": "Chemist Warehouse Spencer Outlet Centre",
    "address": "Sh MM2 201 Spencer St, Docklands, VIC, 3008",
    "latitude": -37.8163,
    "longitude": 144.953,
    "source": "chemistwarehouse.com.au",
    "suburb": "Docklands",
    "state": "VIC",
    "postcode": "3008"
  },
  {
    "id": 7080,
    "name": "Chemist Warehouse Armadale",
    "address": "Unit 1, 1097 - 1111 High Street, Armadale, VIC, 3143",
    "latitude": -37.85569479999999,
    "longitude": 145.0244436,
    "source": "chemistwarehouse.com.au",
    "suburb": "Armadale",
    "state": "VIC",
    "postcode": "3143"
  },
  {
    "id": 7081,
    "name": "Chemist Warehouse Hawthorn East - Home Co.",
    "address": "Tenancy T5 740 to 742 Toorak Road, Hawthorn East, VIC, 3123",
    "latitude": -37.8452,
    "longitude": 145.041,
    "source": "chemistwarehouse.com.au",
    "suburb": "Hawthorn East",
    "state": "VIC",
    "postcode": "3123"
  },
  {
    "id": 7084,
    "name": "Chemist Warehouse Preston - Home Co. DC",
    "address": "Tenancy T08 85 Chifley Drive, Preston, VIC, 3072",
    "latitude": -37.7435,
    "longitude": 145.03,
    "source": "chemistwarehouse.com.au",
    "suburb": "Preston",
    "state": "VIC",
    "postcode": "3072"
  },
  {
    "id": 7085,
    "name": "Chemist Warehouse Essendon DFO",
    "address": "Shop 00006, Homemaker Hub Essendon Airport, Essendon Fields, VIC, 3041",
    "latitude": -37.7321483,
    "longitude": 144.9099392,
    "source": "chemistwarehouse.com.au",
    "suburb": "Essendon Fields",
    "state": "VIC",
    "postcode": "3041"
  },
  {
    "id": 7086,
    "name": "Chemist Warehouse Altona Gate Shopping Centre",
    "address": "Shop G7  Altona Gate Shopping Centre  124 to 134 Millers Rd, Altona, VIC, 3025",
    "latitude": -37.8276,
    "longitude": 144.849,
    "source": "chemistwarehouse.com.au",
    "suburb": "Altona",
    "state": "VIC",
    "postcode": "3025"
  },
  {
    "id": 7088,
    "name": "Chemist Warehouse Braybrook Home Co",
    "address": "3A&3B Crn Ballarat Rd (Western Hwy) Burke & Butler St, Braybrook, VIC, 3019",
    "latitude": -37.7779,
    "longitude": 144.85,
    "source": "chemistwarehouse.com.au",
    "suburb": "Braybrook",
    "state": "VIC",
    "postcode": "3019"
  },
  {
    "id": 7091,
    "name": "Chemist Warehouse Reservoir Central S/C",
    "address": "Shop 18, Reservoir Central Shopping Centre, Reservoir, VIC, 3073",
    "latitude": -37.7257248,
    "longitude": 145.0268599,
    "source": "chemistwarehouse.com.au",
    "suburb": "Reservoir",
    "state": "VIC",
    "postcode": "3073"
  },
  {
    "id": 7093,
    "name": "Chemist Warehouse Burwood VIC",
    "address": "1424 Toorak Rd, Camberwell, VIC, 3124",
    "latitude": -37.8505917,
    "longitude": 145.0951495,
    "source": "chemistwarehouse.com.au",
    "suburb": "Camberwell",
    "state": "VIC",
    "postcode": "3124"
  },
  {
    "id": 7096,
    "name": "Chemist Warehouse Broadmeadows",
    "address": "Shop G057, Broadmeadows Central 1099-1169 Pascoe Vale Road, Broadmeadows, VIC, 3047",
    "latitude": -37.680215,
    "longitude": 144.919454,
    "source": "chemistwarehouse.com.au",
    "suburb": "Broadmeadows",
    "state": "VIC",
    "postcode": "3047"
  },
  {
    "id": 7097,
    "name": "Chemist Warehouse Thomastown",
    "address": "239-243, Thomastown, VIC, 3074",
    "latitude": -37.6791518,
    "longitude": 145.0137623,
    "source": "chemistwarehouse.com.au",
    "suburb": "Thomastown",
    "state": "VIC",
    "postcode": "3074"
  },
  {
    "id": 7098,
    "name": "Chemist Warehouse Box Hill South - Home Co. DC",
    "address": "Tenancy 5, Box Hill South, VIC, 3128",
    "latitude": -37.8377098,
    "longitude": 145.1347834,
    "source": "chemistwarehouse.com.au",
    "suburb": "Box Hill South",
    "state": "VIC",
    "postcode": "3128"
  },
  {
    "id": 7099,
    "name": "Chemist Warehouse Central South Morang SC",
    "address": "Shop 2.4 Central South Morang Shopping Centre 330 to 342 McDonalds Road, South Morang, VIC, 3752",
    "latitude": -37.649529,
    "longitude": 145.07382,
    "source": "chemistwarehouse.com.au",
    "suburb": "South Morang",
    "state": "VIC",
    "postcode": "3752"
  },
  {
    "id": 7100,
    "name": "Chemist Warehouse Glen Waverley - Kingsway",
    "address": "Ground Floor 113 115 Kingsway Glen Waverley VIC 3150, Glen Waverley, VIC, 3150",
    "latitude": -37.8805,
    "longitude": 145.164,
    "source": "chemistwarehouse.com.au",
    "suburb": "Glen Waverley",
    "state": "VIC",
    "postcode": "3150"
  },
  {
    "id": 7101,
    "name": "Chemist Warehouse Epping VIC",
    "address": "Shop 15 Dalton Village SC 371 Dalton Rd, Epping, VIC, 3076",
    "latitude": -37.6586,
    "longitude": 145.03,
    "source": "chemistwarehouse.com.au",
    "suburb": "Epping",
    "state": "VIC",
    "postcode": "3076"
  },
  {
    "id": 7105,
    "name": "Chemist Warehouse Springvale Mega Centre",
    "address": "Shop T08, Ouson Plaza, Springvale, VIC, 3171",
    "latitude": -37.9413687,
    "longitude": 145.1679082,
    "source": "chemistwarehouse.com.au",
    "suburb": "Springvale",
    "state": "VIC",
    "postcode": "3171"
  },
  {
    "id": 7107,
    "name": "Chemist Warehouse Kingston Central Plaza",
    "address": "Shop 17 Kingston Central Plaza 288 Centre Dandenong Road, Mentone, VIC, 3194",
    "latitude": -37.9711,
    "longitude": 145.092,
    "source": "chemistwarehouse.com.au",
    "suburb": "Mentone",
    "state": "VIC",
    "postcode": "3194"
  },
  {
    "id": 7108,
    "name": "Chemist Warehouse Moorabbin SC - Heatherton",
    "address": "Unit 8B, Moorabbin Super Centre,, Heatherton, VIC, 3202",
    "latitude": -37.94752769999999,
    "longitude": 145.0787833,
    "source": "chemistwarehouse.com.au",
    "suburb": "Heatherton",
    "state": "VIC",
    "postcode": "3202"
  },
  {
    "id": 7109,
    "name": "Chemist Warehouse Cranbourne Home Co",
    "address": "Shop T13, HomeCo Cranbourne, Cranbourne, VIC, 3977",
    "latitude": -38.084459,
    "longitude": 145.2790204,
    "source": "chemistwarehouse.com.au",
    "suburb": "Cranbourne",
    "state": "VIC",
    "postcode": "3977"
  },
  {
    "id": 7110,
    "name": "Chemist Warehouse Eve Central SC",
    "address": "Shop 11, Eve Central Shopping Centre, Cranbourne North, VIC, 3977",
    "latitude": -38.0727483,
    "longitude": 145.3162994,
    "source": "chemistwarehouse.com.au",
    "suburb": "Cranbourne North",
    "state": "VIC",
    "postcode": "3977"
  },
  {
    "id": 7111,
    "name": "Chemist Warehouse Craigieburn Junction",
    "address": "Building F Craigieburn Junction 420 to 440 Craigieburn Road, Craigieburn, VIC, 3064",
    "latitude": -37.58523,
    "longitude": 144.83945,
    "source": "chemistwarehouse.com.au",
    "suburb": "Craigieburn",
    "state": "VIC",
    "postcode": "3064"
  },
  {
    "id": 7112,
    "name": "Chemist Warehouse Merrifield City SC Mickleham",
    "address": "Shop MM02 Merrifield City Shopping Centre 250 to 270 Donnybrook Road, Mickleham, VIC, 3064",
    "latitude": -37.5372,
    "longitude": 144.92,
    "source": "chemistwarehouse.com.au",
    "suburb": "Mickleham",
    "state": "VIC",
    "postcode": "3064"
  },
  {
    "id": 7113,
    "name": "Chemist Warehouse Craigieburn",
    "address": "Shop 5 1 to 9 Mareeba Way, Craigieburn, VIC, 3064",
    "latitude": -37.583,
    "longitude": 144.92,
    "source": "chemistwarehouse.com.au",
    "suburb": "Craigieburn",
    "state": "VIC",
    "postcode": "3064"
  },
  {
    "id": 7114,
    "name": "Chemist Warehouse Kalkallo",
    "address": "Shop 20, Kallo Town Centre, Kalkallo, VIC, 3064",
    "latitude": -37.534748,
    "longitude": 144.9607092,
    "source": "chemistwarehouse.com.au",
    "suburb": "Kalkallo",
    "state": "VIC",
    "postcode": "3064"
  },
  {
    "id": 7115,
    "name": "Chemist Warehouse Roxburgh Park - Home Co.",
    "address": "T8 Home Co Roxburgh Park  1550 Pascoe Vale Road, Coolaroo, VIC, 3048",
    "latitude": -37.6457,
    "longitude": 144.93,
    "source": "chemistwarehouse.com.au",
    "suburb": "Coolaroo",
    "state": "VIC",
    "postcode": "3048"
  },
  {
    "id": 7116,
    "name": "Chemist Warehouse Caroline Springs Town Square",
    "address": "Shop L01 016, CS Square Centre, Caroline Springs, VIC, 3023",
    "latitude": -37.731494,
    "longitude": 144.7435,
    "source": "chemistwarehouse.com.au",
    "suburb": "Caroline Springs",
    "state": "VIC",
    "postcode": "3023"
  },
  {
    "id": 7122,
    "name": "Chemist Warehouse Ballarat Health Co.",
    "address": "T3, Ballarat Health Co,, Wendouree, VIC, 3355",
    "latitude": -37.533839,
    "longitude": 143.814944,
    "source": "chemistwarehouse.com.au",
    "suburb": "Wendouree",
    "state": "VIC",
    "postcode": "3355"
  },
  {
    "id": 7123,
    "name": "Chemist Warehouse Epsom Village",
    "address": "Shops 1 to 3 Epsom Village S/C 16 to 40 Howard St, Epsom, VIC, 3551",
    "latitude": -36.7051,
    "longitude": 144.316,
    "source": "chemistwarehouse.com.au",
    "suburb": "Epsom",
    "state": "VIC",
    "postcode": "3551"
  },
  {
    "id": 7124,
    "name": "Chemist Warehouse Shepparton North",
    "address": "127 Numurkah Road, Shepparton North, VIC, 3631",
    "latitude": -36.3572,
    "longitude": 145.402,
    "source": "chemistwarehouse.com.au",
    "suburb": "Shepparton North",
    "state": "VIC",
    "postcode": "3631"
  },
  {
    "id": 7125,
    "name": "Chemist Warehouse Riverside Plaza",
    "address": "Shop 14   8025 Goulburn Valley Highway, Kialla, VIC, 3631",
    "latitude": -36.4088,
    "longitude": 145.39,
    "source": "chemistwarehouse.com.au",
    "suburb": "Kialla",
    "state": "VIC",
    "postcode": "3631"
  },
  {
    "id": 7127,
    "name": "Chemist Warehouse Windsor Home Zone Centre",
    "address": "Shop 414 Home Zone Centre 142 Newmarket Road, Windsor, QLD, 4030",
    "latitude": -27.4382,
    "longitude": 153.024,
    "source": "chemistwarehouse.com.au",
    "suburb": "Windsor",
    "state": "QLD",
    "postcode": "4030"
  },
  {
    "id": 7132,
    "name": "Chemist Warehouse Rocklea",
    "address": "Unit 1, Building G, Brisbane Markets Commercial Centre, Rocklea, QLD, 4106",
    "latitude": -27.5338833,
    "longitude": 153.0007774,
    "source": "chemistwarehouse.com.au",
    "suburb": "Rocklea",
    "state": "QLD",
    "postcode": "4106"
  },
  {
    "id": 7133,
    "name": "Chemist Warehouse Jindalee Home Shopping Centre",
    "address": "Shop 30 Jindalee Home   34 Goggs Road, Jindalee, QLD, 4074",
    "latitude": -27.5349,
    "longitude": 152.949,
    "source": "chemistwarehouse.com.au",
    "suburb": "Jindalee",
    "state": "QLD",
    "postcode": "4074"
  },
  {
    "id": 7136,
    "name": "Chemist Warehouse Carseldine",
    "address": "Shop 3 4 1925 Gympie Rd, Bald Hills, QLD, 4036",
    "latitude": -27.3319,
    "longitude": 153.009,
    "source": "chemistwarehouse.com.au",
    "suburb": "Bald Hills",
    "state": "QLD",
    "postcode": "4036"
  },
  {
    "id": 7137,
    "name": "Chemist Warehouse Lawnton",
    "address": "Shop 1 718 Gympie Rd, Lawnton, QLD, 4501",
    "latitude": -27.2894,
    "longitude": 152.983,
    "source": "chemistwarehouse.com.au",
    "suburb": "Lawnton",
    "state": "QLD",
    "postcode": "4501"
  },
  {
    "id": 7138,
    "name": "Chemist Warehouse Crestmead",
    "address": "Sh15 to 16 Crestmead Central S/C 55 Waratah Drive, Crestmead, QLD, 4132",
    "latitude": -27.6853,
    "longitude": 153.091,
    "source": "chemistwarehouse.com.au",
    "suburb": "Crestmead",
    "state": "QLD",
    "postcode": "4132"
  },
  {
    "id": 7139,
    "name": "Chemist Warehouse Mango Hill",
    "address": "Tenancy T15, Building 4, Mango Hill Marketplace, Mango Hill, QLD, 4509",
    "latitude": -27.2417277,
    "longitude": 153.0255657,
    "source": "chemistwarehouse.com.au",
    "suburb": "Mango Hill",
    "state": "QLD",
    "postcode": "4509"
  },
  {
    "id": 7141,
    "name": "Chemist Warehouse Southport Brickworks Centre",
    "address": "Shop 7 107 Ferry Rd, Southport, QLD, 4215",
    "latitude": -27.9799,
    "longitude": 153.409,
    "source": "chemistwarehouse.com.au",
    "suburb": "Southport",
    "state": "QLD",
    "postcode": "4215"
  },
  {
    "id": 7142,
    "name": "Chemist Warehouse Helensvale",
    "address": "502 Hope Island RD, Helensvale, QLD, 4212",
    "latitude": -27.8871,
    "longitude": 153.318,
    "source": "chemistwarehouse.com.au",
    "suburb": "Helensvale",
    "state": "QLD",
    "postcode": "4212"
  },
  {
    "id": 7143,
    "name": "Chemist Warehouse Hope Island",
    "address": "Shops 7, 8, & 9/ 18-24 Broadwater Avenue, Hope Island, QLD, 4212",
    "latitude": -27.8784188,
    "longitude": 153.373149,
    "source": "chemistwarehouse.com.au",
    "suburb": "Hope Island",
    "state": "QLD",
    "postcode": "4212"
  },
  {
    "id": 7145,
    "name": "Chemist Warehouse Pimpama City Shopping Centre",
    "address": "Shop T10 Pimpama City Shopping Centre 102 Pimpama Jacobs Well Rd, Pimpama, QLD, 4209",
    "latitude": -27.8152,
    "longitude": 153.292,
    "source": "chemistwarehouse.com.au",
    "suburb": "Pimpama",
    "state": "QLD",
    "postcode": "4209"
  },
  {
    "id": 7146,
    "name": "Chemist Warehouse Varsity Lakes",
    "address": "Shop 10a Christine Corner 221 Christine Ave, Varsity Lakes, QLD, 4227",
    "latitude": -28.0843,
    "longitude": 153.415,
    "source": "chemistwarehouse.com.au",
    "suburb": "Varsity Lakes",
    "state": "QLD",
    "postcode": "4227"
  },
  {
    "id": 7147,
    "name": "Chemist Warehouse Currumbin Waters",
    "address": "BUILDING NO. 2, LEASE 2A, CURRUMBIN SERVICE CENTRE, 34-72 STEWART ROAD, CURRUMBIN WATERS, QLD, 4223",
    "latitude": -28.149388,
    "longitude": 153.470217,
    "source": "chemistwarehouse.com.au",
    "suburb": "CURRUMBIN WATERS",
    "state": "QLD",
    "postcode": "4223"
  },
  {
    "id": 7150,
    "name": "Chemist Warehouse Buderim",
    "address": "Shop 1 102 Wises Rd, Buderim, QLD, 4556",
    "latitude": -26.6711,
    "longitude": 153.084,
    "source": "chemistwarehouse.com.au",
    "suburb": "Buderim",
    "state": "QLD",
    "postcode": "4556"
  },
  {
    "id": 7151,
    "name": "Chemist Warehouse Forest Glen",
    "address": "Tenancy B1 Building 2  15 Grammar School Way, Forest Glen, QLD, 4556",
    "latitude": -26.687,
    "longitude": 153.008,
    "source": "chemistwarehouse.com.au",
    "suburb": "Forest Glen",
    "state": "QLD",
    "postcode": "4556"
  },
  {
    "id": 7152,
    "name": "Chemist Warehouse Bundaberg - Kensington SC",
    "address": "Tenancy 11, Kensington Shopping Centre,, Kensington, QLD, 4670",
    "latitude": -24.890758,
    "longitude": 152.320465,
    "source": "chemistwarehouse.com.au",
    "suburb": "Kensington",
    "state": "QLD",
    "postcode": "4670"
  },
  {
    "id": 7154,
    "name": "Chemist Warehouse North Rockhampton",
    "address": "2/1 Aquatic Place, North Rockhampton, QLD, 4701",
    "latitude": -23.3554,
    "longitude": 150.52,
    "source": "chemistwarehouse.com.au",
    "suburb": "North Rockhampton",
    "state": "QLD",
    "postcode": "4701"
  },
  {
    "id": 7157,
    "name": "Chemist Warehouse Bentley Village SC",
    "address": "Shop 15/96 McLaughlin Road, Bentley Park, QLD, 4869",
    "latitude": -17.0041,
    "longitude": 145.738,
    "source": "chemistwarehouse.com.au",
    "suburb": "Bentley Park",
    "state": "QLD",
    "postcode": "4869"
  },
  {
    "id": 7165,
    "name": "Chemist Warehouse Piara Waters",
    "address": "T7, Cnr Warton Road & Erade Drive, Piara Waters, WA, 6112",
    "latitude": -32.1170867,
    "longitude": 115.9143755,
    "source": "chemistwarehouse.com.au",
    "suburb": "Piara Waters",
    "state": "WA",
    "postcode": "6112"
  },
  {
    "id": 7166,
    "name": "Chemist Warehouse Southern River",
    "address": "Tenancy B 2.1 Southern River Square Shopping Centre Cnr Southern River Road and Holmes Street, Southern River, WA, 6110",
    "latitude": -32.10498,
    "longitude": 115.95911,
    "source": "chemistwarehouse.com.au",
    "suburb": "Southern River",
    "state": "WA",
    "postcode": "6110"
  },
  {
    "id": 7167,
    "name": "Chemist Warehouse Ellenbrook Home Co",
    "address": "Tenancy T8, HomeCo Ellenbrook, 151 The Promenade, Ellenbrook WA 6069, Ellenbrook, WA, 6069",
    "latitude": -31.7783295,
    "longitude": 115.9644997,
    "source": "chemistwarehouse.com.au",
    "suburb": "Ellenbrook",
    "state": "WA",
    "postcode": "6069"
  },
  {
    "id": 7168,
    "name": "Chemist Warehouse Joondalup - Home Co.",
    "address": "Tenancy T5   11 Injune Way, Joondalup, WA, 6027",
    "latitude": -31.7562,
    "longitude": 115.77,
    "source": "chemistwarehouse.com.au",
    "suburb": "Joondalup",
    "state": "WA",
    "postcode": "6027"
  },
  {
    "id": 7169,
    "name": "Chemist Warehouse Ashby",
    "address": "Tenancy T4 Ashby Village Shopping Centre   6 Hollosy Way, Ashby, WA, 6065",
    "latitude": -31.7321,
    "longitude": 115.803,
    "source": "chemistwarehouse.com.au",
    "suburb": "Ashby",
    "state": "WA",
    "postcode": "6065"
  },
  {
    "id": 7170,
    "name": "Chemist Warehouse Butler - Home Co.",
    "address": "Tenancy T6, Butler, WA, 6036",
    "latitude": -31.6383193,
    "longitude": 115.6927792,
    "source": "chemistwarehouse.com.au",
    "suburb": "Butler",
    "state": "WA",
    "postcode": "6036"
  },
  {
    "id": 7172,
    "name": "Chemist Warehouse Leda",
    "address": "Tenancy No 1 Stargate S/C 6 to 8 Feilman Drive, Leda, WA, 6170",
    "latitude": -32.2596,
    "longitude": 115.807,
    "source": "chemistwarehouse.com.au",
    "suburb": "Leda",
    "state": "WA",
    "postcode": "6170"
  },
  {
    "id": 7177,
    "name": "Chemist Warehouse Kilburn",
    "address": "400 Prospect Rd, Kilburn, SA, 5084",
    "latitude": -34.8635,
    "longitude": 138.592,
    "source": "chemistwarehouse.com.au",
    "suburb": "Kilburn",
    "state": "SA",
    "postcode": "5084"
  },
  {
    "id": 7178,
    "name": "Chemist Warehouse Harbourtown",
    "address": "SHOP T115 727 Tapleys Hill Rd, Adelaide Airport, SA, 5950",
    "latitude": -34.946,
    "longitude": 138.52,
    "source": "chemistwarehouse.com.au",
    "suburb": "Adelaide Airport",
    "state": "SA",
    "postcode": "5950"
  },
  {
    "id": 7179,
    "name": "Chemist Warehouse Athelstone",
    "address": "Shop 20 to 24 320 Gorge Road, Athelstone, SA, 5076",
    "latitude": -34.8714,
    "longitude": 138.701,
    "source": "chemistwarehouse.com.au",
    "suburb": "Athelstone",
    "state": "SA",
    "postcode": "5076"
  },
  {
    "id": 7181,
    "name": "Chemist Warehouse Elizabeth",
    "address": "MM03 Elizabeth City Centre 50 Elizabeth Way, Elizabeth, SA, 5112",
    "latitude": -34.7233,
    "longitude": 138.668,
    "source": "chemistwarehouse.com.au",
    "suburb": "Elizabeth",
    "state": "SA",
    "postcode": "5112"
  },
  {
    "id": 7182,
    "name": "Chemist Warehouse Moana",
    "address": "Shop 6 7 50 Babbacombe Dr, Moana, SA, 5169",
    "latitude": -35.2142,
    "longitude": 138.478,
    "source": "chemistwarehouse.com.au",
    "suburb": "Moana",
    "state": "SA",
    "postcode": "5169"
  },
  {
    "id": 7183,
    "name": "Chemist Warehouse Smithfield",
    "address": "Shop 93 to 94 Munno Para Shopping City 600 Main North Road, Smithfield, SA, 5114",
    "latitude": -34.6925,
    "longitude": 138.687,
    "source": "chemistwarehouse.com.au",
    "suburb": "Smithfield",
    "state": "SA",
    "postcode": "5114"
  },
  {
    "id": 7190,
    "name": "Chemist Warehouse Durack",
    "address": "Shop 7 & 8  130 University Avenue, Durack, NT, 830",
    "latitude": -12.4804,
    "longitude": 130.969,
    "source": "chemistwarehouse.com.au",
    "suburb": "Durack",
    "state": "NT",
    "postcode": "830"
  },
  {
    "id": 7192,
    "name": "Chemist Warehouse Majura Park SC",
    "address": "Shop 4 to 6 Majura Park SC 18 to 26 Spitfire Avenue, Majura, ACT, 2609",
    "latitude": -35.2994,
    "longitude": 149.191,
    "source": "chemistwarehouse.com.au",
    "suburb": "Majura",
    "state": "ACT",
    "postcode": "2609"
  },
  {
    "id": 7193,
    "name": "Chemist Warehouse Belconnen Markets - Ibbott Lane",
    "address": "LG5, Belconnen Markets, Belconnen, ACT, 2617",
    "latitude": -35.246217,
    "longitude": 149.064525,
    "source": "chemistwarehouse.com.au",
    "suburb": "Belconnen",
    "state": "ACT",
    "postcode": "2617"
  },
  {
    "id": 7194,
    "name": "Chemist Warehouse Fyshwick",
    "address": "Shop 1 and 2 17 Iron Knob St, Fyshwick, ACT, 2609",
    "latitude": -35.3367,
    "longitude": 149.182,
    "source": "chemistwarehouse.com.au",
    "suburb": "Fyshwick",
    "state": "ACT",
    "postcode": "2609"
  },
  {
    "id": 7195,
    "name": "TerryWhite Chemmart Jordan Springs",
    "address": "Shop 4, 65 Water Gum Drive, Jordan Springs, NSW, 2747",
    "latitude": -33.727878,
    "longitude": 150.725823,
    "source": "terrywhitechemmart.com.au",
    "suburb": "Jordan Springs",
    "state": "NSW",
    "postcode": "2747"
  },
  {
    "id": 7202,
    "name": "TerryWhite Chemmart Colac",
    "address": "T1A, Colac Plaza Shopping Centre, 66 Queen Street, Colac, VIC, 3250",
    "latitude": -38.34064,
    "longitude": 143.593204,
    "source": "terrywhitechemmart.com.au",
    "suburb": "Colac",
    "state": "VIC",
    "postcode": "3250"
  },
  {
    "id": 7204,
    "name": "TerryWhite Chemmart Ferntree Gully",
    "address": "6/42 Station Street, Ferntree Gully, VIC, 3156",
    "latitude": -37.882555,
    "longitude": 145.295037,
    "source": "terrywhitechemmart.com.au",
    "suburb": "Ferntree Gully",
    "state": "VIC",
    "postcode": "3156"
  },
  {
    "id": 7208,
    "name": "TerryWhite Chemmart Landmark",
    "address": "515 Cowpasture Road, Len Waters Estate, NSW, 2171",
    "latitude": -33.917487,
    "longitude": 150.854596,
    "source": "terrywhitechemmart.com.au",
    "suburb": "Len Waters Estate",
    "state": "NSW",
    "postcode": "2171"
  },
  {
    "id": 7211,
    "name": "TerryWhite Chemmart Roselands",
    "address": "1205 Canterbury Road, Wiley Park, NSW, 2195",
    "latitude": -33.93065,
    "longitude": 151.064934,
    "source": "terrywhitechemmart.com.au",
    "suburb": "Wiley Park",
    "state": "NSW",
    "postcode": "2195"
  },
  {
    "id": 7212,
    "name": "TerryWhite Chemmart Penneshaw Depot",
    "address": "12 Middle Terrace, Penneshaw, SA, 5222",
    "latitude": -35.718184,
    "longitude": 137.938054,
    "source": "terrywhitechemmart.com.au",
    "suburb": "Penneshaw",
    "state": "SA",
    "postcode": "5222"
  },
  {
    "id": 7216,
    "name": "TerryWhite Chemmart Kingsford Village",
    "address": "16, Kingsford Village Shopping Centre, Bullsbrook, WA, 6084",
    "latitude": -31.675363,
    "longitude": 116.032356,
    "source": "terrywhitechemmart.com.au",
    "suburb": "Bullsbrook",
    "state": "WA",
    "postcode": "6084"
  },
  {
    "id": 7219,
    "name": "TerryWhite Chemmart Urangan",
    "address": "The Place - Shop 3, 8-10 Pier Street, Urangan, QLD, 4655",
    "latitude": -25.284409,
    "longitude": 152.901871,
    "source": "terrywhitechemmart.com.au",
    "suburb": "Urangan",
    "state": "QLD",
    "postcode": "4655"
  },
  {
    "id": 7222,
    "name": "TerryWhite Chemmart Mt Druitt",
    "address": "1 Calala Street, Mount Druitt, NSW, 2770",
    "latitude": -33.762539,
    "longitude": 150.817526,
    "source": "terrywhitechemmart.com.au",
    "suburb": "Mount Druitt",
    "state": "NSW",
    "postcode": "2770"
  },
  {
    "id": 7223,
    "name": "TerryWhite Chemmart Erskine Park",
    "address": "Shop 13, Corner Swallow and Peppertree Drive, Erskine Park, NSW, 2759",
    "latitude": -33.803691,
    "longitude": 150.804067,
    "source": "terrywhitechemmart.com.au",
    "suburb": "Erskine Park",
    "state": "NSW",
    "postcode": "2759"
  },
  {
    "id": 7225,
    "name": "TerryWhite Chemmart Hurstville",
    "address": "Shop 7, 37-43 Forest Road, Hurstville, NSW, 2220",
    "latitude": -33.964602,
    "longitude": 151.111439,
    "source": "terrywhitechemmart.com.au",
    "suburb": "Hurstville",
    "state": "NSW",
    "postcode": "2220"
  },
  {
    "id": 7229,
    "name": "TerryWhite Chemmart Yunderup",
    "address": "Unit 3/126 Yunderup Road, South Yunderup, WA, 6208",
    "latitude": -32.584875,
    "longitude": 115.794338,
    "source": "terrywhitechemmart.com.au",
    "suburb": "South Yunderup",
    "state": "WA",
    "postcode": "6208"
  },
  {
    "id": 7233,
    "name": "TerryWhite Chemmart Bullsbrook",
    "address": "2529 Great Northern Highway, Bullsbrook, WA, 6084",
    "latitude": -31.672361,
    "longitude": 116.031327,
    "source": "terrywhitechemmart.com.au",
    "suburb": "Bullsbrook",
    "state": "WA",
    "postcode": "6084"
  },
  {
    "id": 7242,
    "name": "TerryWhite Chemmart Glenunga",
    "address": "Shop 7, 535-561 Portrush Road, Glenunga, SA, 5064",
    "latitude": -34.948847,
    "longitude": 138.64306,
    "source": "terrywhitechemmart.com.au",
    "suburb": "Glenunga",
    "state": "SA",
    "postcode": "5064"
  },
  {
    "id": 7248,
    "name": "TerryWhite Chemmart Toowoomba Medical",
    "address": "Shop 1, 261 James Street, Newtown, QLD, 4350",
    "latitude": -27.56722,
    "longitude": 151.94153,
    "source": "terrywhitechemmart.com.au",
    "suburb": "Newtown",
    "state": "QLD",
    "postcode": "4350"
  },
  {
    "id": 7254,
    "name": "TerryWhite Chemmart Caroline Springs",
    "address": "Unit 1, 173 Caroline Springs Boulevard, Caroline Springs, VIC, 3023",
    "latitude": -37.735383,
    "longitude": 144.740537,
    "source": "terrywhitechemmart.com.au",
    "suburb": "Caroline Springs",
    "state": "VIC",
    "postcode": "3023"
  },
  {
    "id": 7269,
    "name": "TerryWhite Chemmart Willowdale Compounding",
    "address": "8/5 Willowdale Drive, Denham Court, NSW, 2565",
    "latitude": -33.977346,
    "longitude": 150.811856,
    "source": "terrywhitechemmart.com.au",
    "suburb": "Denham Court",
    "state": "NSW",
    "postcode": "2565"
  },
  {
    "id": 7271,
    "name": "TerryWhite Chemmart Portside Wharf",
    "address": "Shop 903 & 904, Portside Wharf, 39 Hercules Street, Hamilton, QLD, 4007",
    "latitude": -27.440796,
    "longitude": 153.068754,
    "source": "terrywhitechemmart.com.au",
    "suburb": "Hamilton",
    "state": "QLD",
    "postcode": "4007"
  },
  {
    "id": 7272,
    "name": "TerryWhite Chemmart Manly",
    "address": "10 Manly Road, Manly, QLD, 4179",
    "latitude": -27.458269,
    "longitude": 153.178045,
    "source": "terrywhitechemmart.com.au",
    "suburb": "Manly",
    "state": "QLD",
    "postcode": "4179"
  },
  {
    "id": 7276,
    "name": "TerryWhite Chemmart Mountain Gate (Transitioning)",
    "address": "Shop 26, Mountain Gate Shopping Centre, 1880 Ferntree Gully Road, Ferntree Gully, VIC, 3156",
    "latitude": -37.883457,
    "longitude": 145.273956,
    "source": "terrywhitechemmart.com.au",
    "suburb": "Ferntree Gully",
    "state": "VIC",
    "postcode": "3156"
  },
  {
    "id": 7280,
    "name": "TerryWhite Chemmart Bexley North",
    "address": "Shop 5, 8-20 Sarsfield Circuit, Bexley North, NSW, 2207",
    "latitude": -33.939156,
    "longitude": 151.115085,
    "source": "terrywhitechemmart.com.au",
    "suburb": "Bexley North",
    "state": "NSW",
    "postcode": "2207"
  },
  {
    "id": 7282,
    "name": "TerryWhite Chemmart Pascoe Vale",
    "address": "96 Cumberland Road, Pascoe Vale, VIC, 3044",
    "latitude": -37.731165,
    "longitude": 144.938522,
    "source": "terrywhitechemmart.com.au",
    "suburb": "Pascoe Vale",
    "state": "VIC",
    "postcode": "3044"
  },
  {
    "id": 7284,
    "name": "TerryWhite Chemmart Chinatown",
    "address": "China Town, Central Market, 61 Grote Street, Adelaide, SA, 5000",
    "latitude": -34.929522,
    "longitude": 138.597283,
    "source": "terrywhitechemmart.com.au",
    "suburb": "Adelaide",
    "state": "SA",
    "postcode": "5000"
  },
  {
    "id": 7286,
    "name": "TerryWhite Chemmart Bringelly",
    "address": "Shop 1, 45-51 Wentworth Road, Bringelly, NSW, 2556",
    "latitude": -33.94103,
    "longitude": 150.731117,
    "source": "terrywhitechemmart.com.au",
    "suburb": "Bringelly",
    "state": "NSW",
    "postcode": "2556"
  },
  {
    "id": 7288,
    "name": "TerryWhite Chemmart Five Dock",
    "address": "108 Lyons Road West, Five Dock, NSW, 2046",
    "latitude": -33.857051,
    "longitude": 151.145482,
    "source": "terrywhitechemmart.com.au",
    "suburb": "Five Dock",
    "state": "NSW",
    "postcode": "2046"
  },
  {
    "id": 7293,
    "name": "TerryWhite Chemmart Bindoon",
    "address": "25 Binda Place, Bindoon, WA, 6502",
    "latitude": -31.383721,
    "longitude": 116.095147,
    "source": "terrywhitechemmart.com.au",
    "suburb": "Bindoon",
    "state": "WA",
    "postcode": "6502"
  },
  {
    "id": 7294,
    "name": "TerryWhite Chemmart South Plympton",
    "address": "531 Marion Road, South Plympton, SA, 5038",
    "latitude": -34.976872,
    "longitude": 138.555765,
    "source": "terrywhitechemmart.com.au",
    "suburb": "South Plympton",
    "state": "SA",
    "postcode": "5038"
  },
  {
    "id": 7297,
    "name": "TerryWhite Chemmart Wilberforce",
    "address": "Shop 6& 7, Wilberforce Centra, King Road, Wilberforce, NSW, 2756",
    "latitude": -33.561406,
    "longitude": 150.84021,
    "source": "terrywhitechemmart.com.au",
    "suburb": "Wilberforce",
    "state": "NSW",
    "postcode": "2756"
  },
  {
    "id": 7299,
    "name": "TerryWhite Chemmart Shearwater Village (Transitioning)",
    "address": "Shop 3, 1-3 Club Drive, Shearwater, TAS, 7307",
    "latitude": -41.160313,
    "longitude": 146.540624,
    "source": "terrywhitechemmart.com.au",
    "suburb": "Shearwater",
    "state": "TAS",
    "postcode": "7307"
  },
  {
    "id": 7301,
    "name": "TerryWhite Chemmart Delroy",
    "address": "Shop 15, Delroy Park Shopping Centre, Dubbo, NSW, 2830",
    "latitude": -32.254137,
    "longitude": 148.57762,
    "source": "terrywhitechemmart.com.au",
    "suburb": "Dubbo",
    "state": "NSW",
    "postcode": "2830"
  },
  {
    "id": 7306,
    "name": "TerryWhite Chemmart Woodlea",
    "address": "Shop T14, 2 Lim Way, Aintree, VIC, 3336",
    "latitude": -37.721529,
    "longitude": 144.662547,
    "source": "terrywhitechemmart.com.au",
    "suburb": "Aintree",
    "state": "VIC",
    "postcode": "3336"
  },
  {
    "id": 7309,
    "name": "TerryWhite Chemmart Sans Souci",
    "address": "Shops G6 & G10, 524-544 Rocky Point Road, Sans Souci, NSW, 2219",
    "latitude": -33.993333,
    "longitude": 151.131511,
    "source": "terrywhitechemmart.com.au",
    "suburb": "Sans Souci",
    "state": "NSW",
    "postcode": "2219"
  },
  {
    "id": 7310,
    "name": "Priceline Airport West",
    "address": "SHOP 126, WESTFIELD AIRPORT WEST, 29-35 LOUIS STREET, AIRPORT WEST, VIC, 3042",
    "latitude": -37.7166429,
    "longitude": 144.888162,
    "source": "priceline.com.au",
    "suburb": "AIRPORT WEST",
    "state": "VIC",
    "postcode": "3042"
  },
  {
    "id": 7311,
    "name": "Priceline Albany",
    "address": "SHOP 1, DOG ROCK BOULEVARDE SHOPPING CENTRE, MIDDLETON ROAD, ALBANY, WA, 6330",
    "latitude": -34.9754734,
    "longitude": 117.8780275,
    "source": "priceline.com.au",
    "suburb": "ALBANY",
    "state": "WA",
    "postcode": "6330"
  },
  {
    "id": 7312,
    "name": "Priceline Altona",
    "address": "SHOP L012, ALTONA GATE SHOPPING CENTRE, 124 MILLERS ROAD, ALTONA NORTH, VIC, 3025",
    "latitude": -37.8279869,
    "longitude": 144.8472447,
    "source": "priceline.com.au",
    "suburb": "ALTONA NORTH",
    "state": "VIC",
    "postcode": "3025"
  },
  {
    "id": 7313,
    "name": "Priceline Arndale",
    "address": "SHOP 92, ARMADA ARNDALE SHOPPING CENTRE, 470 TORRENS ROAD, KILKENNY, SA, 5009",
    "latitude": -34.87804,
    "longitude": 138.55298,
    "source": "priceline.com.au",
    "suburb": "KILKENNY",
    "state": "SA",
    "postcode": "5009"
  },
  {
    "id": 7314,
    "name": "Priceline Batemans Bay",
    "address": "SHOP G19-G21C, VILLAGE CENTRE, 1 PERRY STREET, BATEMANS BAY, NSW, 2536",
    "latitude": -35.6491178,
    "longitude": 150.0722053,
    "source": "priceline.com.au",
    "suburb": "BATEMANS BAY",
    "state": "NSW",
    "postcode": "2536"
  },
  {
    "id": 7316,
    "name": "Priceline Blacktown",
    "address": "SHOP 2042A, WESTPOINT SHOPPING CENTRE, 17 PATRICK STREET, BLACKTOWN, NSW, 2148",
    "latitude": -33.7632936,
    "longitude": 150.9365521,
    "source": "priceline.com.au",
    "suburb": "BLACKTOWN",
    "state": "NSW",
    "postcode": "2148"
  },
  {
    "id": 7321,
    "name": "Priceline Carousel",
    "address": "SHOP 1113, WESTFIELD CAROUSEL, 1382 ALBANY HIGHWAY, CANNINGTON, WA, 6107",
    "latitude": -32.0121014,
    "longitude": 115.9645378,
    "source": "priceline.com.au",
    "suburb": "CANNINGTON",
    "state": "WA",
    "postcode": "6107"
  },
  {
    "id": 7322,
    "name": "Priceline Colonnades",
    "address": "SHOP SP213, COLONNADES SHOPPING CENTRE, BEACH ROAD, NOARLUNGA, SA, 5168",
    "latitude": -35.1621961,
    "longitude": 138.5012206,
    "source": "priceline.com.au",
    "suburb": "NOARLUNGA",
    "state": "SA",
    "postcode": "5168"
  },
  {
    "id": 7323,
    "name": "Priceline Deer Park",
    "address": "SHOP T089, BRIMBANK CENTRAL SHOPPING CENTRE, CNR NEALE & STATION RDS, DEER PARK, VIC, 3023",
    "latitude": -37.74154,
    "longitude": 144.7063112,
    "source": "priceline.com.au",
    "suburb": "DEER PARK",
    "state": "VIC",
    "postcode": "3023"
  },
  {
    "id": 7324,
    "name": "Priceline Eaton",
    "address": "Shop T12, Eaton Fair Shopping Centre, 2 Recreation Drive, Eaton, WA, 6232",
    "latitude": -33.3072511,
    "longitude": 115.7279326,
    "source": "priceline.com.au",
    "suburb": "Eaton",
    "state": "WA",
    "postcode": "6232"
  },
  {
    "id": 7325,
    "name": "Priceline Ellenbrook",
    "address": "SHOP T35, ELLENBROOK CENTRAL SHOPPING CENTRE, 11 MAIN STREET, ELLENBROOK, WA, 6069",
    "latitude": -31.7886912,
    "longitude": 115.967022,
    "source": "priceline.com.au",
    "suburb": "ELLENBROOK",
    "state": "WA",
    "postcode": "6069"
  },
  {
    "id": 7327,
    "name": "Priceline Epping Plaza (Near Kmart)",
    "address": "SHOP 104, PACIFIC EPPING PLAZA, CNR HIGH & COOPER STREETS, EPPING, VIC, 3076",
    "latitude": -37.6341341,
    "longitude": 145.016269,
    "source": "priceline.com.au",
    "suburb": "EPPING",
    "state": "VIC",
    "postcode": "3076"
  },
  {
    "id": 7329,
    "name": "Priceline Frankston",
    "address": "SHOP G035Q, BAYSIDE SHOPPING CENTRE, 28 BEACH STREET, FRANKSTON, VIC, 3199",
    "latitude": -38.1645944,
    "longitude": 145.1486206,
    "source": "priceline.com.au",
    "suburb": "FRANKSTON",
    "state": "VIC",
    "postcode": "3199"
  },
  {
    "id": 7330,
    "name": "Priceline Green Hills",
    "address": "SHOP 28, STOCKLAND GREEN HILLS, 1 MOLLY MORGAN DRV, EAST MAITLAND, NSW, 2323",
    "latitude": -32.76118,
    "longitude": 151.59283,
    "source": "priceline.com.au",
    "suburb": "EAST MAITLAND",
    "state": "NSW",
    "postcode": "2323"
  },
  {
    "id": 7333,
    "name": "Priceline Morayfield",
    "address": "SHOP MM3, MORAYFIELD SHOPPING CENTRE, 165 MORAYFIELD ROAD, MORAYFIELD, QLD, 4506",
    "latitude": -27.1120596,
    "longitude": 152.9511178,
    "source": "priceline.com.au",
    "suburb": "MORAYFIELD",
    "state": "QLD",
    "postcode": "4506"
  },
  {
    "id": 7334,
    "name": "Priceline Mt Ommaney",
    "address": "SHOP SP047, MT OMMANEY SHOPPING CENTRE, 171 DANDENONG ROAD, MT OMMANEY, QLD, 4074",
    "latitude": -27.54773,
    "longitude": 152.93744,
    "source": "priceline.com.au",
    "suburb": "MT OMMANEY",
    "state": "QLD",
    "postcode": "4074"
  },
  {
    "id": 7335,
    "name": "Priceline Munno Para",
    "address": "SHOP 59-61, MUNNO PARA SHOPPING CENTRE, 600 MAIN ROAD NORTH, SMITHFIELD, SA, 5114",
    "latitude": -34.689055,
    "longitude": 138.688665,
    "source": "priceline.com.au",
    "suburb": "SMITHFIELD",
    "state": "SA",
    "postcode": "5114"
  },
  {
    "id": 7336,
    "name": "Priceline Northland",
    "address": "SHOP B012, NORTHLAND SHOPPING CENTRE, MURRAY ROAD, PRESTON, VIC, 3072",
    "latitude": -37.740719,
    "longitude": 145.030197,
    "source": "priceline.com.au",
    "suburb": "PRESTON",
    "state": "VIC",
    "postcode": "3072"
  },
  {
    "id": 7337,
    "name": "Priceline Penrith",
    "address": "SHOP 103, WESTFIELD PENRITH, 585 HIGH STREET, PENRITH, NSW, 2750",
    "latitude": -33.7675978,
    "longitude": 150.6834384,
    "source": "priceline.com.au",
    "suburb": "PENRITH",
    "state": "NSW",
    "postcode": "2750"
  },
  {
    "id": 7344,
    "name": "Priceline Pharmacy Belmont Forum",
    "address": "TENANCY 32, BELMONT FORUM SHOPPING CENTRE, 227 BELMONT AVENUE, CLOVERDALE, WA, 6105",
    "latitude": -31.943501,
    "longitude": 115.925499,
    "source": "priceline.com.au",
    "suburb": "CLOVERDALE",
    "state": "WA",
    "postcode": "6105"
  },
  {
    "id": 7348,
    "name": "Priceline Pharmacy Bribie Island",
    "address": "SHOP 6-9, BRIBIE ISLAND SHOPPING CENTRE, 239 - 255 GOODWIN DRIVE, BELLARA, QLD, 4507",
    "latitude": -26.9945654,
    "longitude": 153.1207447,
    "source": "priceline.com.au",
    "suburb": "BELLARA",
    "state": "QLD",
    "postcode": "4507"
  },
  {
    "id": 7354,
    "name": "Priceline Pharmacy Caddens Corner",
    "address": "Shop 19 Caddens Corner, 68 O’Connell St, Caddens, NSW, 2747",
    "latitude": -33.76930916918085,
    "longitude": 150.73451303125472,
    "source": "priceline.com.au",
    "suburb": "Caddens",
    "state": "NSW",
    "postcode": "2747"
  },
  {
    "id": 7355,
    "name": "Priceline Pharmacy Cairns Central",
    "address": "SHOP T158, CAIRNS CENTRAL SHOPPING CENTRE, 1 - 21 MCLEOD STREET, CAIRNS, QLD, 4870",
    "latitude": -16.914033,
    "longitude": 145.7638444,
    "source": "priceline.com.au",
    "suburb": "CAIRNS",
    "state": "QLD",
    "postcode": "4870"
  },
  {
    "id": 7356,
    "name": "Priceline Pharmacy Calderwood",
    "address": "Shop T3, Calderwood Village, 25 Escarpment Drive, Calderwood, NSW, 2527",
    "latitude": -34.573672611018615,
    "longitude": 150.74964609061382,
    "source": "priceline.com.au",
    "suburb": "Calderwood",
    "state": "NSW",
    "postcode": "2527"
  },
  {
    "id": 7358,
    "name": "Priceline Pharmacy Carnes Hill",
    "address": "SHOP B09,, CNR COWPASTURE & KURRAJONG ROADS, HORNINGSEA PARK, NSW, 2171",
    "latitude": -33.930845,
    "longitude": 150.844118,
    "source": "priceline.com.au",
    "suburb": "HORNINGSEA PARK",
    "state": "NSW",
    "postcode": "2171"
  },
  {
    "id": 7361,
    "name": "Priceline Pharmacy Clemton Park",
    "address": "TENANCY 13, CLEMTON PARK VILLAGE, CHARLOTTE STREET, CLEMTON PARK, NSW, 2206",
    "latitude": -33.92181,
    "longitude": 151.100606,
    "source": "priceline.com.au",
    "suburb": "CLEMTON PARK",
    "state": "NSW",
    "postcode": "2206"
  },
  {
    "id": 7362,
    "name": "Priceline Pharmacy Collins Place (Near Sofitel Hotel)",
    "address": "Shop 48, 45 Collins Place (Near Sofitel Hotel), Melbourne, VIC, 3000",
    "latitude": -37.81464,
    "longitude": 144.972027,
    "source": "priceline.com.au",
    "suburb": "Melbourne",
    "state": "VIC",
    "postcode": "3000"
  },
  {
    "id": 7372,
    "name": "Priceline Pharmacy Firle",
    "address": "SHOP 4, GLYNBURN PLAZA, 151 GLYNBURN ROAD, FIRLE, SA, 5070",
    "latitude": -34.889722,
    "longitude": 138.656731,
    "source": "priceline.com.au",
    "suburb": "FIRLE",
    "state": "SA",
    "postcode": "5070"
  },
  {
    "id": 7375,
    "name": "Priceline Pharmacy Forrestfield",
    "address": "SHOP 15, FORRESTFIELD FORUM & MARKETPLACE, 20 STRELITZIA AVENUE, FORRESTFIELD, WA, 6058",
    "latitude": -31.987133,
    "longitude": 116.009733,
    "source": "priceline.com.au",
    "suburb": "FORRESTFIELD",
    "state": "WA",
    "postcode": "6058"
  },
  {
    "id": 7378,
    "name": "Priceline Pharmacy Gables",
    "address": "P20 Stockland Gables Shopping Centre, 2 Lakefront Cr, Gables, NSW, 2765",
    "latitude": -33.623932324295,
    "longitude": 150.9109815872036,
    "source": "priceline.com.au",
    "suburb": "Gables",
    "state": "NSW",
    "postcode": "2765"
  },
  {
    "id": 7379,
    "name": "Priceline Pharmacy Garden City",
    "address": "SHOP MM7A, GARDEN CITY SHOPPING CENTRE, LOGAN ROAD, MT GRAVATT, QLD, 4122",
    "latitude": -27.56012,
    "longitude": 153.07972,
    "source": "priceline.com.au",
    "suburb": "MT GRAVATT",
    "state": "QLD",
    "postcode": "4122"
  },
  {
    "id": 7385,
    "name": "Priceline Pharmacy Gungahlin Market",
    "address": "SHOP 10-11, GUNGAHLIN MARKETPLACE, 30-33 HIBBERSON STREET, GUNGAHLIN, ACT, 2912",
    "latitude": -35.184477,
    "longitude": 149.12859,
    "source": "priceline.com.au",
    "suburb": "GUNGAHLIN",
    "state": "ACT",
    "postcode": "2912"
  },
  {
    "id": 7387,
    "name": "Priceline Pharmacy Heathmont",
    "address": "-,, 162 CANTERBURY ROAD, HEATHMONT, VIC, 3138",
    "latitude": -37.8268388,
    "longitude": 145.2583439,
    "source": "priceline.com.au",
    "suburb": "HEATHMONT",
    "state": "VIC",
    "postcode": "3138"
  },
  {
    "id": 7388,
    "name": "Priceline Pharmacy Hills Showground",
    "address": "Shop 17 , Showground Village, 1-5 Doran Drive, Castle Hill, NSW, 2154",
    "latitude": -33.72780052143578,
    "longitude": 150.98658238049197,
    "source": "priceline.com.au",
    "suburb": "Castle Hill",
    "state": "NSW",
    "postcode": "2154"
  },
  {
    "id": 7390,
    "name": "Priceline Pharmacy Hurstville Cent",
    "address": "SHOP T8-T9, HURSTVILLE CENTRAL, 225H FOREST ROAD, HURSTVILLE, NSW, 2220",
    "latitude": -33.9583688,
    "longitude": 151.0995447,
    "source": "priceline.com.au",
    "suburb": "HURSTVILLE",
    "state": "NSW",
    "postcode": "2220"
  },
  {
    "id": 7392,
    "name": "Priceline Pharmacy Ingleburn",
    "address": "100 MACQUARIE ROAD, INGLEBURN, NSW, 2565",
    "latitude": -33.9958793,
    "longitude": 150.8665414,
    "source": "priceline.com.au",
    "suburb": "INGLEBURN",
    "state": "NSW",
    "postcode": "2565"
  },
  {
    "id": 7403,
    "name": "Priceline Pharmacy Lidcombe",
    "address": "SHOP 37-38, LIDCOMBE SHOPPING CENTRE, 92 PARAMATTA ROAD, LIDCOMBE, NSW, 2144",
    "latitude": -33.849465,
    "longitude": 151.048987,
    "source": "priceline.com.au",
    "suburb": "LIDCOMBE",
    "state": "NSW",
    "postcode": "2144"
  },
  {
    "id": 7404,
    "name": "Priceline Pharmacy Lismore Square",
    "address": "SHOP 22, LISMORE SQUARE SHOPPING CENTRE, CNR BREWSTER & URALBA STREETS, LISMORE, NSW, 2480",
    "latitude": -28.81016767,
    "longitude": 153.2853654,
    "source": "priceline.com.au",
    "suburb": "LISMORE",
    "state": "NSW",
    "postcode": "2480"
  },
  {
    "id": 7405,
    "name": "Priceline Pharmacy Lithgow",
    "address": "Shop 42 Lithgow Valley Plaza, Cnr Lithgow Street & Bent St, Lithgow, NSW, 2790",
    "latitude": -33.486264559483615,
    "longitude": 150.15369983758356,
    "source": "priceline.com.au",
    "suburb": "Lithgow",
    "state": "NSW",
    "postcode": "2790"
  },
  {
    "id": 7409,
    "name": "Priceline Pharmacy Mandurah East (Next to Target)",
    "address": "SHOP G-061, MANDURAH FORUM SHOPPING CENTRE, 330 PINJARRA ROAD, MANDURAH, WA, 6210",
    "latitude": -32.46857656,
    "longitude": 115.759637,
    "source": "priceline.com.au",
    "suburb": "MANDURAH",
    "state": "WA",
    "postcode": "6210"
  },
  {
    "id": 7412,
    "name": "Priceline Pharmacy Maroubra",
    "address": "SHOP 13-15, PACIFIC SQUARE SHOPPING CENTRE, 737 ANZAC PARADE, MAROUBRA, NSW, 2035",
    "latitude": -33.9407579,
    "longitude": 151.2383511,
    "source": "priceline.com.au",
    "suburb": "MAROUBRA",
    "state": "NSW",
    "postcode": "2035"
  },
  {
    "id": 7413,
    "name": "Priceline Pharmacy Mascot Central",
    "address": "SHOP 7, MASCOT CENTRAL SHOPPING CENTRE, 19-33 KENT ROAD, MASCOT, NSW, 2020",
    "latitude": -33.922525,
    "longitude": 151.185251,
    "source": "priceline.com.au",
    "suburb": "MASCOT",
    "state": "NSW",
    "postcode": "2020"
  },
  {
    "id": 7415,
    "name": "Priceline Pharmacy Mktplace Mt Gam",
    "address": "SHOP T33, MOUNT GAMBIER MARKETPLACE, 182-248 PENOLA ROAD, MT GAMBIER, SA, 5290",
    "latitude": -37.8256039,
    "longitude": 140.7712393,
    "source": "priceline.com.au",
    "suburb": "MT GAMBIER",
    "state": "SA",
    "postcode": "5290"
  },
  {
    "id": 7419,
    "name": "Priceline Pharmacy Mt Druitt",
    "address": "SHOP 19-20, WESTFIELD SHOPPING CENTRE, CNR CARLISLE AVENUE & LUXFORD ROAD, MT DRUITT, NSW, 2770",
    "latitude": -33.764027,
    "longitude": 150.817292,
    "source": "priceline.com.au",
    "suburb": "MT DRUITT",
    "state": "NSW",
    "postcode": "2770"
  },
  {
    "id": 7431,
    "name": "Priceline Pharmacy Perth Airport",
    "address": "Shop T03 Neighbourhood Shopping Centre, Perth Airport, 10 High Street, Redcliffe, WA, 6104",
    "latitude": -31.936626238889122,
    "longitude": 115.94943126701332,
    "source": "priceline.com.au",
    "suburb": "Redcliffe",
    "state": "WA",
    "postcode": "6104"
  },
  {
    "id": 7442,
    "name": "Priceline Pharmacy Southland (Next to Coles)",
    "address": "SHOP 1016, WESTFIELD SOUTHLAND SHOPPING CENTRE, 1239 NEPEAN HWY (Next to Coles), CHELTENHAM, VIC, 3192",
    "latitude": -37.964155,
    "longitude": 145.0658766,
    "source": "priceline.com.au",
    "suburb": "CHELTENHAM",
    "state": "VIC",
    "postcode": "3192"
  },
  {
    "id": 7451,
    "name": "Priceline Pharmacy Tahmoor",
    "address": "SHOP 12, TAHMOOR TOWN CENTRE, 117 REMEMBRANCE DRIVE, TAHMOOR, NSW, 2573",
    "latitude": -34.22852,
    "longitude": 150.58955,
    "source": "priceline.com.au",
    "suburb": "TAHMOOR",
    "state": "NSW",
    "postcode": "2573"
  },
  {
    "id": 7452,
    "name": "Priceline Pharmacy Taigum Square",
    "address": "SHOP SP052,, 217 BEAMS ROAD, TAIGUM, QLD, 4018",
    "latitude": -27.349500938189536,
    "longitude": 153.0479535638861,
    "source": "priceline.com.au",
    "suburb": "TAIGUM",
    "state": "QLD",
    "postcode": "4018"
  },
  {
    "id": 7455,
    "name": "Priceline Pharmacy The Willows Qld",
    "address": "SHOP 62, WILLOWS SHOPPING CENTRE, THURINGOWA DRIVE & ROSS RIVER ROAD, THURINGOWA CENTRAL, QLD, 4817",
    "latitude": -19.3143606,
    "longitude": 146.7365307,
    "source": "priceline.com.au",
    "suburb": "THURINGOWA CENTRAL",
    "state": "QLD",
    "postcode": "4817"
  },
  {
    "id": 7460,
    "name": "Priceline Pharmacy Wallsend",
    "address": "Shop 17-18, Wallsend Village, Corner Cowper St & Kokera St, Wallsend, NSW, 2287",
    "latitude": -32.9032821762915,
    "longitude": 151.6675952367976,
    "source": "priceline.com.au",
    "suburb": "Wallsend",
    "state": "NSW",
    "postcode": "2287"
  },
  {
    "id": 7466,
    "name": "Priceline Pharmacy Wetherill Pk",
    "address": "SHOP 72, STOCKLAND WETHERILL PARK, POLDING STREET, WETHERILL PARK, NSW, 2164",
    "latitude": -33.8576079,
    "longitude": 150.9062753,
    "source": "priceline.com.au",
    "suburb": "WETHERILL PARK",
    "state": "NSW",
    "postcode": "2164"
  },
  {
    "id": 7470,
    "name": "Priceline Pharmacy Woolooware",
    "address": "T1.30 Bay Central, 453a Captain Cook Drive, Woolooware , NSW, 2230",
    "latitude": -34.03829395999837,
    "longitude": 151.14298875766983,
    "source": "priceline.com.au",
    "suburb": "Woolooware ",
    "state": "NSW",
    "postcode": "2230"
  },
  {
    "id": 7473,
    "name": "Priceline Plenty Valley",
    "address": "SHOP 2A, WESTFIELD PLENTY VALLEY, CNR MCDONALDS ROAD & CIVIC DRIVE, MILL PARK, VIC, 3082",
    "latitude": -37.6649616,
    "longitude": 145.0658766,
    "source": "priceline.com.au",
    "suburb": "MILL PARK",
    "state": "VIC",
    "postcode": "3082"
  },
  {
    "id": 7474,
    "name": "Priceline Rockingham",
    "address": "SHOP G039A, ROCKINGHAM SHOPPING CENTRE, 1 COUNCIL ROAD, ROCKINGHAM, WA, 6168",
    "latitude": -32.2822732,
    "longitude": 115.7693535,
    "source": "priceline.com.au",
    "suburb": "ROCKINGHAM",
    "state": "WA",
    "postcode": "6168"
  },
  {
    "id": 7477,
    "name": "Priceline Tweed City",
    "address": "SHOP 108/109, TWEED CITY SHOPPING CENTRE, 54 MINJUNGBAL DRIVE, TWEED HEADS SOUTH, NSW, 2486",
    "latitude": -28.2187657,
    "longitude": 153.4744054,
    "source": "priceline.com.au",
    "suburb": "TWEED HEADS SOUTH",
    "state": "NSW",
    "postcode": "2486"
  },
  {
    "id": 7478,
    "name": "Priceline Wagga",
    "address": "SHOP 4, WAGGA WAGGA MARKETPLACE, 87 BAYLIS STREET, WAGGA WAGGA, NSW, 2650",
    "latitude": -35.283152,
    "longitude": 147.4174803,
    "source": "priceline.com.au",
    "suburb": "WAGGA WAGGA",
    "state": "NSW",
    "postcode": "2650"
  },
  {
    "id": 7479,
    "name": "Priceline Warwick",
    "address": "SHOP SP008, WARWICK GROVE SHOPPING CENTRE, CNR BEACH & ERINDALE ROADS, WARWICK, WA, 6020",
    "latitude": -31.8335417,
    "longitude": 115.8107681,
    "source": "priceline.com.au",
    "suburb": "WARWICK",
    "state": "WA",
    "postcode": "6020"
  },
  {
    "id": 7480,
    "name": "Priceline Wendouree",
    "address": "SHOP 35, STOCKLAND WENDOUREE, CNR GILLES & NORMAN STREETS, WENDOUREE, VIC, 3355",
    "latitude": -37.5334712,
    "longitude": 143.8337921,
    "source": "priceline.com.au",
    "suburb": "WENDOUREE",
    "state": "VIC",
    "postcode": "3355"
  },
  {
    "id": 7481,
    "name": "Priceline West Lakes",
    "address": "SHOP 31-33, WESTFIELD WEST LAKES, 111 WEST LAKES BOULEVARD, WEST LAKES, SA, 5021",
    "latitude": -34.8722171,
    "longitude": 138.496221,
    "source": "priceline.com.au",
    "suburb": "WEST LAKES",
    "state": "SA",
    "postcode": "5021"
  },
  {
    "id": 7483,
    "name": "Priceline Willetton",
    "address": "SHOP 60, SOUTHLANDS BOULEVARDE SHOPPING CENTRE, 45 BURRENDAH BOULEVARD, WILLETTON, WA, 6155",
    "latitude": -32.0819784,
    "longitude": 115.91132,
    "source": "priceline.com.au",
    "suburb": "WILLETTON",
    "state": "WA",
    "postcode": "6155"
  },
  {
    "id": 7485,
    "name": "Invermay Discount Drug Store",
    "address": "",
    "latitude": -41.4277169,
    "longitude": 147.137644,
    "source": "OpenStreetMap-verify",
    "suburb": "",
    "state": "TAS",
    "postcode": ""
  },
  {
    "id": 7487,
    "name": "Healthpoint Pharmacy Snug",
    "address": "2241, Channel Highway, Snug, TAS, 7054",
    "latitude": -43.0689239,
    "longitude": 147.256886,
    "source": "OpenStreetMap-verify",
    "suburb": "Snug",
    "state": "TAS",
    "postcode": "7054"
  },